     3.04           OBSERVATION DATA    M                   RINEX VERSION / TYPE
ssrcrin-15.6.1x                         20241022 190600 UTC PGM / RUN BY / DATE 
(00000000581825133055000004) Septentrio proprietary         COMMENT             
xhoo                                                        MARKER NAME         
xhoo                                                        MARKER NUMBER       
GEODETIC                                                    MARKER TYPE         
Ellen Knappe        UCSD                                    OBSERVER / AGENCY   
3234842             SEPT POLARX5        5.5.0               REC # / TYPE / VERS 
33-605000-01-01     TWIVP6050_CONE  NONE                    ANT # / TYPE        
 -2455552.6078 -4767162.1356  3441691.7903                  APPROX POSITION XYZ 
        0.0000        0.0000        0.0000                  ANTENNA: DELTA H/E/N
G   11 C1C L1C C1W C2W L2W C2L L2L C5Q L5Q C1L L1L          SYS / # / OBS TYPES 
E   10 C1C L1C C6C L6C C5Q L5Q C7Q L7Q C8Q L8Q              SYS / # / OBS TYPES 
S    4 C1C L1C C5I L5I                                      SYS / # / OBS TYPES 
R    6 C1C L1C C2C L2C C3Q L3Q                              SYS / # / OBS TYPES 
C   12 C1P L1P C5P L5P C2I L2I C7I L7I C6I L6I C7D L7D      SYS / # / OBS TYPES 
J   12 C1C L1C C2L L2L C5Q L5Q C1L L1L C1Z L1Z C5P L5P      SYS / # / OBS TYPES 
I    2 C5A L5A                                              SYS / # / OBS TYPES 
SEPTENTRIO RECEIVERS OUTPUT ALIGNED CARRIER PHASES.         COMMENT             
NO FURTHER PHASE SHIFT APPLIED IN THE RINEX ENCODER.        COMMENT             
G L1C                                                       SYS / PHASE SHIFT   
G L2W                                                       SYS / PHASE SHIFT   
G L2L  0.00000                                              SYS / PHASE SHIFT   
G L5Q  0.00000                                              SYS / PHASE SHIFT   
G L1L  0.00000                                              SYS / PHASE SHIFT   
E L1C  0.00000                                              SYS / PHASE SHIFT   
E L6C  0.00000                                              SYS / PHASE SHIFT   
E L5Q  0.00000                                              SYS / PHASE SHIFT   
E L7Q  0.00000                                              SYS / PHASE SHIFT   
E L8Q  0.00000                                              SYS / PHASE SHIFT   
S L1C                                                       SYS / PHASE SHIFT   
S L5I                                                       SYS / PHASE SHIFT   
R L1C                                                       SYS / PHASE SHIFT   
R L2C                                                       SYS / PHASE SHIFT   
R L3Q  0.00000                                              SYS / PHASE SHIFT   
C L1P  0.00000                                              SYS / PHASE SHIFT   
C L5P  0.00000                                              SYS / PHASE SHIFT   
C L2I                                                       SYS / PHASE SHIFT   
C L7I                                                       SYS / PHASE SHIFT   
C L6I                                                       SYS / PHASE SHIFT   
C L7D                                                       SYS / PHASE SHIFT   
J L1C                                                       SYS / PHASE SHIFT   
J L2L  0.00000                                              SYS / PHASE SHIFT   
J L5Q  0.00000                                              SYS / PHASE SHIFT   
J L1L  0.00000                                              SYS / PHASE SHIFT   
J L1Z  0.00000                                              SYS / PHASE SHIFT   
J L5P  0.00000                                              SYS / PHASE SHIFT   
I L5A                                                       SYS / PHASE SHIFT   
  2024    10    22    19     6   30.0000000     GPS         TIME OF FIRST OBS   
 C1C    0.000 C2C    0.000                                  GLONASS COD/PHS/BIS 
    18                                                      LEAP SECONDS        
 24 R01  1 R02 -4 R03  5 R04  6 R05  1 R06 -4 R07  5 R08  6 GLONASS SLOT / FRQ #
    R09 -2 R10 -7 R11  0 R12 -1 R13 -2 R14 -7 R15  0 R16 -1 GLONASS SLOT / FRQ #
    R17  4 R18 -3 R19  3 R20  2 R21  4 R22 -3 R23  3 R24  2 GLONASS SLOT / FRQ #
                                                            END OF HEADER       
> 2024 10 22 19 06 30.0000000  0 23
E03  27828948.763 4 146242114.04204                                                                  27828967.907 5 112055725.77105
G28  22986082.988 6 120792661.73306  22986082.787 3  22986092.541 3  94124189.50703  22986092.386 6  94124179.49206  22986097.759 6  90202370.35706  22986082.109 6 120792661.74306
G21  23530070.475 7 123651343.74907  23530069.215 4  23530080.859 4  96351730.41804
C37  23432687.952 7 123139601.35507  23432702.091 7  91954950.63007  23432686.046 8 122020137.99408                                  23432699.363 7  99151414.61507  23432700.739 8  94353770.11908
G03  20715901.958 8 108862798.37708  20715901.717 8  20715910.275 8  84828189.49908  20715911.179 7  84828187.49707  20715909.936 7  81293682.26707
E36  25300024.807 7 132952518.11507  25300031.802 7 107916032.94007  25300037.934 6  99282773.06006  25300036.264 7 101872751.00307  25300037.345 8 100577764.60708
E05  22886372.652 7 120268696.90007  22886376.822 7  97620711.01607  22886383.052 7  89811083.74507  22886381.224 8  92153972.84408  22886382.281 8  90982528.36508
G31  20509347.498 8 107777346.82008  20509346.966 7  20509352.783 7  83982365.07307  20509352.653 7  83982361.07007
E09  24794161.973 7 130294192.51907  24794168.017 7 105758294.25007  24794172.966 7  97297654.76607  24794170.912 8  99835846.85608  24794171.951 8  98566751.38208
C19  23333766.525 7 122619773.84707  23333775.830 6  91566750.85906  23333765.664 8 121505042.24108                                  23333770.671 7  98732823.08207  23333774.497 7  93955441.18607
G26  21856807.823 7 114858300.99707  21856807.036 7  21856819.616 7  89500028.59107  21856819.948 7  89500020.59707  21856819.195 7  85770852.94607
E24  26434455.950 7 138914009.18107  26434465.011 6 112754920.96806  26434470.408 6 103734546.25406  26434468.604 7 106440653.96607  26434469.705 7 105087604.18307
E11  27916431.590 5 146701819.30305  27916444.999 5 119076189.60705  27916452.417 4 109550132.81704  27916447.212 5 112407947.10405  27916449.964 5 110979045.52905
C20  22454065.010 8 117996903.78808  22454072.525 7  88114601.13207  22454063.841 8 116924202.19808                                  22454067.980 7  95010507.87507  22454071.091 8  90413235.51608
G02  22797188.425 7 119800025.93407  22797187.272 5  22797196.680 5  93350692.60205
C29  26191479.874 3                  26191487.155 4 102781005.80204  26191467.847 5 136385888.62605                                  26191485.389 5 110824707.03705  26191482.083 5 105462228.18605
G16  23421264.231 7 123079583.37707  23421263.261 4  23421275.816 4  95906223.43304
C35                                  26076816.148 3 102331007.02003  26076800.851 4
E31  26025987.664 6 136767484.25006  26025994.750 5 111012596.96805  26026002.578 5 102131625.26105  26026000.019 6 104795917.77106  26026001.616 6 103463777.59006
G04  22362301.036 7 117514683.39807  22362300.536 5  22362310.667 5  91569929.56305  22362310.201 7  91569919.56707  22362314.560 6  87754526.47006  22362300.996 7 117514683.40607
C36  25456802.551 7 133776403.86807  25456827.201 6  99898069.73606  25456798.250 7 132560246.37807                                  25456820.740 6 107716159.35006  25456824.750 7 102504095.50607
E06  26041212.893 6 136847487.76206  26041220.374 6 111077538.73206  26041228.385 6 102191363.66506  26041225.945 7 104857214.81807  26041227.051 7 103524289.31507
E34  25146153.471 7 132143925.70107  25146160.639 6 107259710.03406  25146165.837 6  98678952.39006  25146164.122 7 101253179.30607  25146165.030 7  99966067.92307
> 2024 10 22 19 07  0.0000000  0 23
E03  27819167.353 5 146190700.42705                                                                  27819183.669 4 112016330.94604
G28  23003371.074 6 120883512.93006  23003370.806 3  23003381.578 3  94194982.42903  23003381.653 6  94194972.40806  23003386.459 6  90270213.52806  23003371.553 6 120883512.94506
G21  23544653.745 7 123727975.51507  23544652.498 4  23544662.892 4  96411443.24404
C37  23440963.977 7 123183091.81907  23440978.340 7  91987427.17207  23440961.461 7 122063233.09707                                  23440975.406 7  99186432.84107  23440976.682 8  94387093.89008
G03  20705348.868 8 108807341.93708  20705348.618 8  20705357.733 8  84784976.71508  20705357.860 7  84784974.72507  20705356.919 7  81252270.03507
E36  25314161.152 7 133026806.01707  25314168.583 7 107976331.42907  25314174.562 6  99338247.61006  25314172.845 7 101929672.73407  25314173.990 8 100633962.74508
E05  22882542.339 7 120248569.68607  22882546.771 7  97604373.99007  22882552.888 7  89796053.67507  22882551.175 8  92138550.69708  22882552.194 8  90967302.25808
G31  20518355.011 8 107824680.65808  20518354.479 7  20518360.380 7  84019248.51107  20518360.254 7  84019244.49707
E09  24800067.352 7 130325225.65707  24800073.413 7 105783483.43107  24800078.210 7  97320828.76307  24800076.360 8  99859625.41308  24800077.368 8  98590227.66008
C19  23323732.841 7 122567046.45207  23323741.972 6  91527376.53406  23323731.813 8 121452794.18008                                  23323737.294 7  98690367.28207  23323740.804 7  93915039.69407
G26  21848470.669 7 114814490.55707  21848469.878 7  21848482.624 7  89465890.65307  21848482.694 7  89465882.66207  21848482.143 7  85738137.44207
E24  26420187.802 7 138839028.71407  26420196.304 6 112694060.22106  26420202.084 6 103678554.39806  26420200.327 7 106383201.45707  26420201.294 7 105030882.00507
E11  27933976.112 5 146794014.34405  27933989.531 5 119151022.91205  27933996.710 4 109618979.22404  27933991.490 5 112478589.59905  27933994.531 5 111048789.99405
C20  22455772.323 8 118005875.76608  22455779.685 7  88121300.94307  22455771.421 8 116933092.60908                                  22455775.289 7  95017732.03407  22455778.912 8  90420110.10808
G02  22809186.063 7 119863072.75207  22809184.879 5  22809194.110 5  93399819.81005
C29  26205164.542 4                  26205187.036 4 102834764.59104  26205164.129 4 136457224.33704                                  26205185.228 5 110882673.10705  26205183.780 5 105517389.26405
G16  23402634.546 7 122981687.49207  23402633.567 4  23402646.983 4  95829941.10204
C35                                  26084026.546 3                  26084007.788 5                                                  26084024.300 3
E31  26022574.374 6 136749547.65406  26022581.437 5 110998037.95905  26022589.753 5 102118231.01005  26022586.710 6 104782174.09806  26022588.324 6 103450208.62206
G04  22352127.810 7 117461221.68007  22352127.314 5  22352136.447 5  91528271.11105  22352137.086 7  91528261.10807  22352140.824 6  87714603.81106  22352127.909 7 117461221.68007
C36  25437550.810 7 133675234.45907  25437575.189 6  99822521.31506  25437547.080 7 132459996.69607                                  25437568.795 6 107634698.40206  25437572.588 7 102426576.23307
E06  26050166.552 6 136894537.41806  26050174.058 6 111115728.24106  26050181.761 6 102226497.95006  26050179.518 7 104893265.68307  26050180.732 7 103559881.88907
E34  25146455.169 7 132145511.01107  25146462.470 7 107260996.76207  25146467.381 6  98680136.16006  25146465.795 7 101254393.96707  25146466.802 7  99967267.13507
> 2024 10 22 19 07 30.0000000  0 23
E03  27809388.562 5 146139324.93905                                                                  27809407.285 4 111976965.33504
G28  23020693.607 6 120974543.98206  23020693.259 3  23020704.264 3  94265915.48303  23020703.709 6  94265905.46206  23020709.342 6  90338190.97506  23020693.823 6 120974543.98806
G21  23559259.240 7 123804727.65707  23559258.038 4  23559267.877 4  96471249.88404
C37  23449323.842 7 123227022.53007  23449337.978 7  92020232.49007  23449321.236 7 122106764.43707                                  23449335.223 7  99221805.56007  23449336.561 7  94420755.00807
G03  20694867.716 8 108752263.61908  20694867.466 7  20694876.223 7  84742058.57107  20694876.854 7  84742056.58107  20694876.085 7  81211140.16707
E36  25328343.618 7 133101334.52907  25328350.669 7 108036825.21807  25328357.004 7  99393901.82407  25328355.206 7 101986778.82807  25328356.350 8 100690342.90108
E05  22878726.652 7 120228516.75007  22878730.732 7  97588097.26207  22878736.858 7  89781079.07707  22878735.142 8  92123185.45508  22878736.263 8  90952132.33608
G31  20527455.456 8 107872503.94208  20527454.924 7  20527460.919 7  84056513.33207  20527461.044 7  84056509.32307
E09  24805980.463 7 130356299.83007  24805986.879 7 105808705.89607  24805991.470 7  97344033.41307  24805989.754 8  99883435.39508  24805990.655 8  98613734.97408
C19  23313715.959 7 122514407.83707  23313725.212 6  91488068.49906  23313714.724 8 121400634.11008                                  23313720.436 7  98647982.97507  23313724.207 7  93874706.24107
G26  21840230.489 7 114771188.32907  21840229.694 7  21840242.586 7  89432148.72607  21840242.456 7  89432140.72807  21840241.610 7  85705801.43307
E24  26405945.746 7 138764186.65207  26405954.828 6 112633311.86606  26405960.151 6 103622665.92306  26405958.127 7 106325855.01507  26405959.244 7 104974264.54507
E11  27951503.979 5 146886124.86905  27951518.108 4 119225787.54304  27951525.098 4 109687762.57504  27951520.323 5 112549167.35605  27951523.073 5 111118470.53805
C20  22457521.991 8 118015070.00208  22457529.186 7  88128166.71307  22457521.305 8 116942203.26608                                  22457524.714 7  95025135.15207  22457528.741 8  90427155.00008
G02  22821242.353 7 119926425.74707  22821241.124 5  22821249.480 5  93449185.58705
C29  26218853.140 4                  26218875.102 4 102888477.08704  26218854.406 4                                                  26218878.883 5 110940589.39105  26218874.015 5 105572503.03405
G16  23384029.116 7 122883914.30507  23384028.151 4  23384041.263 4  95753754.36504
C35                                  26091302.873 3                  26091282.912 5                                                  26091297.993 3
E31  26019236.552 6 136732008.65706  26019243.339 5 110983801.72405  26019252.436 5 102105133.65205  26019249.183 5 104768735.08005  26019250.709 6 103436940.44706
G04  22341975.763 7 117407872.24007  22341975.272 5  22341984.656 5  91486700.14805  22341984.882 7  91486690.14007  22341988.753 6  87674764.98206  22341975.795 7 117407872.24207
C36  25418312.534 7 133574137.43507  25418336.875 6  99747026.95506  25418309.154 7 132359818.73307                                  25418330.382 6 107553295.72106  25418334.499 7 102349112.43607
E06  26059122.506 6 136941600.94506  26059129.913 6 111153929.02206  26059138.030 6 102261642.59106  26059135.989 7 104929327.17807  26059136.851 7 103595484.95307
E34  25146842.938 7 132147548.56407  25146850.385 7 107262650.58807  25146855.261 6  98681657.66306  25146853.679 7 101255955.16507  25146854.662 8  99968808.48508
> 2024 10 22 19 08  0.0000000  0 23
E03                                                                                                  27799636.893 4 111937620.67204
G28  23038048.307 6 121065742.17706  23038047.914 3  23038058.805 3  94336978.79603  23038058.819 6  94336968.77806  23038063.967 6  90406293.27806  23038047.585 6 121065742.19706
G21  23573884.940 7 123881587.49307  23573883.720 4  23573895.172 4  96531140.43904
C37  23457765.073 7 123271381.73607  23457779.223 7  92053357.78207  23457762.635 7 122150720.37607                                  23457776.604 7  99257523.29107  23457778.014 7  94454744.44507
G03  20684457.093 7 108697555.41007  20684456.839 7  20684465.364 7  84699428.83407  20684466.365 7  84699426.83907  20684465.402 7  81170286.66207
E36  25342569.428 7 133176091.34107  25342576.617 7 108097504.31807  25342582.849 7  99449726.54207  25342581.104 7 102044059.85107  25342582.244 8 100746895.77008
E05  22874922.627 7 120208527.42107  22874926.828 7  97571872.15307  22874933.184 7  89766151.99707  22874931.337 8  92107868.96508  22874932.473 8  90937010.54908
G31  20536646.795 8 107920804.11608  20536646.263 7  20536651.735 7  84094149.75507  20536652.425 7  84094145.74707
E09  24811899.409 7 130387404.65107  24811906.192 7 105833953.24807  24811910.701 7  97367260.93207  24811908.863 8  99907268.87308  24811909.809 8  98637265.47308
C19  23303714.266 7 122461848.72407  23303723.407 6  91448819.82906  23303713.250 8 121348552.80808                                  23303718.620 7  98605662.66607  23303722.499 7  93834433.69307
G26  21832085.523 7 114728386.30107  21832084.741 7  21832097.611 7  89398796.55107  21832098.067 7  89398788.55707  21832096.650 7  85673838.95607
E24  26391728.716 7 138689474.75407  26391737.846 6 112572669.17206  26391742.786 6 103566874.65406  26391740.483 7 106268608.31007  26391741.975 7 104917745.56207
E11  27969014.300 5 146978138.86105  27969027.613 4 119300473.86704  27969035.025 4 109756473.84004  27969030.612 5 112619671.11605  27969033.186 5 111188078.05905
C20  22459311.876 8 118024477.07508  22459319.598 7  88135191.43107  22459310.995 8 116951524.82508                                  22459315.126 7  95032709.64407  22459318.589 8  90434362.96908
G02  22833353.791 7 119990072.32407  22833352.584 5  22833360.664 5  93498780.14005
C29  26232529.043 4                  26232549.682 4 102942133.96004  26232519.045 3                                                  26232554.105 4
G16  23365445.138 7 122786257.02407  23365444.168 4  23365458.112 4  95677657.92204
C35                                                                  26098606.177 5 135902319.57515
E31  26015972.981 6 136714857.81106  26015980.142 5 110969880.56105  26015988.113 5 102092326.18105  26015985.249 5 104755593.44105  26015986.541 6 103423965.88506
G04  22331842.980 7 117354624.58307  22331842.480 5  22331852.210 5  91445208.50305  22331852.644 7  91445198.50707  22331855.624 6  87635002.16306  22331842.637 7 117354624.58507
C36  25399086.422 7 133473104.48707  25399110.890 6  99671580.45106  25399083.406 7 132259704.27707                                  25399104.149 6 107471944.63306  25399108.420 7 102271697.75107
E06  26068079.011 6 136988668.23406  26068086.668 6 111192132.86806  26068094.784 6 102296790.03606  26068092.378 7 104965391.53807  26068093.525 7 103631090.85907
E34  25147314.830 7 132150027.90407  25147321.830 7 107264662.99607  25147327.169 6  98683509.06006  25147325.599 7 101257854.87207  25147326.494 8  99970684.03808
> 2024 10 22 19 08 30.0000000  0 23
E03  27789853.065 3                                                                                  27789868.583 4 111898293.33504
G28  23055433.556 5 121157100.87305  23055433.243 3  23055444.170 3  94408167.13403  23055444.131 6  94408157.11706  23055449.156 6  90474515.38006  23055433.006 5 121157100.84905
G21  23588531.039 7 123958547.95907  23588529.823 4  23588541.748 4  96591109.40004
C37  23466286.681 7 123316163.60907  23466300.863 7  92086798.70107  23466284.184 8 122195095.13808                                  23466298.311 7  99293581.37107  23466299.804 7  94489057.74107
G03  20674116.387 8 108643215.32308  20674116.128 7  20674125.189 7  84657085.93907  20674125.440 7  84657083.93507  20674124.838 7  81129708.06007
E36  25356837.470 7 133251070.09607  25356844.515 7 108158363.56607  25356851.066 7  99505716.98207  25356849.287 7 102101510.94007  25356850.365 8 100803616.53408
E05  22871129.901 7 120188597.07907  22871134.273 7  97555694.93007  22871140.664 7  89751268.95007  22871138.791 8  92092597.66708  22871139.871 8  90921933.37808
G31  20545927.701 8 107969574.65208  20545927.169 7  20545932.427 7  84132152.69607  20545933.326 7  84132148.68907
E09  24817824.027 7 130418535.76607  24817830.439 7 105859221.94107  24817834.594 6  97390508.10906  24817833.138 8  99931122.50508  24817833.976 8  98660815.88108
C19  23293726.981 7 122409365.82707  23293736.534 6  91409628.07506  23293726.265 8 121296547.02308                                  23293731.398 7  98563403.72307  23293735.405 7  93794219.54907
G26  21824035.295 7 114686082.38207  21824034.517 7  21824047.675 7  89365832.52507  21824047.491 7  89365824.52807  21824046.560 7  85642248.44307
E24  26377535.940 7 138614890.82907  26377544.671 6 112512130.33506  26377550.356 6 103511178.95106  26377547.427 7 106211459.65507  26377548.991 7 104861323.37607
E11  27986505.029 5 147070050.15605  27986517.672 4 119375076.87004  27986524.686 4 109825108.32204  27986521.091 5 112690096.18105  27986523.907 5 111257607.84205
C20  22461141.590 8 118034093.57008  22461149.771 7  88142372.51807  22461140.930 8 116961053.90008                                  22461145.153 7  95040452.74307  22461148.518 8  90441731.39708
G02  22845519.621 7 120054005.55207  22845518.401 5  22845527.314 5  93548598.06705
C29  26246187.999 4                  26246208.605 4 102995730.36004  26246184.757 3                                                  26246215.198 3
G16  23346883.584 7 122688715.07907  23346882.592 4  23346896.393 4  95601651.35204
C35  26105992.201 5 137187917.82115                                  26105990.978 6 135940769.49806                                  26106002.598 3
E31  26012782.330 6 136698091.68506  26012789.449 5 110956271.60605  26012797.075 5 102079805.92705  26012795.152 6 104742746.57606  26012796.003 6 103411282.33006
G04  22321728.543 7 117301474.28207  22321728.056 5  22321738.232 5  91403792.71505  22321738.156 7  91403782.71107  22321741.476 6  87595312.04206  22321728.474 7 117301474.28407
C36  25379872.225 7 133372133.30807  25379896.361 6  99596180.09506  25379869.627 7 132159651.04307                                  25379889.809 6 107390643.31106  25379894.004 7 102194330.40907
E06  26077035.488 6 137035735.07006  26077043.626 6 111230336.35506  26077051.522 6 102331937.18006  26077049.038 7 105001455.58007  26077050.229 7 103666696.45507
E34  25147869.699 7 132152944.48907  25147876.799 6 107267030.32906  25147882.159 6  98685686.98506  25147880.554 7 101260089.61707  25147881.521 8  99972890.37408
> 2024 10 22 19 09  0.0000000  0 23
E03                                                                                                  27780108.409 4 111858991.71404
G28  23072851.246 6 121248628.93506  23072850.992 3  23072861.403 3  94479487.49103  23072861.740 6  94479477.47906  23072866.298 6  90542864.02706  23072850.584 6 121248628.93206
G21  23603196.883 6 124035617.66706  23603195.663 4  23603208.500 4  96651163.49004
C37  23474890.737 7 123361378.00407  23474904.866 7  92120562.60407  23474888.469 7 122239898.49707                                  23474902.383 7  99329987.69107  23474903.754 7  94523702.45107
G03  20663848.589 8 108589256.99908  20663848.348 8  20663857.400 8  84615040.51508  20663857.478 7  84615038.52007  20663856.970 7  81089414.53707
E36  25371149.841 7 133326280.11107  25371156.881 6 108219410.52606  25371163.258 7  99561880.12907  25371161.383 7 102159139.21807  25371162.459 8 100860512.24708
E05  22867350.862 7 120168736.68107  22867354.986 7  97539574.47907  22867361.201 7  89736438.13207  22867359.506 8  92077379.96108  22867360.504 8  90906909.12008
G31  20555299.604 8 108018824.55408  20555299.077 8  20555304.908 8  84170529.16908  20555305.220 7  84170525.16207
E09  24823754.899 7 130449704.46207  24823761.262 7 105884521.13607  24823765.763 7  97413783.34707  24823764.509 8  99955004.93508  24823765.149 8  98684394.71908
C19  23283756.887 7 122356971.51007  23283766.385 6  91370502.47006  23283755.894 8 121244629.02808                                  23283761.066 7  98521216.10207  23283765.328 7  93754073.27907
G26  21816082.604 7 114644290.12307  21816081.840 7  21816094.524 7  89333267.18807  21816094.646 7  89333259.19807  21816093.425 7  85611040.01007
E24  26363369.805 7 138540448.21707  26363379.256 6 112451706.20606  26363384.086 6 103455588.77506  26363381.483 7 106154419.30307  26363383.056 7 104805008.11207
E11  28003977.415 5 147161868.53705  28003990.123 4 119449604.39704  28003997.792 4 109893673.52804  28003994.199 5 112760450.03105  28003996.745 5 111327067.35005
C20  22463013.912 7 118043931.68507  22463021.730 7  88149719.08807  22463013.345 8 116970802.55508                                  22463017.251 7  95048374.30807  22463020.643 8  90449269.63708
G02  22857742.155 7 120118233.96807  22857740.966 5  22857750.351 5  93598645.99805
C29  26259838.163 4                  26259857.970 4 103049272.92704  26259826.278 4                                                  26259852.006 3
G16  23328346.767 6 122591302.33106  23328345.779 4  23328358.942 4  95525745.45004
C35  26113435.028 5 137227021.37705                                  26113433.348 6 135979517.57306                                  26113446.995 4
E31  26009667.343 6 136681722.32506  26009674.107 5 110942984.79605  26009681.460 4 102067581.95304  26009681.094 6 104730203.78806  26009681.527 6 103398898.94206
G04  22311634.721 7 117248432.44507  22311634.225 5  22311644.688 5  91362461.44505  22311644.697 7  91362451.45907  22311648.313 6  87555702.91306  22311634.885 7 117248432.44707
C36  25360672.376 6 133271237.27206  25360696.432 6  99520835.86006  25360670.610 7 132059672.24907                                  25360689.846 6 107309402.48906  25360693.830 7 102117020.64307
E06  26085994.223 6 137082812.92206  26086002.358 6 111268548.75506  26086009.892 6 102367092.52406  26086008.018 7 105037528.05707  26086009.067 7 103702310.36807
E34  25148510.263 7 132156309.43207  25148517.041 6 107269761.60006  25148522.456 7  98688199.72407  25148521.063 7 101262667.91207  25148521.889 8  99975435.89208
> 2024 10 22 19 09 30.0000000  0 23
E03  27770333.552 3                                                                                  27770354.008 4 111819711.65504
G28  23090298.938 6 121340318.98206  23090298.612 3  23090309.004 3  94550934.04303  23090310.040 6  94550924.03106  23090314.810 6  90611333.59606  23090299.256 6 121340318.97906
G21  23617881.635 6 124112789.24206  23617880.428 4  23617893.134 4  96711296.95004
C37  23483575.999 7 123407018.27507  23483589.968 7  92154644.53507  23483573.522 7 122285123.84907                                  23483587.506 7  99366736.93207  23483588.952 7  94558673.48407
G03  20653652.721 8 108535677.62508  20653652.471 7  20653661.180 7  84573290.37307  20653661.642 7  84573288.38407  20653660.893 7  81049403.99607
E36  25385504.674 7 133401714.26407  25385511.538 6 108280639.42406  25385518.332 7  99618210.64107  25385516.161 7 102216939.24607  25385517.248 8 100917577.51908
E05  22863583.824 7 120148940.78507  22863587.905 7  97523506.39007  22863594.263 7  89721655.48607  22863592.565 8  92062211.67708  22863593.462 8  90891933.65408
G31  20564761.172 8 108068546.06708  20564760.663 7  20564766.727 7  84209273.13007  20564767.026 7  84209269.12207
E09  24829692.345 7 130480905.63307  24829698.583 7 105909846.69007  24829703.362 7  97437082.82407  24829701.624 7  99978912.24507  24829702.632 8  98707998.11308
C19  23273802.686 7 122304661.71207  23273811.981 6  91331439.98106  23273801.538 8 121192794.76508                                  23273807.138 7  98479096.52307  23273811.245 7  93713991.76107
G26  21808226.751 7 114603006.67407  21808225.982 7  21808238.424 7  89301098.31507  21808238.505 7  89301090.32107  21808237.595 7  85580211.50807
E24  26349230.025 7 138466143.90607  26349239.220 7 112391394.34507  26349244.836 6 103400101.89606  26349241.921 7 106097484.93807  26349243.526 7 104748797.49107
E11  28021432.204 4 147253587.03904  28021443.638 4 119524050.85104  28021452.714 4 109962164.07204  28021447.840 5 112830727.35005  28021450.821 5 111396451.26805
C20  22464927.776 7 118053987.18607  22464935.036 7  88157228.03207  22464926.760 8 116980766.64608                                  22464930.911 7  95056470.90607  22464934.365 8  90456974.45708
G02  22870018.995 7 120182750.04307  22870017.819 5  22870027.204 5  93648918.07205
C29                                                                  26273466.064 5                                                  26273497.998 4
G16  23309833.781 6 122494017.56006  23309832.784 4  23309845.128 4  95449939.25604
C35  26120931.129 5 137266418.75105                                  26120931.028 5 136018556.79005                                  26120944.287 4
E31  26006627.525 6 136665745.53806  26006634.455 5 110930016.57505  26006642.754 5 102055651.16205  26006640.578 6 104717961.78006  26006641.834 6 103386812.53906
G04  22301560.931 7 117195493.87207  22301560.440 5  22301570.722 5  91321210.64505  22301570.632 7  91321200.65907  22301574.485 6  87516170.90406  22301561.086 7 117195493.88207
C36  25341486.041 6 133170413.27306  25341509.878 6  99445545.41506  25341484.062 7 131959764.82907                                  25341503.726 6 107228219.68306  25341507.325 7 102039766.07507
E06  26094954.059 6 137129896.80706  26094962.831 6 111306766.05706  26094969.751 6 102402252.37706  26094968.046 7 105073605.14707  26094969.166 7 103737928.83907
E34  25149235.021 7 132160117.43307  25149241.924 6 107272852.47006  25149247.432 7  98691043.29807  25149245.604 7 101265585.67807  25149246.614 8  99978316.56008
> 2024 10 22 19 10  0.0000000  0 23
E03  27760583.546 4                                                                                  27760602.046 4 111780450.89504
G28  23107776.439 6 121432166.22106  23107776.113 3  23107787.302 3  94622503.09703  23107787.942 6  94622493.08306  23107792.811 6  90679920.55306  23107776.597 6 121432166.21006
G21  23632585.961 6 124190057.60606  23632584.759 4  23632595.829 4  96771505.82604
C37  23492341.503 7 123453080.47207  23492355.444 7  92189041.53907  23492339.213 7 122330767.29107                                  23492352.891 7  99403825.89907  23492354.545 7  94593967.81907
G03  20643529.234 8 108482477.06208  20643528.984 8  20643537.435 8  84531835.40908  20643537.954 7  84531833.41807  20643536.986 7  81009676.33907
E36  25399901.097 7 133477368.07307  25399908.245 6 108342046.59306  25399914.765 7  99674705.19007  25399912.699 7 102274907.58507  25399913.834 8 100974808.96608
E05  22859828.324 7 120129206.60907  22859832.545 7  97507488.38007  22859838.826 7  89706918.91207  22859837.421 8  92047090.68108  22859838.238 8  90877004.87008
G31  20574311.684 8 108118734.36908  20574311.175 8  20574317.241 8  84248380.81808  20574317.973 7  84248376.80907
E09  24835635.641 7 130512136.80107  24835641.934 7 105935196.59907  24835647.058 7  97460404.70707  24835644.695 7 100002842.53807  24835646.018 8  98731624.19608
C19  23263864.535 7 122252435.05107  23263873.592 7  91292439.56507  23263863.116 8 121141042.89408                                  23263868.901 7  98437043.91107  23263872.635 7  93673973.95707
G26  21800467.489 7 114562231.74607  21800466.725 7  21800479.461 7  89269325.70607  21800479.497 7  89269317.71007  21800478.733 7  85549762.76907
E24  26335116.409 7 138391977.55407  26335125.532 7 112331194.46007  26335131.126 6 103344718.06106  26335128.392 7 106040656.27807  26335130.115 7 104692691.24207
E11  28038865.520 5 147345201.58605  28038874.486 3                  28038885.173 3                  28038881.397 4 112900925.05904  28038885.104 4 111465756.57704
C20  22466882.493 8 118064258.55408  22466889.752 7  88164898.15207  22466881.355 8 116990944.63208                                  22466885.474 7  95064741.31907  22466889.075 8  90464844.67708
G02  22882350.067 7 120247548.52407  22882348.900 5  22882357.587 5  93699410.19505
C29  26287070.787 4                                                  26287071.472 5                                                  26287101.224 3
G16  23291345.392 7 122396861.76107  23291344.404 4  23291356.990 4  95374233.55104
C35  26128483.216 4 137306105.50704  26128502.404 3                  26128483.242 5 136057882.73705                                  26128497.395 4
E31  26003661.388 6 136650159.65306  26003667.968 5 110917365.65805  26003676.769 5 102044012.25005  26003674.678 6 104706019.29706  26003676.138 6 103375021.85506
G04  22291506.893 7 117142655.96307  22291506.379 5  22291515.823 5  91280038.29405  22291515.981 7  91280028.28507  22291519.799 7  87476714.05007  22291506.459 7 117142655.96407
C36  25322313.091 6 133069660.86106  25322337.232 6  99370308.44606  25322311.452 7 131859928.36407                                  25322331.167 6 107147094.53506  25322334.637 7 101962566.38307
E06  26103914.447 6 137176984.44506  26103923.226 6 111344986.40106  26103930.646 6 102437415.04206  26103928.872 7 105109685.11907  26103929.810 7 103773550.15207
E34  25150043.479 7 132164365.78507  25150050.693 6 107276300.78106  25150056.085 7  98694215.72707  25150054.080 8 101268840.86908  25150055.155 8  99981530.36808
> 2024 10 22 19 10 30.0000000  0 24
E03  27750837.219 5
G28  23125285.856 6 121524170.19406  23125285.642 3  23125295.475 3  94694194.28503  23125294.859 6  94694184.27406  23125300.947 6  90748624.56106  23125285.086 6 121524170.20106
G09  24822386.394 4
G21  23647307.928 6 124267422.15106  23647306.748 4  23647317.099 4  96831789.64104
C37  23501187.300 7 123499565.03507  23501201.188 7  92223753.93707  23501185.031 7 122376829.26007                                  23501198.710 7  99441254.96207  23501200.378 7  94629585.77807
G03  20633477.933 8 108429659.54108  20633477.679 7  20633486.672 7  84490678.92107  20633487.143 7  84490676.92907  20633486.153 7  80970234.70807
E36  25414339.230 7 133553241.45207  25414346.439 6 108403632.01406  25414352.841 7  99731363.71507  25414351.128 7 102333044.16907  25414352.189 8 101032206.51808
E05  22856084.880 7 120109535.76907  22856089.284 7  97491521.78307  22856095.751 7  89692229.63707  22856094.151 8  92032018.21808  22856095.123 8  90862123.99908
G31  20583950.851 8 108169389.13308  20583950.346 7  20583956.753 7  84287851.97707  20583957.352 7  84287847.96807
E09  24841584.877 7 130543399.87707  24841591.454 7 105960572.41707  24841596.494 7  97483750.41707  24841594.027 8 100026797.27708  24841595.431 8  98755274.41508
C19  23253942.061 7 122200294.51907  23253951.479 6  91253503.49406  23253941.415 8 121089376.35808                                  23253946.642 7  98395060.64607  23253950.429 7  93634022.14007
G26  21792805.640 7 114521969.47607  21792804.894 7  21792817.242 7  89237952.55607  21792817.220 7  89237944.55807  21792816.819 7  85519696.85007
E24  26321030.086 7 138317953.18107  26321038.939 7 112271109.80807  26321044.776 6 103289440.22106  26321041.866 7 105983936.39007  26321043.413 7 104636692.37607
E11  28056279.139 5 147436712.45205  28056289.318 3                  28056299.880 3                  28056296.088 4 112971043.31404  28056299.606 4 111534983.42904
C20  22468878.598 8 118074748.60308  22468886.204 7  88172731.57907  22468878.072 8 117001339.31308                                  22468881.768 7  95073187.80807  22468885.061 8  90472882.44808
G02  22894734.422 7 120312628.72407  22894733.224 5  22894742.305 5  93750121.85505
C29  26300666.501 4                                                  26300664.954 4
G16  23272882.582 7 122299840.35107  23272881.581 4  23272895.185 4  95298632.53604
C35  26136087.399 3                  26136112.015 4                  26136090.410 4 136097495.33904                                  26136105.427 4
E31  26000770.018 5 136634967.34705  26000777.138 5 110905034.22305  26000786.504 5 102032667.31305  26000783.774 6 104694378.39106  26000784.966 6 103363528.92306
G04  22281471.565 7 117089920.48807  22281471.038 5  22281480.688 5  91238945.75105  22281480.772 7  91238935.73707  22281484.469 7  87437333.68307  22281470.952 7 117089920.49507
C36  25303154.406 6 132968984.00006  25303178.738 6  99295127.91106  25303152.821 7 131760166.73907                                  25303173.171 7 107066030.22207  25303176.393 7 101885424.59207
E06  26112876.309 6 137224077.93506  26112884.599 6 111383211.49806  26112892.444 6 102472582.07006  26112890.162 7 105145769.56707  26112891.402 7 103809175.89007
E34  25150935.895 7 132169056.19607  25150943.322 6 107280107.89606  25150948.575 7  98697718.24607  25150946.647 8 101272434.77108  25150947.753 8  99985078.58008
> 2024 10 22 19 11  0.0000000  0 23
E03  27741098.187 5                                                                                  27741121.012 4
G28  23142822.434 6 121616332.00706  23142822.260 3  23142833.510 3  94766008.47703  23142833.385 6  94765998.46306  23142838.887 6  90817446.43006  23142823.522 6 121616331.99706
G21  23662048.337 6 124344884.04406  23662047.175 4  23662058.402 4  96892149.32204
C37  23510113.872 7 123546473.75607  23510128.072 7  92258783.08607  23510111.801 7 122423311.54207                                  23510125.237 7  99479025.53807  23510126.856 7  94665528.72907
G03  20623501.170 8 108377230.74908  20623500.902 8  20623509.664 8  84449825.34208  20623510.464 7  84449823.34007  20623509.329 7  80931083.35707
E36  25428819.739 7 133629335.77207  25428827.019 7 108465396.74507  25428833.293 6  99788187.19406  25428831.739 7 102391350.03007  25428832.627 7 101089771.18907
E05  22852354.499 7 120089931.32707  22852358.867 7  97475609.07607  22852365.252 7  89677589.94207  22852363.464 8  92016996.61908  22852364.538 8  90847293.35408
G31  20593679.506 7 108220511.43507  20593679.001 8  20593685.283 8  84327687.45408  20593685.404 7  84327683.45807
E09  24847540.857 7 130574698.24707  24847547.183 7 105985976.87307  24847552.264 7  97507122.47007  24847550.184 8 100050779.06008  24847551.355 8  98778951.33608
C19  23244037.403 7 122148244.54707  23244046.624 6  91214635.04206  23244036.278 8 121037799.57608                                  23244041.727 7  98353150.31607  23244045.483 7  93594139.71607
G26  21785242.621 7 114482225.41607  21785241.902 7  21785253.909 7  89206983.18807  21785254.145 7  89206975.19607  21785253.605 7  85490017.88307
E24  26306971.907 7 138244076.17407  26306980.947 7 112211144.79307  26306986.028 6 103234272.44806  26306983.327 7 105927329.46207  26306985.074 7 104580805.02707
E11  28073674.875 5 147528121.30005  28073683.787 3                  28073694.711 3                  28073691.294 4 113041083.30904  28073694.611 4 111604133.10904
C20  22470917.186 8 118085461.58708  22470924.810 7  88180731.47907  22470916.604 8 117011954.90508                                  22470920.398 7  95081813.80407  22470923.502 8  90481091.05308
G02  22907172.598 7 120377991.31207  22907171.387 5  22907181.129 5  93801053.55605
C29  26314248.822 4                  26314272.199 3                  26314252.217 5 137025218.53815                                  26314283.502 3
G16  23254447.031 7 122202960.18607  23254446.034 4  23254459.455 4  95223141.57904
C35  26143754.215 4                  26143774.368 4                  26143751.511 4 136137395.81604                                  26143766.653 4
E31  25997955.102 5 136620172.79905  25997962.154 5 110893025.66605  25997970.900 5 102021619.44105  25997968.186 6 104683042.29006  25997969.681 6 103352336.94206
G04  22271456.116 7 117037290.70007  22271455.602 5  22271465.291 5  91197935.55405  22271465.485 7  91197925.55307  22271469.453 7  87398032.26607  22271456.006 7 117037290.70607
C36  25284011.421 7 132868388.03207  25284035.799 6  99220007.78606  25284009.139 7 131660485.29107                                  25284030.282 7 106985031.05607  25284033.447 7 101808344.78907
E06  26121839.958 6 137271180.81606  26121847.642 6 111421444.22406  26121855.817 6 102507756.13206  26121853.850 7 105181861.22907  26121854.819 7 103844808.75507
E34  25151912.990 7 132174191.75707  25151920.601 6 107284276.33606  25151925.872 7  98701553.18407  25151924.253 8 101276369.77108  25151925.098 8  99988963.55208
> 2024 10 22 19 11 30.0000000  0 23
E03  27731364.966 5 145729303.10915                                                                  27731384.188 3
G28  23160388.933 6 121708645.02706  23160388.701 3  23160400.364 3  94837940.47203  23160400.403 6  94837930.46706  23160405.413 6  90886381.23306  23160390.245 6 121708645.05406
G21  23676806.230 7 124422436.08707  23676805.059 4  23676816.693 4  96952579.23304
C37  23519119.655 7 123593800.88507  23519134.168 7  92294124.65407  23519117.260 7 122470208.41807                                  23519131.422 7  99517133.01307  23519132.957 7  94701792.28107
G03  20613598.002 8 108325188.75308  20613597.721 8  20613606.616 8  84409273.16408  20613607.084 7  84409271.16807  20613606.152 7  80892220.85207
E36  25443341.232 7 133705644.71907  25443348.404 7 108527335.69707  25443354.652 7  99845170.96107  25443352.745 7 102449820.36107  25443353.988 7 101147498.23707
E05  22848635.772 7 120070388.70407  22848640.175 7  97459746.55507  22848646.269 7  89662996.41407  22848644.664 8  92002022.38808  22848645.575 8  90832509.47508
G31  20603495.576 8 108272094.41708  20603495.062 7  20603501.505 7  84367881.90607  20603501.419 7  84367877.90907
E09  24853502.927 7 130606027.69707  24853508.977 7 106011406.54707  24853513.684 7  97530517.73407  24853512.306 8 100074784.64008  24853513.110 8  98802651.76108
C19  23234149.302 7 122096282.00107  23234158.528 6  91175831.88006  23234147.445 8 120986309.42608                                  23234153.444 7  98311310.36407  23234157.366 7  93554324.29207
G26  21777777.417 7 114442997.44007  21777776.702 7  21777789.040 7  89176415.96907  21777789.724 7  89176407.97207  21777789.012 7  85460724.31107
E24  26292941.206 7 138170344.43407  26292950.009 7 112151297.67707  26292955.340 6 103179213.16806  26292952.565 7 105870833.82407  26292954.151 7 104525027.56907
E11  28091048.890 4 147619422.13804  28091059.958 3                  28091069.021 3                  28091065.839 4 113111040.62104  28091069.253 4 111673201.06604
C20  22472997.666 8 118096394.19708  22473005.101 7  88188895.38807  22472996.816 8 117022788.13208                                  22473000.638 7  95090616.63607  22473004.231 8  90489467.93608
G02  22919663.139 7 120443629.42807  22919661.937 5  22919671.377 5  93852199.96905
C29  26327813.359 4                  26327836.732 4                  26327812.930 5 137095850.33005                                  26327836.038 4
G16  23236038.165 7 122106220.49907  23236037.200 4  23236050.433 4  95147760.08504
C35  26151469.516 4                  26151489.129 4                  26151468.389 5 136177577.90605                                  26151484.280 5
E31  25995213.888 5 136605772.55105  25995222.511 5 110881337.14505  25995229.957 5 102010865.99605  25995228.019 6 104672008.30906  25995229.051 6 103341443.22606
G04  22261459.782 7 116984762.24607  22261459.286 5  22261469.327 5  91157004.32605  22261469.809 7  91156994.32507  22261473.369 7  87358806.54407  22261459.923 7 116984762.24707
C36  25264883.603 7 132767870.75807  25264907.963 6  99144946.45106  25264881.220 7 131560881.83107                                  25264902.452 7 106904095.25807  25264905.434 7 101731325.29807
E06  26130804.502 6 137318289.03506  26130812.422 6 111459681.28906  26130820.423 6 102542934.17406  26130818.354 7 105217956.95707  26130819.224 7 103880445.64007
E34  25152973.858 7 132179767.97807  25152981.669 6 107288802.42406  25152987.028 7  98705717.18307  25152985.460 8 101280642.39608  25152986.254 8  99993181.86408
> 2024 10 22 19 12  0.0000000  0 23
E03  27721634.149 5 145678171.75705                                                                  27721658.109 4
G28  23177984.265 6 121801108.58706  23177983.988 3  23177996.123 3  94909989.76903  23177995.892 6  94909979.76306  23178000.992 6  90955428.44006  23177985.097 6 121801108.58806
G21  23691581.316 7 124500077.55007  23691580.176 4  23691592.459 4  97013078.82704
C37  23528205.390 7 123641546.44107  23528220.133 7  92329778.69007  23528203.112 7 122517519.93407                                  23528217.333 7  99555577.39807  23528218.648 7  94738376.42807
G03  20603769.014 8 108273537.39508  20603768.733 8  20603778.012 8  84369025.37508  20603778.295 7  84369023.36507  20603777.217 7  80853650.05107
E36  25457903.329 7 133782167.88607  25457910.312 7 108589448.52807  25457916.874 7  99902314.69607  25457914.802 7 102508454.83407  25457916.167 7 101205387.34107
E05  22844928.791 7 120050909.21007  22844933.526 7  97443935.26407  22844939.396 7  89648450.01707  22844937.927 8  91987096.52508  22844938.769 8  90817773.34708
G31  20613398.973 8 108324137.52508  20613398.464 7  20613405.165 7  84408434.90007  20613404.996 7  84408430.90107
E09  24859470.986 7 130637389.80407  24859476.975 7 106036862.74407  24859481.919 7  97553937.39907  24859480.530 8 100098815.25108  24859481.005 8  98826376.90008
C19  23224278.066 7 122044409.53007  23224287.199 6  91137095.98406  23224276.630 7 120934908.53407                                  23224282.597 7  98269542.95807  23224286.559 7  93514577.90107
G26  21770411.787 7 114404289.26507  21770411.072 7  21770423.545 7  89146253.79507  21770423.705 7  89146245.80307  21770422.466 7  85431818.89907
E24  26278938.790 7 138096761.57707  26278947.683 7 112091571.45307  26278952.542 6 103124265.08306  26278949.986 7 105814452.28407  26278951.507 7 104469362.75707
E11  28108404.360 3 147710615.07103  28108412.335 3                  28108423.433 3                  28108418.990 4 113180915.14204  28108423.240 4 111742187.34304
C20  22475120.191 8 118107548.90008  22475128.031 7  88197225.13407  22475119.500 8 117033841.42008                                  22475123.615 7  95099598.30307  22475126.992 8  90498014.99808
G02  22932206.969 7 120509542.12507  22932205.780 5  22932213.858 5  93903560.32905
C29  26341361.561 5                  26341382.480 4                  26341358.410 4 137166392.46204                                  26341379.357 5
G16  23217657.175 6 122009626.09206  23217656.196 4  23217668.956 4  95072491.83604
C35  26159239.390 4                  26159260.487 4                  26159240.937 5 136218041.21405                                  26159254.820 5
E31  25992550.108 5 136591768.90805  25992557.761 5 110869970.55705  25992565.800 5 102000408.73005  25992563.332 6 104661278.26306  25992564.487 6 103330849.56606
G04  22251484.702 7 116932336.58507  22251484.211 5  22251493.830 5  91116153.22105  22251493.254 7  91116143.20907  22251497.060 7  87319657.57907  22251483.492 7 116932336.58507
C36  25245771.157 6 132667435.78806  25245795.263 6  99069946.55306  25245768.883 7 131461359.90907                                  25245790.178 7 106823225.71807  25245793.026 7 101654368.85807
E06  26139770.430 6 137365404.30406  26139778.382 6 111497924.09206  26139786.435 6 102578117.47506  26139783.984 7 105254058.12907  26139785.247 7 103916087.88007
E34  25154119.398 7 132185786.11907  25154126.948 6 107293687.25306  25154132.304 7  98710211.19007  25154130.675 8 101285253.64108  25154131.473 8  99997734.49008
> 2024 10 22 19 12 30.0000000  0 23
E03  27711909.634 5 145627067.11105                                                                  27711933.904 4
G28  23195609.056 6 121893721.35906  23195608.837 3  23195620.375 3  94982155.34603  23195619.655 6  94982145.32906  23195624.965 6  91024587.05706  23195609.385 6 121893721.36606
G21  23706372.709 7 124577806.84607  23706371.560 4  23706384.255 4  97073646.86404
C37  23537370.505 7 123689709.83507  23537385.128 7  92365744.74307  23537368.400 7 122565245.47307                                  23537382.830 7  99594358.21607  23537383.616 7  94775280.72607
G03  20594015.044 8 108222279.95108  20594014.776 8  20594023.923 8  84329084.52908  20594024.112 7  84329082.52907  20594023.113 7  80815373.41507
E36  25472505.837 7 133858904.18007  25472513.204 7 108651734.35507  25472519.522 7  99959617.58207  25472517.479 7 102567252.60707  25472518.769 7 101263437.67207
E05  22841234.129 7 120031493.49807  22841238.660 7  97428175.74207  22841244.939 7  89633951.25507  22841243.400 8  91972219.52808  22841244.154 8  90803085.46608
G31  20623389.883 8 108376639.45008  20623389.369 7  20623395.646 7  84449345.41707  20623395.885 7  84449341.42007
E09  24865445.473 7 130668785.58107  24865451.453 6 106062346.25906  24865456.321 7  97577382.21207  24865454.733 8 100122871.66608  24865455.491 8  98850127.50908
C19  23214424.368 7 121992629.21807  23214433.844 7  91098428.92107  23214423.350 8 120883598.95808                                  23214429.079 7  98227849.76607  23214432.949 7  93474902.12907
G26  21763145.327 7 114366103.97807  21763144.612 7  21763157.422 7  89116499.04107  21763157.462 7  89116491.04107  21763156.019 7  85403303.92807
E24  26264965.465 6 138023330.67506  26264973.955 6 112031968.57106  26264978.997 6 103069430.47306  26264976.607 7 105758187.20007  26264977.990 7 104413812.91307
E11  28125736.259 3                                                  28125756.131 3                  28125752.755 4 113250706.32704  28125756.613 4 111811091.26704
C20  22477285.708 8 118118927.54608  22477293.365 7  88205722.10907  22477284.963 8 117045116.61708                                  22477288.972 7  95108760.27707  22477292.359 8  90506733.63208
G02  22944801.607 7 120575727.71307  22944800.369 5  22944808.724 5  93955133.32605
C29  26354895.488 5 138495898.68015  26354910.717 4                  26354890.895 5 137236843.67405                                  26354909.660 5 111516251.22215
G16  23199304.648 6 121913181.89506  23199303.651 4  23199315.472 4  94997340.61704
C35  26167065.074 4                  26167083.958 4                  26167063.177 4 136258784.69404                                  26167079.346 5
E31  25989961.299 5 136578163.63305  25989968.985 6 110858927.31606  25989976.756 5 101990248.92205  25989974.306 6 104650853.42106  25989975.833 6 103320557.23906
G04  22241527.247 7 116880014.55107  22241526.778 5  22241536.998 5  91075382.84305  22241536.922 7  91075372.83207  22241540.154 6  87280585.97906  22241527.158 7 116880014.54907
C36  25226675.286 6 132567086.10706  25226698.977 6  98995010.37006  25226673.087 7 131361922.51107                                  25226693.896 7 106742424.86807  25226697.077 7 101577477.78207
E06  26148737.592 6 137412527.84806  26148745.884 6 111536173.59706  26148753.817 6 102613306.96806  26148751.761 7 105290165.63007  26148752.898 7 103951736.37407
E34  25155349.241 7 132192246.89707  25155356.701 6 107298931.33606  25155361.677 7  98715035.72607  25155359.973 7 101290204.04307  25155360.923 8 100002621.95808
> 2024 10 22 19 13  0.0000000  0 23
E03  27702189.082 4 145575987.34704                                                                  27702212.807 4
G28  23213260.819 6 121986479.49406  23213260.551 3  23213271.407 3  95054434.17403  23213271.317 6  95054424.17006  23213276.449 6  91093854.19806  23213261.329 6 121986479.49606
G21  23721179.910 6 124655619.81406  23721178.761 4  23721191.233 4  97134280.10504
C37  23546614.744 7 123738287.97007  23546629.259 7  92402020.49807  23546612.274 7 122613381.98707                                  23546627.139 7  99633472.98207  23546627.785 7  94812502.80107
G03  20584335.978 8 108171417.21408  20584335.706 8  20584344.533 8  84289451.24908  20584344.910 7  84289449.25307  20584344.166 7  80777391.52907
E36  25487148.106 7 133935850.08407  25487155.523 7 108714190.32007  25487162.046 7 100017077.00707  25487159.637 7 102626210.99007  25487161.196 8 101321646.57208
E05  22837551.412 7 120012139.77607  22837555.584 7  97412466.53407  22837561.919 7  89619498.78007  22837560.463 8  91957390.03208  22837561.308 8  90788444.48108
G31  20633467.339 8 108429596.11808  20633466.821 7  20633472.756 7  84490610.28507  20633473.037 7  84490606.28707
E09  24871425.759 7 130700213.52007  24871432.256 7 106087855.88307  24871436.900 7  97600851.02907  24871435.441 8 100146952.72808  24871436.161 8  98873902.45108
C19  23204588.281 7 121940940.68707  23204598.094 7  91059830.38907  23204587.409 8 120832380.32008                                  23204592.914 7  98186230.46507  23204596.938 7  93435296.67507
C29                                                                  26368403.733 5 137307180.46715                                  26368421.799 5 111573420.61615
G26  21755978.514 7 114328442.12807  21755977.804 7  21755990.609 7  89087152.14407  21755990.657 7  89087144.15607  21755989.478 7  85375179.83507
E24  26251020.738 7 137950052.31107  26251029.729 7 111972489.48807  26251034.806 6 103014709.76606  26251032.093 7 105702038.97907  26251033.539 7 104358378.44707
E11  28143046.205 3                                                  28143067.968 3                  28143064.563 4 113320411.72304  28143068.557 4 111879910.59004
C20  22479493.752 8 118130529.51308  22479501.216 7  88214385.86307  22479492.948 8 117056613.11108                                  22479496.712 7  95118102.08307  22479499.934 8  90515623.40208
G02  22957447.406 7 120642182.02607  22957446.146 5  22957455.144 5  94006915.72605
G16  23180980.544 7 121816889.06507  23180979.507 4  23180991.461 4  94922307.38404
C35  26174937.723 3                  26174962.545 3                  26174946.009 4 136299804.67204                                  26174957.182 5
E31  25987447.850 5 136564955.95705  25987455.423 5 110848206.77305  25987463.783 5 101980386.01405  25987460.723 6 104640733.24406  25987462.571 6 103310565.70206
G04  22231590.186 7 116827794.49807  22231589.730 5  22231599.591 5  91034691.93905  22231600.115 7  91034681.94307  22231603.404 6  87241590.53206  22231590.145 7 116827794.50207
C36  25207595.389 6 132466822.22906  25207619.279 6  98920138.22706  25207593.486 7 131262570.12407                                  25207613.820 7 106661693.09407  25207617.220 7 101500652.43207
E06  26157706.536 6 137459658.27506  26157714.454 6 111574428.71006  26157722.835 6 102648501.62506  26157720.490 7 105326278.42207  26157721.703 7 103987390.09907
E34  25156662.484 7 132199148.44107  25156669.977 6 107304533.18006  25156675.097 7  98720189.40907  25156673.349 7 101295492.17607  25156674.351 8 100007842.86608
> 2024 10 22 19 13 30.0000000  0 23
E03  27692473.180 4 145524932.32404
G28  23230939.653 6 122079381.15706  23230939.421 3  23230950.481 3  95126824.84503  23230950.419 6  95126814.85106  23230955.127 5  91163228.56805  23230939.379 6 122079381.15206
G21  23736003.828 6 124733514.69206  23736002.675 4  23736013.669 4  97194977.17104
C37  23555937.814 7 123787279.73507  23555952.300 6  92438605.11606  23555935.492 7 122661928.35907                                  23555950.059 7  99672920.80107  23555950.743 7  94850041.81707
G03  20574732.896 8 108120951.88508  20574732.624 8  20574741.151 8  84250127.64308  20574741.910 7  84250125.64107  20574741.091 7  80739706.40507
E36  25501829.926 7 134013003.96707  25501837.680 7 108776815.10107  25501844.338 7 100074691.74007  25501841.947 7 102685328.73007  25501843.201 8 101380012.80808
E05  22833880.361 7 119992848.20107  22833884.483 7  97396807.76707  22833890.853 7  89605092.69907  22833889.429 8  91942608.15008  22833890.275 8  90773850.49708
G31  20643630.917 8 108483005.44908  20643630.399 7  20643636.218 7  84532227.87607  20643636.580 7  84532223.87107
E09  24877412.525 7 130731674.11807  24877419.128 7 106113392.00307  24877423.684 7  97624344.22707  24877422.316 8 100171058.80908  24877423.167 8  98897702.08808
C19  23194770.162 7 121889345.46607  23194779.712 7  91021301.53807  23194769.002 8 120781254.13208                                  23194774.696 7  98144686.29707  23194778.626 7  93395762.72107
C29                                                                  26381895.147 6 137377440.90306                                  26381913.999 5 111630512.75105
G26  21748911.990 7 114291306.26307  21748911.302 7  21748923.849 7  89058215.12007  21748924.068 7  89058207.13207  21748922.763 7  85347448.51207
E24  26237105.479 7 137876928.99507  26237114.745 7 111913136.26007  26237119.620 6 102960104.85206  26237116.911 7 105646009.56707  26237118.440 7 104303061.28307
E11                                                                                                                                  28160358.846 3 111948644.20903
C20  22481744.230 8 118142356.16208  22481751.869 7  88223217.40107  22481742.957 8 117068332.25408                                  22481747.279 7  95127624.81007  22481750.633 8  90524685.33708
G02  22970144.073 7 120708902.63907  22970142.821 5  22970152.839 5  94058905.62205
G16  23162685.132 7 121720751.74207  23162684.041 4  23162696.711 4  94847395.33804
C35  26182863.035 3                  26182891.340 3                  26182874.433 4 136341099.81704                                  26182888.088 4
E31  25985009.311 5 136552147.00105  25985017.460 5 110837809.93105  25985025.826 5 101970820.91705  25985023.658 6 104630918.59906  25985024.942 6 103300875.82406
G04  22221672.484 7 116775676.81007  22221672.055 5  22221681.585 5  90994080.81905  22221681.858 7  90994070.82307  22221685.819 7  87202671.55307  22221672.356 7 116775676.81107
C36  25188532.317 6 132366646.61206  25188556.175 6  98845332.00306  25188530.593 7 131163305.20907                                  25188550.839 6 106581032.38706  25188554.243 7 101423894.70907
E06  26166676.211 6 137506796.25606  26166684.777 6 111612689.94306  26166692.922 6 102683701.88006  26166690.762 7 105362396.97507  26166691.850 7 104023049.50107
E34  25158059.879 7 132206490.88807  25158067.143 6 107310492.90206  25158072.284 7  98725672.31607  25158070.666 7 101301118.12707  25158071.634 8 100013397.29308
> 2024 10 22 19 14  0.0000000  0 23
E03  27682763.619 4 145473898.49604                                                                  27682788.754 4
G28  23248645.286 6 122172420.85206  23248645.076 2  23248655.567 2  95199323.07502  23248655.732 6  95199313.06806  23248659.877 5  91232705.96605  23248644.593 6 122172420.86006
G21  23750842.311 6 124811485.57506  23750841.122 4  23750850.571 4  97255733.46304
C37  23565338.350 7 123836680.26207  23565353.003 6  92475494.98206  23565336.396 7 122710879.77507                                  23565350.766 7  99712697.74907  23565351.569 7  94887894.04807
G03  20565205.187 8 108070882.97708  20565204.915 8  20565213.470 8  84211112.93308  20565214.137 7  84211110.93607  20565213.377 7  80702317.31407
E36  25516550.592 7 134090360.53207  25516558.396 6 108839604.40206  25516564.979 7 100132457.81907  25516562.637 7 102744601.78007  25516563.849 8 101438532.37308
E05  22830220.532 7 119973615.22707  22830225.019 7  97381196.57107  22830231.013 7  89590730.37707  22830229.385 8  91927871.16508  22830230.315 8  90759300.84208
G31  20653879.318 8 108536861.83808  20653878.800 7  20653885.025 7  84574193.81707  20653885.093 7  84574189.81907
E09  24883405.383 7 130763164.10307  24883411.769 7 106138951.98107  24883416.342 6  97647859.38306  24883414.751 8 100195187.42408  24883415.745 8  98921523.97208
C19  23184969.182 7 121837841.41107  23184978.761 7  90982840.77807  23184968.385 8 120730218.29808                                  23184973.633 7  98103215.53807  23184977.580 7  93356298.62907
C29                                                                  26395367.628 5 137447599.60705                                  26395383.770 4 111687522.13604  26395385.959 5 106283286.64415
G26  21741945.435 7 114254695.14607  21741944.760 7  21741956.605 7  89029686.99307  21741957.049 7  89029678.99207  21741955.945 7  85320109.05607
E24  26223219.677 7 137803959.52907  26223228.856 6 111853907.92106  26223234.155 6 102905614.82806  26223230.894 7 105590098.04707  26223232.599 7 104247860.50907
E11                                                                                                  28177623.301 3
C20  22484036.893 8 118154405.13508  22484044.900 7  88232214.96607  22484035.681 8 117080271.69308                                  22484040.318 7  95137326.54207  22484043.386 8  90533917.62708
G02  22982890.096 7 120775883.95707  22982888.831 5  22982899.378 5  94111098.67405
G16  23144419.534 7 121624770.49707  23144418.443 4  23144431.891 4  94772604.90804
C35  26190854.790 3                  26190875.378 4                  26190853.867 4 136382664.59704                                  26190867.600 4
E31  25982648.270 4 136539734.26704  25982654.984 5 110827734.61905  25982664.351 5 101961551.69405  25982661.859 6 104621407.57406  25982663.032 6 103291485.69506
G04  22211773.120 7 116723658.12307  22211772.696 5  22211782.361 5  90953546.83505  22211782.870 7  90953536.85307  22211786.705 7  87163826.51007  22211773.283 7 116723658.13607
C36  25169486.316 6 132266558.02106  25169509.615 6  98770590.74706  25169484.145 7 131064126.51907                                  25169504.460 7 106500441.73707  25169507.787 7 101347203.65307
E06  26175647.654 6 137553938.72006  26175656.384 6 111650954.82006  26175663.894 6 102718905.51406  26175661.842 7 105398518.96707  26175662.828 7 104058712.31307
E34  25159539.984 7 132214270.62807  25159547.350 6 107316807.55806  25159552.814 7  98731481.79307  25159551.072 7 101307079.15807  25159552.063 8 100019282.54608
> 2024 10 22 19 14 30.0000000  0 23
E03                                                                                                  27673076.027 4
G28  23266376.369 5 122265602.20105  23266376.119 2  23266387.723 2  95271931.70702  23266387.811 6  95271921.67606  23266392.229 5  91302289.18605  23266376.599 5 122265602.20505
G21  23765693.632 6 124889535.68206  23765692.354 4  23765703.258 4  97316551.47204
C37  23574817.751 7 123886493.85707  23574832.431 6  92512693.31306  23574815.638 7 122760240.52007                                  23574829.857 7  99752807.31607  23574831.143 7  94926062.78907
G03  20555754.293 8 108021218.70408  20555754.016 8  20555762.736 8  84172413.53408  20555763.328 7  84172411.54507  20555762.500 7  80665230.39707
E36  25531310.468 7 134167923.67707  25531318.401 6 108902561.36506  25531324.838 7 100190378.17707  25531322.692 7 102804033.12307  25531323.826 8 101497208.22408
E05  22826572.666 7 119954446.50707  22826577.348 7  97365637.52507  22826583.379 7  89576416.05007  22826581.605 8  91913183.41508  22826582.567 8  90744799.80508
G31  20664213.506 7 108591168.79607  20664212.979 7  20664219.437 7  84616510.85107  20664219.244 7  84616506.85307
E09  24889404.218 7 130794689.50407  24889410.443 7 106164540.71307  24889415.762 6  97671400.98406  24889414.053 8 100219343.17908  24889415.044 8  98945372.65008
C19  23175186.716 7 121786435.59207  23175196.517 7  90944453.36907  23175186.334 8 120679279.79908                                  23175191.381 7  98061823.88607  23175195.258 7  93316909.80807
C29  26408824.744 5 138779311.89715                                  26408823.790 6 137517660.38406                                  26408838.643 5 111744452.00005  26408839.909 5 106337461.76305
G26  21735079.525 7 114218616.75507  21735078.841 7  21735090.957 7  89001573.96707  21735091.006 7  89001565.97807  21735090.466 7  85293167.40107
E24  26209364.597 7 137731151.93607  26209373.711 6 111794810.94806  26209378.903 6 102851245.68606  26209375.957 7 105534310.55507  26209377.679 7 104192782.19407
E11                                                                                                  28194869.536 3
C20  22486373.590 8 118166683.27308  22486381.249 7  88241383.65107  22486372.616 8 117092438.20708                                  22486376.984 7  95147212.78907  22486379.872 8  90543325.49808
G02  22995686.306 7 120843128.87007  22995685.054 5  22995695.101 5  94163497.11405
G16  23126187.042 7 121528954.57107  23126185.960 4  23126198.885 4  94697943.34604
C35  26198890.269 4                  26198910.570 4                  26198890.234 4                                                  26198905.628 4
E31  25980362.020 4 136527724.32704  25980368.657 5 110817986.33105  25980378.518 5 101952583.23205  25980376.430 6 104612205.18406  25980377.572 6 103282400.28306
G04  22201894.342 7 116671744.25807  22201893.918 5  22201903.554 5  90913094.53005  22201904.250 7  90913084.54107  22201907.825 7  87125059.74207  22201894.681 7 116671744.25807
C36  25150458.041 7 132166564.43307  25150481.324 6  98695920.38706  25150456.408 7 130965041.94607                                  25150476.205 7 106419927.54107  25150479.392 7 101270585.34907
E06  26184621.221 6 137601091.79806  26184629.491 6 111689228.31906  26184636.731 6 102754117.06406  26184634.908 7 105434649.10707  26184635.912 7 104094383.16007
E34  25161104.867 7 132222493.23507  25161112.223 6 107323481.70506  25161117.412 7  98737621.99207  25161115.787 7 101313379.53507  25161116.850 8 100025502.83608
> 2024 10 22 19 15  0.0000000  0 23
E03  27663354.482 4 145371905.49904                                                                  27663371.698 3
G28  23284134.719 5 122358917.73905  23284134.411 2  23284145.221 2  95344644.86902  23284145.332 6  95344634.86006  23284149.892 5  91371972.58305  23284133.933 5 122358917.70305
G21  23780559.934 6 124967657.37706  23780558.602 4  23780569.900 4  97377425.26004
C37  23584374.280 7 123936713.66207  23584388.924 7  92550194.98207  23584371.865 7 122810003.77807                                  23584386.452 7  99793243.94407  23584387.707 7  94964542.78507
G03  20546379.688 8 107971956.04808  20546379.402 8  20546388.225 8  84134027.08608  20546388.948 7  84134025.08807  20546387.965 7  80628443.38407
E36  25546108.489 7 134245686.06707  25546116.175 7 108965680.05607  25546122.375 7 100248447.32307  25546120.868 8 102863617.12508  25546121.637 8 101556034.80008
E05  22822936.236 7 119935336.50407  22822940.616 7  97350126.14107  22822946.729 7  89562145.57907  22822945.353 8  91898540.66208  22822946.096 8  90730343.19108
G31  20674632.303 7 108645918.64207  20674631.780 7  20674637.611 7  84659172.99307  20674637.849 7  84659169.00107
E09  24895408.983 7 130826245.12107  24895415.504 7 106190153.97107  24895420.524 6  97694965.17206  24895418.849 8 100243522.07808  24895419.708 8  98969244.19608
C19  23165422.834 7 121735123.87707  23165432.056 7  90906136.23407  23165421.686 8 120628434.57108                                  23165426.994 7  98020507.99607  23165430.862 7  93277593.09207
C29  26422259.745 6 138849909.14106  26422281.228 5 103686705.63115  26422257.741 6 137587615.83906                                  26422274.712 5 111801296.29905  26422277.053 5 106391555.43405
G26  21728314.726 7 114183067.82107  21728314.024 7  21728326.304 7  88973873.49307  21728326.435 7  88973865.49707  21728325.661 7  85266621.10207
E24  26195539.802 7 137658502.99407  26195548.759 6 111735842.77606  26195553.934 6 102796995.03506  26195551.299 7 105478644.65107  26195552.849 7 104137823.92007
E11  28212077.321 3
C20  22488752.686 8 118179186.14908  22488760.596 7  88250720.16407  22488751.755 8 117104827.41308                                  22488756.077 7  95157280.00407  22488758.936 8  90552905.57608
G02  23008531.353 7 120910629.20407  23008530.093 5  23008539.264 5  94216094.58705
G16  23107985.409 7 121433302.01907  23107984.359 4  23107996.833 4  94623409.06404
C35  26206969.060 3                  26206995.917 4                  26206975.254 4                                                  26206991.260 4
E31  25978152.736 4 136516112.68204  25978160.478 5 110808561.23105  25978168.662 5 101943912.19705  25978166.879 6 104603307.93006  25978167.826 6 103273616.13306
G04  22192034.673 7 116619929.82307  22192034.231 5  22192044.226 5  90872719.72805  22192044.281 7  90872709.73707  22192047.828 7  87086367.22907  22192034.574 7 116619929.82307
C36  25131446.796 6 132066662.56006  25131470.594 6  98621318.52206  25131445.365 7 130866048.28507                                  25131465.355 7 106339487.21407  25131468.524 7 101194037.32707
E06  26193594.986 6 137648250.40606  26193603.454 6 111727506.31006  26193611.064 6 102789332.75606  26193609.041 7 105470783.49107  26193610.070 7 104130058.20007
E34  25162752.841 7 132231153.05207  25162760.245 6 107330510.71606  25162765.513 7  98744088.66407  25162763.726 7 101320014.91107  25162764.844 8 100032053.86108
> 2024 10 22 19 15 30.0000000  0 22
E03  27653658.377 4 145320945.69104                                                                  27653679.935 3
G28  23301916.242 5 122452370.57805  23301915.755 2  23301928.859 2  95417465.06302  23301929.313 6  95417455.04706  23301933.218 5  91441758.55705  23301917.556 5 122452370.57605
G21  23795440.496 7 125045853.75707  23795439.159 4  23795451.254 4  97438357.25604
C37  23594009.110 7 123987343.51107  23594023.704 7  92588002.86907  23594006.770 7 122860173.35907                                  23594021.153 7  99834010.73807  23594022.383 7  95003336.97407
G03  20537083.196 8 107923102.74608  20537082.910 8  20537091.695 8  84095959.61708  20537092.118 7  84095957.61207  20537091.308 7  80591962.07807
E36  25560944.737 7 134323651.13807  25560952.053 6 109028963.23306  25560958.901 6 100306667.79306  25560956.815 7 102923356.42407  25560958.060 8 101615014.68408
E05  22819312.024 7 119916290.41107  22819316.165 7  97334666.63607  22819322.478 7  89547922.82707  22819321.168 8  91883946.89208  22819321.872 8  90715934.93008
G31  20685135.703 7 108701114.26707  20685135.180 7  20685140.442 7  84702182.50007  20685141.461 7  84702178.49907
E09  24901421.017 7 130857836.43807  24901426.956 6 106215796.22506  24901431.868 6  97718556.00406  24901430.480 8 100267728.32208  24901431.241 8  98993142.73208
C19  23155677.754 7 121683912.87907  23155687.062 7  90867894.31107  23155676.601 8 120577689.12808                                  23155681.911 7  97979273.20407  23155685.815 7  93238353.54107
C29  26435673.455 5 138920403.32905  26435693.869 4 103739347.08504  26435671.607 6 137657469.17706                                  26435688.734 5 111858057.64905  26435691.307 5 106445570.20505
G26  21721652.105 7 114148055.78307  21721651.390 7  21721663.770 7  88946591.37607  21721664.364 7  88946583.38007  21721663.387 7  85240475.73807
E24  26181746.860 7 137586020.25007  26181755.645 7 111677009.48907  26181760.584 6 102742868.49506  26181758.113 7 105423106.07807  26181759.744 7 104082991.36307
C20  22491176.087 8 118191920.10708  22491183.818 7  88260229.23507  22491174.727 8 117117445.60808                                  22491179.250 7  95167533.29807  22491182.202 8  90562662.71908
G02  23021425.399 7 120978388.24507  23021424.098 5  23021433.447 5  94268893.64805
G16  23089815.652 7 121337822.02107  23089814.606 4  23089828.134 4  94549009.25604
C35                                  26215135.052 4                  26215124.830 4                                                  26215126.881 3
E31  25976019.789 5 136504905.33705  25976027.344 5 110799464.33405  25976036.463 5 101935543.06505  25976034.424 6 104594720.48906  25976035.242 6 103265137.84706
G04  22182194.736 7 116568220.19407  22182194.298 5  22182204.143 5  90832426.57105  22182203.935 7  90832416.58207  22182207.607 6  87047752.96106  22182194.474 7 116568220.19907
C36  25112455.048 6 131966859.90706  25112478.609 6  98546790.74506  25112453.455 7 130767152.93807                                  25112473.324 7 106259126.76307  25112476.682 7 101117565.31707
E06  26202570.884 6 137695420.25406  26202579.475 6 111765793.40006  26202587.401 6 102824556.83906  26202585.008 7 105506926.47107  26202586.329 7 104165741.72707
E34  25164484.920 7 132240255.16607  25164492.537 6 107337898.76606  25164497.687 7  98750885.64407  25164495.746 7 101326989.21007  25164496.994 8 100038939.50108
> 2024 10 22 19 16  0.0000000  0 22
E03                                                                                                  27643980.820 4
G28  23319725.202 5 122545955.67505  23319724.599 2  23319737.543 2  95490388.28502  23319738.335 6  95490378.26706  23319742.104 5  91511643.25305  23319725.552 5 122545955.66105
G21  23810333.413 7 125124119.27307  23810332.108 4  23810345.523 4  97499343.11604
C37  23603720.920 7 124038378.91307  23603735.885 7  92626113.58207  23603719.044 7 122910744.78507                                  23603733.026 7  99875104.06507  23603734.253 7  95042441.90907
G03  20527864.551 8 107874658.16808  20527864.261 8  20527873.132 8  84058210.63408  20527873.666 7  84058208.64307  20527872.527 7  80555785.97907
E36  25575818.725 7 134401813.94907  25575826.089 6 109092406.96006  25575832.930 6 100365035.95606  25575830.915 7 102983247.24207  25575832.166 8 101674144.17208
E05  22815699.350 7 119897305.07907  22815703.423 7  97319256.46007  22815709.650 7  89533745.44707  22815708.456 8  91869399.67308  22815709.141 8  90701572.63208
G31  20695722.559 8 108756750.44808  20695722.045 7  20695727.911 7  84745535.30407  20695728.533 7  84745531.29507
E09  24907439.005 7 130889460.62207  24907445.186 6 106241465.16006  24907449.804 7  97742171.38907  24907448.303 8 100291959.76608  24907449.111 8  99017066.15408
C19  23145951.433 7 121632800.84807  23145960.830 7  90829726.29407  23145949.986 8 120527041.75308                                  23145955.642 7  97938118.10707  23145959.379 8  93199189.82508
C29  26449068.332 5 138990789.48605  26449087.083 4 103791907.83504  26449065.354 6 137727215.41406                                  26449081.444 5 111914731.98305  26449086.409 6 106499502.18506
G26  21715091.504 7 114113579.75707  21715090.785 7  21715103.229 7  88919726.92607  21715103.321 7  88919718.91707  21715102.572 7  85214730.63507
E24  26167985.028 7 137513702.91307  26167994.152 7 111618310.48307  26167998.801 6 102688865.45806  26167996.733 7 105367694.25407  26167998.017 7 104028283.93207
C20  22493642.796 8 118204883.20808  22493650.657 7  88269909.41207  22493641.680 8 117130290.86308                                  22493646.086 7  95177971.06907  22493649.220 8  90572595.43008
G02  23034368.185 7 121046400.39107  23034366.875 5  23034376.505 5  94321889.94205
G16  23071680.005 7 121242515.09607  23071678.977 5  23071692.154 5  94474744.31905
C35                                  26223322.415 4                                                                                  26223316.224 3
E31  25973964.080 5 136494100.07205  25973972.219 5 110790693.83605  25973979.933 6 101927474.24606  25973977.800 6 104586441.14706  25973978.908 6 103256963.77306
G04  22172373.839 7 116516612.41507  22172373.379 5  22172383.284 5  90792212.76005  22172382.944 7  90792202.75607  22172387.117 7  87009214.73807  22172374.010 7 116516612.41607
C36  25093481.859 7 131867155.62907  25093505.201 6  98472336.42606  25093480.209 7 130668355.06307                                  25093500.231 7 106178845.51507  25093503.454 7 101041168.69107
E06  26211548.624 5 137742598.62205  26211557.900 6 111804087.47206  26211565.080 6 102859787.31006  26211563.196 7 105543076.02007  26211564.202 7 104201431.73607
E34  25166300.555 7 132249796.30307  25166308.163 6 107345643.15106  25166313.326 7  98758010.45507  25166311.567 7 101334299.89807  25166312.652 7 100046157.25107
> 2024 10 22 19 16 30.0000000  0 23
E03  27634270.904 3                                                                                  27634294.052 5
G28  23337560.275 5 122639668.98905  23337559.891 2  23337570.495 2  95563411.44502  23337571.598 5  95563401.44305  23337575.819 5  91581623.73605  23337558.457 5 122639668.99205
G21  23825240.079 6 125202449.90906  23825238.747 4  23825252.159 4  97560379.71504
E25  28424068.052 5 149369475.62515  28424078.146 5 121241505.93415                                  28424083.453 6 114452010.08916
C37  23613509.111 7 124089816.44007  23613524.111 7  92664524.60207  23613507.068 8 122961714.69308                                  23613521.564 7  99916521.19707  23613522.863 7  95081854.97207
G03  20518723.767 8 107826622.82308  20518723.481 8  20518732.434 8  84020780.53208  20518733.121 7  84020778.53107  20518731.703 7  80519915.47407
E36  25590729.564 7 134480170.68007  25590736.903 6 109156008.07106  25590743.831 6 100423548.90606  25590741.868 7 103043286.64407  25590743.135 7 101733420.34707
E05  22812097.413 7 119878378.50507  22812101.928 7  97303893.96207  22812108.066 7  89519611.94207  22812106.753 8  91854897.47208  22812107.522 8  90687254.77708
G31  20706393.129 7 108812823.18307  20706392.620 7  20706398.714 7  84789228.27207  20706399.080 7  84789224.26507
E09  24913462.644 7 130921116.02107  24913468.918 6 106267159.41906  24913473.984 7  97765810.08507  24913472.250 7 100316215.13907  24913473.142 8  99041013.18508
C19  23136243.603 7 121581787.22007  23136253.074 7  90791631.75107  23136242.269 8 120476491.88808                                  23136248.253 7  97897042.23407  23136251.739 7  93160101.50607
C29  26462441.602 6 139061063.61106  26462461.514 4 103844384.99004  26462436.904 6 137796850.72706                                  26462454.377 5 111971316.11405  26462458.985 5 106553348.34305
G26  21708633.194 7 114079639.90907  21708632.470 7  21708644.628 7  88893280.26507  21708644.985 7  88893272.26807  21708643.985 7  85189385.91707
E24  26154255.310 7 137441551.26207  26154264.299 7 111559745.95207  26154268.310 6 102634986.15706  26154266.604 7 105312409.37307  26154267.829 7 103973701.83807
C20  22496153.099 8 118218074.54708  22496160.909 7  88279760.03707  22496151.964 8 117143362.28008                                  22496156.358 7  95188592.62807  22496159.471 8  90582703.03008
G02  23047358.521 7 121114661.21407  23047357.261 5  23047366.703 5  94375080.00905
G16  23053576.885 7 121147383.03707  23053575.857 4  23053589.009 4  94400615.63604
C35                                  26231562.551 3                  26231558.236 3                                                  26231559.312 4
E31  25971983.361 5 136483695.80605  25971991.917 5 110782248.86505  25971999.544 5 101919704.88105  25971997.677 6 104578469.07106  25971998.717 6 103249093.05106
G04  22162572.138 7 116465104.64707  22162571.673 5  22162581.143 5  90752076.87205  22162581.208 7  90752066.87707  22162585.234 6  86970751.21506  22162571.974 7 116465104.65607
C36  25074527.462 6 131767549.99406  25074550.927 6  98397955.74806  25074526.161 7 130569654.94507                                  25074545.898 7 106098643.70207  25074549.124 7 100964847.63707
E06  26220528.065 5 137789784.07605  26220536.614 6 111842387.24906  26220544.410 6 102895023.06206  26220542.416 7 105579230.96407  26220543.377 7 104237127.08307
E34  25168199.354 7 132259774.27407  25168206.976 6 107353742.11006  25168212.189 7  98765461.47507  25168210.313 7 101341945.30107  25168211.406 7 100053705.46307
> 2024 10 22 19 17  0.0000000  0 23
E03  27624589.609 3                                                                                  27624607.842 5
G28  23355417.000 5 122733511.97805  23355416.652 2  23355428.174 2  95636535.62402  23355429.500 5  95636525.65005  23355433.746 5  91651701.07405  23355418.210 5 122733511.99005
G21  23840159.617 6 125280846.54406  23840158.213 4  23840170.503 4  97621467.76004
E25  28408151.006 5 149285861.00605  28408164.187 5 121173637.19605                                  28408170.876 5 114387942.08205
C37  23623374.210 7 124141658.11907  23623389.086 7  92703237.40207  23623372.138 8 123013085.09008                                  23623386.743 7  99958263.74907  23623388.074 7  95121577.70207
G03  20509661.805 8 107779002.59108  20509661.510 8  20509670.816 8  83983673.89008  20509671.110 7  83983671.88907  20509669.990 7  80484354.95007
E36  25605677.595 7 134558722.96507  25605685.472 6 109219767.91906  25605692.271 6 100482207.88906  25605689.826 7 103103475.88507  25605691.242 8 101792844.45608
E05  22808507.585 7 119859514.10007  22808512.199 7  97288581.93607  22808518.475 7  89505524.87507  22808516.900 8  91840442.91908  22808517.721 8  90672983.96808
G31  20717146.803 7 108869333.23607  20717146.294 7  20717152.381 7  84833262.01107  20717152.736 7  84833257.99807
E09  24919492.655 7 130952806.36507  24919499.970 6 106292882.04706  24919504.436 7  97789474.84707  24919502.714 8 100340497.26608  24919503.711 8  99064986.63008
C19  23126555.785 7 121530876.80807  23126565.006 7  90753614.27707  23126555.269 8 120426044.29008                                  23126560.219 7  97856049.47207  23126563.693 7  93121092.26507
C29  26475793.642 6 139131227.25506  26475813.877 4 103896779.61804  26475791.065 6 137866376.51406                                  26475808.449 5 112027811.26905  26475809.838 5 106607109.73905
G26  21702277.765 7 114046241.83907  21702277.050 8  21702289.643 8  88867255.80508  21702289.817 7  88867247.80807  21702288.561 7  85164445.80007
E24  26140557.784 7 137369571.04907  26140566.222 6 111501320.55606  26140571.101 6 102581234.85506  26140569.127 7 105257255.83107  26140570.153 7 103919249.41307
C20  22498707.752 8 118231498.75508  22498715.120 7  88289784.57307  22498706.451 8 117156664.45908                                  22498710.961 7  95199401.70507  22498714.130 8  90592989.07808
G02  23060395.772 7 121183171.33807  23060394.529 5  23060404.291 5  94428464.33005
G16  23035508.005 6 121052432.78006  23035506.986 4  23035519.071 4  94326628.62504
C35                                                                  26239934.967 3                                                  26239846.749 4
E31  25970081.259 5 136473696.80205  25970089.776 5 110774132.89405  25970097.071 5 101912238.15905  25970094.829 6 104570807.56206  25970095.966 6 103241528.93106
G04  22152790.513 7 116413700.52707  22152790.044 5  22152799.674 5  90712021.75705  22152799.643 7  90712011.76507  22152803.118 6  86932365.07106  22152790.123 7 116413700.53207
C36  25055592.973 7 131668048.71707  25055616.427 6  98323652.98206  25055591.411 7 130471058.24707                                  25055611.198 7 106018525.89007  25055614.670 7 100888606.53507
E06  26229508.369 5 137836980.41105  26229517.998 6 111880695.85706  26229525.728 6 102930266.93106  26229523.650 7 105615394.25107  26229524.608 7 104272830.66207
E34  25170181.942 7 132270192.30207  25170189.526 6 107362198.26206  25170194.640 7  98773241.11807  25170192.904 7 101349927.88907  25170193.913 7 100061586.57507
> 2024 10 22 19 17 30.0000000  0 24
E03  27614907.549 4                                                                                  27614924.518 5 111193862.68915
G28  23373299.059 6 122827476.72306  23373298.527 2  23373309.330 2  95709754.75602  23373311.682 5  95709744.74005  23373315.214 5  91721869.30905  23373299.695 5 122827476.70905
G09  24625537.990 5                                                                                                  24625554.742 5  96635969.12815
G21  23855088.209 6 125359301.09506  23855086.743 4  23855099.596 4  97682600.93304
E25  28392209.569 5 149202096.68705  28392223.608 5 121105646.93005                                  28392229.918 5 114323759.42605
C37  23633315.058 7 124193896.59207  23633329.724 7  92742246.53807  23633312.563 8 123064848.66808                                  23633327.449 7 100000325.81507  23633328.711 7  95161604.46807
G03  20500678.410 8 107731794.02908  20500678.124 8  20500687.268 8  83946888.02108  20500687.467 7  83946886.02307  20500686.388 7  80449101.82707
E36  25620661.399 7 134637463.03307  25620669.216 7 109283680.18307  25620676.240 6 100541007.10706  25620673.679 7 103163809.01807  25620675.131 7 101852410.62907
E05  22804928.901 7 119840705.92707  22804932.959 7  97273315.55207  22804939.380 7  89491479.80207  22804937.789 8  91826031.45508  22804938.693 8  90658755.69908
G31  20727981.906 7 108926272.63707  20727981.388 7  20727987.909 7  84877630.29507  20727988.136 7  84877626.28607
E09  24925529.168 7 130984526.04507  24925536.001 7 106318628.47407  24925540.598 7  97813161.54107  24925538.889 8 100364801.87908  24925539.883 8  99088982.28608
C19  23116886.479 7 121480065.11907  23116895.854 7  90715670.52307  23116885.746 8 120375694.53408                                  23116890.887 7  97815136.19807  23116894.619 8  93082158.67808
C29  26489122.552 6 139201272.55906  26489143.924 5 103949085.84905  26489122.428 6 137935784.99506                                  26489139.059 5 112084211.14705  26489139.785 6 106660780.53206
G26  21696024.437 7 114013381.77707  21696023.718 7  21696036.499 7  88841650.56807  21696036.471 7  88841642.56907  21696035.514 7  85139907.43707
E24  26126891.892 7 137297758.65607  26126900.684 6 111443031.38806  26126905.308 6 102527608.85706  26126903.429 7 105202230.88907  26126904.553 7 103864923.94407
C20  22501305.451 8 118245150.97008  22501313.183 7  88299979.37207  22501304.352 8 117170192.55308                                  22501308.992 7  95210394.36507  22501312.220 8  90603449.83308
G02  23073478.511 7 121251922.42407  23073477.264 5  23073487.749 5  94482036.41805
G16  23017474.014 6 120957662.20106  23017473.013 4  23017483.805 4  94252781.66104
C35                                                                  26248133.892 3                                                  26248180.449 3
E31  25968255.010 6 136464098.00606  25968262.696 5 110766341.72405  25968270.506 5 101905070.29505  25968267.933 6 104563452.70506  25968269.375 6 103234267.57306
G04  22143026.678 7 116362394.24407  22143026.205 5  22143036.816 5  90672042.90005  22143036.736 7  90672032.90307  22143039.754 6  86894051.98906  22143026.728 7 116362394.25207
C36  25036677.591 7 131568648.10907  25036701.161 6  98249425.39806  25036675.655 7 130372561.26607                                  25036695.691 7 105938489.14707  25036699.205 7 100812442.56307
E06  26238489.463 4 137884182.24104  26238500.394 6 111919008.87606  26238507.864 6 102965514.85506  26238505.809 7 105651561.71407  26238506.913 7 104308538.35907
E34  25172247.136 7 132281044.25707  25172254.715 6 107371006.63406  25172259.870 7  98781344.78907  25172257.923 7 101358242.97407  25172259.025 7 100069795.95507
> 2024 10 22 19 18  0.0000000  0 24
E03  27605231.866 4                                                  27605252.136 5 108328937.40915  27605248.491 5 111154898.95605
G28  23391202.124 5 122921566.81205  23391201.409 2  23391214.315 2  95783071.51402  23391215.400 5  95783061.51305  23391220.625 5  91792131.17605  23391203.372 5 122921566.80605
G09  24611494.738 5                                                                  24611513.327 5 100780033.19415  24611513.435 5  96580868.74505
G21  23870029.348 6 125437816.93206  23870027.868 4  23870040.637 4  97743781.85204
E25  28376242.066 5 149118190.08905  28376255.730 4 121037541.24904                                  28376262.781 5 114259467.76905
C37  23643331.955 7 124246535.95907  23643346.784 7  92781555.01507  23643329.683 8 123117009.48908                                  23643344.458 7 100042710.67507  23643345.642 7  95201938.41207
G03  20491774.976 8 107685005.09508  20491774.690 8  20491783.118 8  83910429.13308  20491783.490 7  83910427.13807  20491782.551 7  80414162.07007
E36  25635681.655 7 134716394.58307  25635689.653 6 109347747.86606  25635696.474 6 100599949.32206  25635694.387 7 103224288.86807  25635695.503 8 101912121.66108
E05  22801361.627 7 119821959.52307  22801365.792 7  97258099.29407  22801372.156 7  89477480.84107  22801370.584 8  91811667.31408  22801371.442 8  90644574.15008
G31  20738899.569 7 108983644.77607  20738899.051 7  20738905.072 7  84922335.77507  20738906.267 7  84922331.76807
E09  24931572.353 7 131016280.89307  24931578.626 7 106344403.45407  24931583.510 7  97836874.49707  24931581.946 8 100389133.44608  24931582.802 8  99113004.54308
C19  23107237.606 7 121429359.08507  23107246.835 7  90677805.68107  23107236.425 8 120325449.46708                                  23107241.733 7  97774307.99907  23107245.800 8  93043306.04508
C29  26502430.135 6 139271203.18306  26502449.109 4 104001306.52604  26502430.676 6 138005079.85106                                  26502447.034 6 112140518.72606  26502447.802 6 106714363.51706
G26  21689875.303 7 113981067.35907  21689874.588 7  21689886.887 7  88816470.48507  21689887.207 7  88816462.47907  21689886.363 7  85115776.52207
E24  26113259.885 7 137226121.90107  26113268.481 6 111384884.76906  26113273.497 6 102474114.02006  26113271.171 7 105147340.51607  26113272.467 7 103810731.33707
C20  22503948.250 8 118259037.83508  22503956.022 7  88310349.39007  22503947.059 8 117183953.18708                                  22503951.699 7  95221575.96807  22503954.799 8  90614090.38008
G02  23086607.823 7 121320917.93207  23086606.567 5  23086616.285 5  94535798.94705
G16  22999474.921 6 120863080.55506  22999473.915 4  22999485.578 4  94179081.90304
C35                                                                  26256553.233 4                                                  26256561.423 3
E31  25966505.839 6 136454905.79906  25966512.274 5 110758880.52905  25966520.870 5 101898206.04305  25966518.609 6 104556409.38506  25966519.987 7 103227313.78707
G04  22133283.103 7 116311191.53607  22133282.643 5  22133293.146 5  90632144.74705  22133293.229 7  90632134.74207  22133296.320 6  86855816.25606  22133283.242 7 116311191.54107
C36  25017782.464 7 131469355.97307  25017806.336 6  98175278.84006  25017779.952 7 130274171.81107                                  25017800.877 7 105858539.76307  25017804.485 7 100736361.72307
E06  26247475.744 4 137931395.55104  26247484.787 6 111957331.23706  26247492.304 5 103000771.37505  26247490.383 6 105687737.99506  26247491.378 6 104344254.76406
E34  25174395.745 7 132292335.43407  25174403.168 6 107380171.51406  25174408.649 7  98789776.45007  25174406.573 7 101366894.59607  25174407.756 7 100078337.59607
> 2024 10 22 19 18 30.0000000  0 24
E03  27595560.095 4                                                  27595579.309 5 108290980.92905  27595576.658 5 111115952.30905
G28  23409130.827 5 123015779.43005  23409130.125 1  23409142.575 1  95856483.76001  23409143.529 5  95856473.73705  23409149.114 5  91862484.50905  23409132.042 5 123015779.40605
G09  24597456.505 5 129260491.69715                                                  24597473.795 5 100722548.46705  24597475.017 5  96525779.21905
G21  23884982.140 7 125516391.37507  23884980.678 4  23884993.752 4  97805008.42004
E25  28360248.360 4 149034142.19704  28360262.413 5 120969320.89405  28360271.837 5 111291801.39515  28360268.260 5 114195067.85105
C37  23653424.900 7 124299573.92107  23653439.989 7  92821161.14107  23653422.239 7 123169565.29007                                  23653437.112 7 100085416.46607  23653438.556 7  95242577.75607
G03  20482951.324 8 107638637.46708  20482951.038 8  20482959.427 8  83874298.52908  20482959.973 7  83874296.53107  20482959.287 7  80379536.91107
E36  25650737.970 7 134795514.95107  25650745.916 6 109411968.80806  25650753.075 7 100659032.51907  25650750.617 7 103284913.39107  25650751.783 8 101971975.52208
E05  22797805.779 7 119803274.02407  22797810.106 7  97242932.50207  22797816.385 7  89463527.39307  22797814.914 8  91797349.85408  22797815.805 8  90630438.69408
G31  20749899.317 7 109041446.57507  20749898.799 7  20749904.217 7  84967376.05407  20749905.212 7  84967372.04607
E09  24937621.709 7 131048070.40807  24937628.155 7 106370206.56507  24937632.942 7  97860613.33807  24937631.252 8 100413491.57308  24937632.196 8  99137053.02508
C19  23097608.662 7 121378759.31307  23097618.036 7  90640020.17507  23097607.528 8 120275309.68908                                  23097612.939 7  97733565.35707  23097616.880 8  93004534.82908
C29  26515715.303 5 139341016.43205  26515734.723 4 104053439.47504  26515715.721 7 138074258.40007                                  26515729.983 5 112196731.80505  26515733.304 5 106767856.55005
G26  21683830.217 7 113949299.82507  21683829.515 7  21683842.107 7  88791716.57507  21683842.571 7  88791708.57007  21683841.053 7  85092054.02007
E24  26099661.396 7 137154662.25007  26099670.077 6 111326881.90906  26099675.096 6 102420751.40606  26099672.775 7 105092585.83507  26099674.080 7 103756672.69407
C20  22506635.110 7 118273159.65707  22506643.491 7  88320894.84607  22506634.650 8 117197946.61308                                  22506639.022 7  95232946.74507  22506641.946 8  90624910.94708
G02  23099783.393 7 121390154.00307  23099782.146 5  23099791.576 5  94589748.92705
G16  22981513.339 7 120768690.94707  22981512.302 4  22981524.685 4  94105531.76404
C35                                                                  26264998.809 4                                                  26265007.205 4
E31  25964833.466 6 136446120.13706  25964840.438 5 110751749.39205  25964849.127 6 101891645.41006  25964847.140 7 104549677.59707  25964848.302 7 103220667.57307
G04  22123559.335 7 116260091.73207  22123558.879 5  22123569.187 5  90592326.77005  22123568.820 7  90592316.76207  22123572.213 6  86817657.35506  22123559.301 7 116260091.73607
C36  24998908.762 7 131370173.73107  24998932.588 6  98101214.32006  24998905.988 7 130175891.22507                                  24998926.767 7 105778678.85507  24998930.641 7 100660365.09007
E06  26256463.234 5 137978619.91005  26256471.470 6 111995662.57506  26256479.107 5 103036036.17005  26256477.155 6 105723922.76806  26256478.087 6 104379979.55106
E34  25176627.647 7 132304064.77207  25176635.364 6 107389692.02506  25176640.723 6  98798535.29206  25176638.770 7 101375881.94207  25176639.869 7 100087210.69107
> 2024 10 22 19 19  0.0000000  0 24
E03  27585894.897 4                                                  27585909.522 5 108253037.97905  27585907.513 5 111077019.50305
G28  23427083.722 5 123110108.45105  23427083.195 1  23427093.228 1  95929986.69301  23427094.038 5  95929976.67105  23427099.729 5  91932924.78705  23427082.039 5 123110108.46905
G09  24583420.531 5 129186730.13805  24583420.277 4  24583436.827 4 100665058.01214  24583437.982 5 100665072.01605  24583438.686 5  96470697.63605
G21  23899943.667 7 125595017.27207  23899942.237 4  23899956.857 4  97866275.08004
E25  28344225.910 5 148949950.72205  28344241.190 5 120900984.00205  28344251.304 5 111228931.58705  28344246.916 5 114130557.94505  28344248.638 5 112679742.34615
C37  23663592.407 7 124353004.96607  23663607.606 7  92861060.80907  23663590.477 8 123222510.58708                                  23663604.716 7 100128438.76807  23663606.202 7  95283518.29507
G03  20474207.707 8 107592689.48708  20474207.435 8  20474215.777 8  83838494.92708  20474216.886 7  83838492.92807  20474215.700 7  80345225.13107
E36  25665829.222 7 134874818.21507  25665836.848 7 109476338.20607  25665844.011 7 100718252.29207  25665841.734 7 103345678.06607  25665842.869 8 102031967.75408
E05  22794260.524 7 119784645.37007  22794265.087 7  97227811.84207  22794271.462 7  89449616.38107  22794269.985 8  91783075.95008  22794270.841 8  90616346.23808
G31  20760978.835 7 109099671.22307  20760978.312 7  20760984.227 7  85012745.82307  20760985.041 7  85012741.80907
E09  24943676.677 7 131079890.86707  24943683.271 7 106396034.79607  24943688.057 7  97884375.29307  24943686.608 8 100437873.41108  24943687.475 8  99161124.92308
C19  23087999.483 7 121328263.14407  23088008.729 7  90602312.04407  23087998.391 8 120225272.58108                                  23088003.839 7  97692906.13507  23088007.672 8  92965843.00008
C29  26528977.233 5 139410706.17205  26528995.503 4 104105480.31804  26528978.355 6 138143314.67806                                  26528991.676 5 112252845.49505  26528994.656 5 106821255.01105
G26  21677888.717 7 113918077.18207  21677888.038 7  21677900.890 7  88767387.25407  21677900.754 7  88767379.25107  21677899.527 7  85068738.42707
E24  26086096.245 7 137083377.92207  26086105.420 7 111269021.33107  26086110.441 6 102367519.71806  26086107.809 7 105037965.48507  26086109.202 7 103702746.67207
C20  22509366.756 7 118287513.47007  22509375.021 7  88331613.54507  22509366.062 8 117212169.94308                                  22509369.972 7  95244504.33007  22509373.426 8  90635909.29108
G02  23113002.959 7 121459624.28407  23113001.703 5  23113012.268 5  94643881.42605
G16  22963587.461 7 120674492.84607  22963586.415 4  22963598.916 4  94032130.81204
C35                                                                                                                                  26273488.424 3
E31  25963238.378 6 136437737.75506  25963245.808 5 110744945.56705  25963254.054 6 101885385.91306  25963252.064 7 104543254.82607  25963253.293 7 103214326.44307
G04  22113854.176 7 116209090.95707  22113853.716 5  22113863.768 5  90552585.94405  22113863.651 7  90552575.94507  22113867.467 6  86779572.42306  22113854.356 7 116209090.96007
C36  24980055.264 7 131271099.55807  24980079.499 7  98027230.52307  24980053.014 7 130077717.72107                                  24980073.281 7 105698904.95907  24980077.042 7 100584451.24907
E06  26265451.342 5 138025851.72205  26265459.496 5 112034000.03705  26265467.366 5 103071306.57405  26265464.855 6 105760113.29806  26265466.272 6 104415710.01406
E34  25178942.577 7 132316227.89207  25178949.938 6 107399564.64906  25178955.401 7  98807618.08207  25178953.306 7 101385201.68307  25178954.466 8 100096411.95508
