     2.11           OBSERVATION DATA    GPS(GPS)            RINEX VERSION / TYPE
cnvtToRINEX 3.14.0  convertToRINEX OPR  20241124 004038 UTC PGM / RUN BY / DATE 
----------------------------------------------------------- COMMENT             
ALAB                                                        MARKER NAME         
ALAB                                                        MARKER NUMBER       
GNSS Observer       Trimble                                 OBSERVER / AGENCY   
4541260308          TRIMBLE NETRS       1.32                REC # / TYPE / VERS 
19991869            ASH701945D_M    NONE                    ANT # / TYPE        
 -2455551.1967 -4767159.8151  3441689.3525                  APPROX POSITION XYZ 
        0.5350        0.0000        0.0000                  ANTENNA: DELTA H/E/N
     1     1     0                                          WAVELENGTH FACT L1/2
     4    C1    L1    L2    P2                              # / TYPES OF OBSERV 
  2024    11    23     0     0    0.0000000     GPS         TIME OF FIRST OBS   
  2024    11    23    23    59   30.0000000     GPS         TIME OF LAST OBS    
     0                                                      RCV CLOCK OFFS APPL 
    18                                                      LEAP SECONDS        
    31                                                      # OF SATELLITES     
   G02   715   690   579   579                              PRN / # OF OBS      
   G03   645   642   645   645                              PRN / # OF OBS      
   G04   832   816   749   749                              PRN / # OF OBS      
   G05   645   630   624   624                              PRN / # OF OBS      
   G06   592   579   589   589                              PRN / # OF OBS      
   G07   893   891   887   887                              PRN / # OF OBS      
   G08   815   798   799   799                              PRN / # OF OBS      
   G09   773   767   769   769                              PRN / # OF OBS      
   G10   864   853   854   854                              PRN / # OF OBS      
   G11   667   664   645   645                              PRN / # OF OBS      
   G12   746   740   743   743                              PRN / # OF OBS      
   G13   694   668   507   507                              PRN / # OF OBS      
   G14   798   789   742   742                              PRN / # OF OBS      
   G15   868   842   827   827                              PRN / # OF OBS      
   G16   726   701   560   560                              PRN / # OF OBS      
   G17   694   692   681   681                              PRN / # OF OBS      
   G18   855   848   836   836                              PRN / # OF OBS      
   G19   733   728   690   690                              PRN / # OF OBS      
   G20   704   681   555   555                              PRN / # OF OBS      
   G21   584   582   545   545                              PRN / # OF OBS      
   G22   884   873   827   827                              PRN / # OF OBS      
   G23   776   771   736   736                              PRN / # OF OBS      
   G24   612   593   601   601                              PRN / # OF OBS      
   G25   619   605   615   615                              PRN / # OF OBS      
   G26   809   787   796   796                              PRN / # OF OBS      
   G27   717   689   703   703                              PRN / # OF OBS      
   G28   595   585   546   546                              PRN / # OF OBS      
   G29   773   761   752   752                              PRN / # OF OBS      
   G30   833   811   821   821                              PRN / # OF OBS      
   G31   651   646   648   648                              PRN / # OF OBS      
   G32   729   727   723   723                              PRN / # OF OBS      
CARRIER PHASE MEASUREMENTS: PHASE SHIFTS REMOVED            COMMENT             
                                                            END OF HEADER       
 24 11 23  0  0  0.0000000  0  9G02G07G13G14G15G17G19G22G30         
  23600108.117 2  -1140068.290 2   -572611.35445  23600103.62145
  22131743.109 6 -16639249.906 6 -12135684.75548  22131735.97348
  21277597.594 6 -10438013.764 6  -7079444.94248  21277591.51248
  20557896.516 7 -19845998.634 7 -15764953.46948  20557889.37948
  23593148.35911                                
  20588035.844 6 -20596760.284 6 -16077554.25149  20588028.76649
  22820342.820 5 -13139519.862 5  -7498141.45847  22820337.14847
  21124319.539 7 -18351917.667 7 -11987162.86648  21124312.93048
  20563135.672 7 -16408864.449 7 -16989186.30849  20563130.17649
 24 11 23  0  0 30.0000000  0  8G02G07G13G14G17G19G22G30            
  23599302.563 1  -1144299.483 1   -575908.23945  23599299.23845
  22142703.594 6 -16581651.242 6 -12090802.71648  22142697.21948
  21270955.734 6 -10472920.231 6  -7106644.74548  21270948.53948
  20558999.000 7 -19840206.097 7 -15760439.79748  20558991.27748
  20578733.086 7 -20645646.937 7 -16115647.68249  20578725.83249
  22801346.602 5 -13239342.188 5  -7575924.87547  22801340.69547
  21122056.563 7 -18363807.460 7 -11996427.60348  21122050.01248
  20565767.953 7 -16395031.406 7 -16978407.31149  20565762.04749
 24 11 23  0  1  0.0000000  0  8G02G07G13G14G17G19G22G30            
  23598591.64111                                
  22153729.055 6 -16523711.421 6 -12045654.82348  22153722.73848
  21264423.453 7 -10507244.721 7  -7133391.05048  21264416.66848
  20560141.289 6 -19834199.664 6 -15755759.45048  20560134.21148
  20569529.469 6 -20694012.390 6 -16153334.97049  20569522.50849
  22782392.453 5 -13338945.961 5  -7653538.00947  22782386.48847
  21119839.852 7 -18375462.349 7 -12005509.31348  21119831.83648
  20568475.961 7 -16380801.779 7 -16967319.28149  20568470.23049
 24 11 23  0  1 30.0000000  0  8G02G07G13G14G17G19G22G30            
  23597971.16411  -1151298.49511                
  22164814.766 6 -16465455.012 6 -12000260.26148  22164808.85948
  21257997.758 6 -10541011.102 6  -7159702.48248  21257990.68048
  20561320.789 7 -19828004.719 7 -15750932.21148  20561313.65248
  20560420.008 6 -20741880.428 6 -16190634.67949  20560412.87149
  22763476.406 6 -13438353.617 6  -7730998.32147  22763469.15247
  21117661.797 7 -18386908.803 7 -12014428.60148  21117653.66448
  20571254.820 7 -16366199.375 7 -16955940.78049  20571248.85549
 24 11 23  0  2  0.0000000  0  8G02G07G13G14G17G19G22G30            
  23597444.89111  -1154065.04511                
  22175965.492 6 -16406858.056 6 -11954600.32548  22175959.70348
  21251683.875 6 -10574193.238 6  -7185558.63548  21251676.44548
  20562539.570 7 -19821597.605 7 -15745939.62648  20562532.78548
  20551410.766 7 -20789225.539 7 -16227526.90949  20551403.27749
  22744602.281 6 -13537538.470 6  -7808285.00947  22744595.61347
  21115527.289 7 -18398122.999 7 -12023166.90948  21115519.62548
  20574109.242 7 -16351198.894 7 -16944252.08649  20574103.21949
 24 11 23  0  2 30.0000000  0  8G02G07G13G14G17G19G22G30            
  23597011.22711                                
  22187181.305 6 -16347918.563 6 -11908673.45648  22187175.69148
  21245480.742 6 -10606788.218 6  -7210957.28448  21245474.19148
  20563799.461 7 -19814977.223 7 -15740780.87648  20563792.38348
  20542501.563 6 -20836044.864 6 -16264009.42849  20542493.84049
  22725770.773 6 -13636496.662 6  -7885395.10447  22725764.86747
  21113438.180 7 -18409104.025 7 -12031723.53448  21113429.75448
  20577039.680 7 -16335797.683 7 -16932251.13549  20577033.89149
 24 11 23  0  3  0.0000000  0  8G02G07G13G14G17G19G22G30            
  23596672.40611                                
  22198458.461 6 -16288654.841 6 -11862493.95148  22198453.32048
  21239387.078 6 -10638812.668 6  -7235911.35348  21239380.23448
  20565096.578 7 -19808162.511 7 -15735470.69148  20565088.85548
  20533689.016 7 -20882355.698 7 -16300095.71949  20533680.82449
  22706979.211 5 -13735243.949 5  -7962340.87647  22706973.94947
  21111388.984 7 -18419871.728 7 -12040113.92948  21111380.67648
  20580043.430 7 -16320013.090 7 -16919951.45449  20580037.99249
 24 11 23  0  3 30.0000000  0  8G02G07G13G14G17G19G22G30            
  23596426.21911                                
  22209799.563 6 -16229059.428 6 -11816055.98548  22209793.30548
  21233402.930 7 -10670258.064 7  -7260414.21448  21233396.43848
  20566431.414 7 -19801146.600 7 -15730003.71148  20566424.27748
  20524974.430 7 -20928149.412 7 -16335779.05949  20524966.53149
  22688230.734 6 -13833770.557 6  -8039114.70147  22688224.77047
  21109381.828 6 -18430418.795 6 -12048332.40548  21109373.52048
  20583121.820 7 -16303836.646 7 -16907346.43249  20583115.79749
 24 11 23  0  4  0.0000000  0  8G02G07G13G14G17G19G22G30            
  23596273.203 3  -1160219.491 3                
  22221201.219 6 -16169142.226 6 -11769367.29648  22221195.43048
  21227527.742 7 -10701133.100 7  -7284472.63348  21227520.54748
  20567802.742 6 -19793939.985 6 -15724388.13848  20567795.48848
  20516357.109 7 -20973434.809 7 -16371066.30649  20516348.97749
  22669521.992 6 -13932083.977 6  -8115722.38647  22669515.61747
  21107414.727 6 -18440756.194 6 -12056387.48748  21107406.18448
  20586272.906 7 -16287277.346 7 -16894443.09049  20586266.82449
 24 11 23  0  4 30.0000000  0  8G02G07G13G14G17G19G22G30            
  23596214.711 2  -1160526.585 2                
  22232668.672 6 -16108882.880 6 -11722412.00248  22232662.64848
  21221764.859 7 -10731415.860 7  -7308069.54348  21221757.78148
  20569214.180 7 -19786522.567 7 -15718608.30448  20569207.21948
  20507840.117 6 -21018189.610 6 -16405940.10949  20507832.68849
  22650859.625 6 -14030161.456 6  -8192146.24847  22650852.02047
  21105491.664 6 -18450864.187 6 -12064263.82848  21105483.47348
  20589500.734 7 -16270313.629 7 -16881224.59749  20589495.65249
 24 11 23  0  5  0.0000000  0  9G02G07G13G14G15G17G19G22G30         
  23596249.91412  -1160338.82312                
  22244198.727 6 -16048290.564 6 -11675197.24848  22244192.87948
  21216113.102 7 -10761114.424 7  -7331211.23348  21216105.78948
  20570664.023 7 -19778904.478 7 -15712672.09148  20570656.71148
  23482878.28911    618329.46411                
  20499423.219 7 -21062422.608 7 -16440407.31449  20499415.43849
  22632238.836 6 -14128010.129 6  -8268391.80547  22632231.52347
  21103609.336 6 -18460753.404 6 -12071969.67348  21103601.14548
  20592804.477 7 -16252954.020 7 -16867697.62449  20592798.92249
 24 11 23  0  5 30.0000000  0  9G02G07G13G14G15G17G19G22G30         
  23596381.06311                                
  22255793.805 6 -15987360.741 6 -11627719.50748  22255787.31348
  21210573.711 6 -10790222.985 6  -7353893.20048  21210567.51248
  20572152.547 7 -19771081.583 7 -15706576.29948  20572145.00048
  23472388.438 1    563210.867 1    535511.29155  23472384.99655
  20491106.258 6 -21106128.206 6 -16474463.54949  20491098.41849
  22613663.531 6 -14225623.038 6  -8344453.66147  22613656.74647
  21101769.398 6 -18470419.874 6 -12079501.96548  21101761.55948
  20596185.023 7 -16235192.909 7 -16853857.79749  20596179.41049
 24 11 23  0  6  0.0000000  0  9G02G07G13G14G15G17G19G22G30         
  23596606.44511                                
  22267450.117 6 -15926102.230 6 -11579985.63548  22267444.62148
  21205145.930 7 -10818749.272 7  -7376121.42948  21205138.85248
  20573678.578 7 -19763063.256 7 -15700328.22548  20573671.26648
  23461996.609 1    508608.943 1    492964.44945  23461995.33645
  20482887.414 6 -21149314.057 6 -16508114.79649  20482880.57049
  22595131.531 6 -14323006.125 6  -8420336.41747  22595125.68447
  21099970.727 6 -18479873.486 6 -12086868.37148  21099962.35948
  20599638.625 7 -16217038.210 7 -16839711.28049  20599633.18849
 24 11 23  0  6 30.0000000  0  8G07G13G14G15G17G19G22G30            
  22279170.461 6 -15864507.898 6 -11531990.07248  22279165.96548
  21199830.031 6 -10846684.332 6  -7397888.96848  21199822.89548
  20575242.609 7 -19754842.668 7 -15693922.55548  20575235.35548
  23451705.47711                    450827.51655  23451705.02355
  20474769.539 7 -21191971.845 7 -16541354.55349  20474762.28549
  22576645.297 6 -14420150.013 6  -8496032.79847  22576639.74247
  21098214.047 7 -18489107.348 7 -12094063.54448  21098205.62148
  20603169.953 7 -16198481.586 7 -16825251.57349  20603164.28149
 24 11 23  0  7  0.0000000  0  8G07G13G14G15G17G19G22G30            
  22290953.828 5 -15802587.011 5 -11483740.06748  22290948.74648
  21194625.422 7 -10874036.798 7  -7419202.54148  21194617.87548
  20576843.891 7 -19746429.852 7 -15687367.07948  20576836.40248
  23441512.055 1    400975.158 1    409094.35445  23441513.65245
  20466750.555 6 -21234109.995 6 -16574189.41449  20466743.41849
  22558203.523 6 -14517061.760 6  -8571548.28847  22558196.97347
  21096496.625 6 -18498132.026 6 -12101095.70748  21096488.31648
  20606776.234 7 -16179531.593 7 -16810485.35249  20606770.62149
 24 11 23  0  7 30.0000000  0  8G07G13G14G15G17G19G22G30            
  22302801.867 6 -15740332.647 6 -11435230.21648  22302794.90648
  21189532.477 7 -10900798.485 7  -7440055.76948  21189525.16448
  20578482.250 7 -19737818.291 7 -15680656.73948  20578474.58648
  23431422.039 1    347944.323 1    367771.74445  23431422.05545
  20458833.547 7 -21275720.250 7 -16606612.92949  20458825.53149
  22539807.367 6 -14613732.059 6  -8646875.63147  22539800.87547
  21094819.602 6 -18506941.321 6 -12107960.04948  21094811.93848
  20610458.938 7 -16160180.374 7 -16795406.47849  20610453.26649
 24 11 23  0  8  0.0000000  0  8G07G13G14G15G17G19G22G30            
  22314710.477 6 -15677748.830 6 -11386463.66148  22314704.92248
  21184552.016 7 -10926971.970 7  -7460450.66548  21184544.64548
  20580157.680 7 -19729012.425 7 -15673795.00248  20580150.25048
  23421432.398 1    295438.234 1    326858.03946  23421429.66046
  20451015.570 7 -21316805.942 7 -16638627.69749  20451007.55549
  22521457.734 6 -14710162.391 6  -8722016.01547  22521450.24647
  21093183.828 6 -18515539.920 6 -12114660.21648  21093175.81348
  20614217.063 7 -16140430.907 7 -16780017.27749  20614211.27349
 24 11 23  0  8 30.0000000  0  9G02G07G13G14G15G17G19G22G30         
  23599148.44512   -757540.12612                
  22326680.594 6 -15614844.429 6 -11337447.30948  22326674.51248
  21179681.922 7 -10952564.797 7  -7480393.09648  21179674.55148
  20581868.938 7 -19720021.419 7 -15666789.01048  20581861.56648
  23411539.148 1    243450.557 1    286348.23246  23411536.41046
  20443295.219 7 -21357374.603 7 -16670239.56649  20443287.78949
  22503152.656 6 -14806359.368 6  -8796974.54747  22503144.58247
  21091585.766 7 -18523937.498 7 -12121203.72848  21091577.22348
  20618049.766 7 -16120290.945 7 -16764323.81449  20618043.56649
 24 11 23  0  9  0.0000000  0  9G02G07G13G14G15G17G19G22G30         
  23599943.563 3   -753368.178 3                
  22338714.594 5 -15551598.595 5 -11288164.86248  22338709.51248
  21174925.867 7 -10977555.008 7  -7499865.96048  21174918.73048
  20583618.617 7 -19710824.935 7 -15659622.90948  20583611.24648
  23401748.984 2    192002.890 2    246259.21146  23401745.95346
  20435677.195 6 -21397404.427 6 -16701431.58649  20435670.23449
  22484895.945 6 -14902299.546 6  -8871732.96447  22484888.28147
  21090029.148 6 -18532114.010 6 -12127574.99648  21090021.25048
  20621960.094 7 -16099738.681 7 -16748309.07249  20621954.59849
 24 11 23  0  9 30.0000000  0  9G02G07G13G14G15G17G19G22G30         
  23600832.852 3   -748697.239 3                
  22350813.961 5 -15488023.896 5 -11238626.16648  22350807.82048
  21170283.125 6 -11001954.053 6  -7518878.17248  21170275.81348
  20585405.406 6 -19701435.924 6 -15652306.78848  20585398.15248
  23392057.328 1    141084.717 1    206582.89346  23392055.82046
  20428160.219 7 -21436907.041 7 -16732212.79049  20428152.78949
  22466686.133 6 -14997992.874 6  -8946299.01147  22466678.29347
  21088513.469 7 -18540082.594 7 -12133784.22148  21088504.98448
  20625947.461 7 -16078785.863 7 -16731982.21449  20625941.84849
 24 11 23  0 10  0.0000000  0  9G02G07G13G14G15G17G19G22G30         
  23601815.039 1   -743528.530 1                
  22362974.234 5 -15424122.560 5 -11188832.98348  22362968.21148
  21165751.961 6 -11025763.023 6  -7537430.58648  21165745.05948
  20587228.313 7 -19691857.069 7 -15644842.73248  20587221.11748
  23382468.61711                  -1060281.15856  23382467.10956
  20420743.703 7 -21475883.542 7 -16762584.02549  20420735.39549
  22448522.469 6 -15093439.330 6  -9020672.70447  22448516.09447
  21087035.844 7 -18547846.276 7 -12139833.79248  21087027.94548
  20630010.188 7 -16057433.657 7 -16715344.13149  20630005.16449
 24 11 23  0 10 30.0000000  0  8G07G13G14G15G17G19G22G30            
  22375201.391 6 -15359872.614 6 -11138768.15048  22375195.19148
  21161337.867 6 -11048958.732 6  -7555505.13048  21161330.73048
  20589091.297 7 -19682066.711 7 -15637213.86548  20589083.98448
  23372985.35911                  -1099114.39955  23372984.37955
  20413431.148 7 -21514310.969 7 -16792527.39749  20413422.72349
  22430409.875 5 -15188614.438 5  -9094834.93847  22430403.55947
  21085602.008 7 -18555383.582 7 -12145706.97848  21085593.05548
  20634153.609 7 -16035659.156 7 -16698376.99649  20634148.64549
 24 11 23  0 11  0.0000000  0  8G07G13G14G15G17G19G22G30            
  22387487.406 5 -15295304.114 5 -11088455.05648  22387482.02748
  21157035.367 7 -11071570.390 7  -7573124.55848  21157028.17248
  20590988.281 7 -19672095.434 7 -15629444.02948  20590981.20348
  23363601.29711  -1583872.11211  -1137539.01555  23363599.73055
  20406217.125 7 -21552218.935 7 -16822066.01749  20406209.63749
  22412345.430 6 -15283545.973 6  -9168807.38047  22412338.70347
  21084204.313 7 -18562725.846 7 -12151428.18948  21084196.12148
  20638372.180 7 -16013491.623 7 -16681103.60049  20638366.44949
 24 11 23  0 11 30.0000000  0  8G07G13G14G15G17G19G22G30            
  22399836.375 5 -15230409.453 5 -11037887.80748  22399831.11348
  21152845.516 6 -11093588.513 6  -7590281.50048  21152838.37948
  20592922.086 7 -19661935.598 7 -15621527.26548  20592915.12548
  23354321.695 2  -1632649.624 2  -1175547.31646  23354317.08246
  20399104.563 7 -21589597.986 7 -16851192.48949  20399096.31349
  22394328.805 5 -15378223.533 5  -9242581.92847  22394321.72747
  21082845.594 7 -18569865.667 7 -12156991.64248  21082837.34448
  20642667.414 7 -15990922.050 7 -16663516.91949  20642662.27349
 24 11 23  0 12  0.0000000  0  8G07G13G14G15G17G19G22G30            
  22412248.391 5 -15165186.294 5 -10987064.60348  22412242.95348
  21148768.977 7 -11115010.510 7  -7606973.92048  21148761.84048
  20594891.563 7 -19651585.444 7 -15613462.19148  20594884.48448
  23345141.773 1  -1680889.287 1  -1213136.57346  23345136.80946
  20392092.305 7 -21626445.149 7 -16879904.50749  20392084.34849
  22376360.492 5 -15472642.780 5  -9316155.18247  22376354.17647
  21081525.641 7 -18576801.580 7 -12162396.21948  21081517.56648
  20647039.125 7 -15967947.433 7 -16645614.62049  20647033.80549
 24 11 23  0 12 30.0000000  0  8G07G13G14G15G17G19G22G30            
  22424722.914 6 -15099633.840 6 -10935984.82748  22424716.94948
  21144806.914 7 -11135834.187 7  -7623200.12748  21144799.01648
  20596898.016 7 -19641044.541 7 -15605248.47448  20596890.29348
  23336062.664 1  -1728588.436 1  -1250304.62445  23336059.80945
  20385181.953 7 -21662759.052 7 -16908200.99649  20385173.99649
  22358443.766 6 -15566800.102 6  -9389524.34847  22358436.68847
  21080244.914 7 -18583533.502 7 -12167641.83748  21080236.54748
  20651488.555 7 -15944566.009 7 -16627395.33049  20651483.41449
 24 11 23  0 13  0.0000000  0  9G02G07G13G14G15G17G19G22G30         
  23609732.03111   -601973.16311                
  22437258.141 6 -15033763.971 6 -10884657.69048  22437251.12148
  21140955.094 6 -11156070.017 6  -7638968.26348  21140948.25048
  20598936.938 7 -19630324.899 7 -15596895.49148  20598929.97748
  23327089.086 1  -1775757.092 1  -1287059.38246  23327084.29746
  20378371.188 7 -21698550.303 7 -16936090.23049  20378363.64149
  22340574.602 6 -15660704.858 6  -9462696.69647  22340566.82047
  21078999.852 7 -18590073.710 7 -12172738.05948  21078991.83648
  20656013.211 7 -15920788.619 7 -16608867.48649  20656008.07049
 24 11 23  0 13 30.0000000  0  9G02G07G13G14G15G17G19G22G30         
  23611386.953 1   -593277.271 1                
  22449857.023 6 -14967556.087 6 -10833067.19948  22449849.82848
  21137220.578 7 -11175696.671 7  -7654261.74048  21137213.09048
  20601015.102 7 -19619406.219 7 -15588387.41448  20601008.08248
  23318216.961 1  -1822373.163 1  -1323383.49246  23318214.28146
  20371663.969 7 -21733797.382 7 -16963555.43349  20371656.36349
  22322757.250 6 -15754334.203 6  -9535654.43647  22322748.70747
  21077795.383 7 -18596402.218 7 -12177669.33348  21077787.42648
  20660617.344 7 -15896593.621 7 -16590014.24749  20660611.96549
 24 11 23  0 14  0.0000000  0  9G02G07G13G14G15G17G19G22G30         
  23613136.93811                                
  22462519.063 6 -14901009.084 6 -10781212.42548  22462514.03948
  21133602.336 7 -11194711.898 7  -7669078.75548  21133594.49648
  20603131.266 7 -19608287.551 7 -15579723.50948  20603123.54348
  23309450.414 1  -1868433.735 1  -1359274.76546  23309448.73046
  20365060.977 7 -21768498.061 7 -16990594.87449  20365053.07849
  22304993.156 6 -15847684.394 6  -9608394.66647  22304984.67247
  21076631.539 6 -18602518.610 6 -12182435.32448  21076622.99648
  20665301.500 7 -15871978.960 7 -16570833.99149  20665296.12149
 24 11 23  0 14 30.0000000  0  9G02G07G13G14G15G17G19G22G30         
  23614986.02311   -574365.38211                
  22475241.516 6 -14834153.281 6 -10729117.06348  22475236.49248
  21130094.656 7 -11213144.779 7  -7683442.01448  21130086.81648
  20605278.328 7 -19596999.616 7 -15570927.68548  20605271.36748
  23300786.898 1  -1913967.454 1  -1394755.49746  23300783.57446
  20358555.883 7 -21802682.096 7 -17017231.71849  20358547.69149
  22287275.953 5 -15940783.422 5  -9680939.18747  22287269.05147
  21075502.453 7 -18608454.032 7 -12187060.28548  21075493.50048
  20670059.719 7 -15846974.047 7 -16551349.64349  20670054.45749
 24 11 23  0 15  0.0000000  0  9G02G07G13G14G15G17G19G22G30         
  23616928.922 1   -564152.431 1                
  22488027.805 6 -14766962.854 6 -10676760.90348  22488022.36748
  21126703.102 7 -11230968.637 7  -7697330.70248  21126695.43848
  20607463.719 7 -19585516.599 7 -15561979.86648  20607456.58248
  23292227.273 1  -1958946.865 1  -1429804.22046  23292224.82846
  20352153.602 7 -21836322.590 7 -17043445.03149  20352145.82049
  22269613.172 5 -16033602.568 5  -9753265.62947  22269605.85947
  21074411.555 6 -18614183.086 6 -12191524.45348  21074404.06648
  20674896.914 7 -15821551.900 7 -16531540.17049  20674891.59449
 24 11 23  0 15 30.0000000  0  9G02G07G13G14G15G17G19G22G30         
  23618969.406 3   -553433.028 3                
  22500875.977 6 -14699445.705 6 -10624150.19848  22500870.30548
  21123425.469 7 -11248190.308 7  -7710750.15348  21123418.03948
  20609684.680 6 -19573846.770 6 -15552886.46648  20609677.60248
  23283772.367 1  -2003378.081 1  -1464425.92946  23283769.86346
  20345854.695 7 -21869426.384 7 -17069240.15449  20345846.21149
  22252002.789 6 -16126147.831 6  -9825378.66647  22251995.94547
  21073359.109 6 -18619714.051 6 -12195834.26248  21073351.21148
  20679812.648 7 -15795719.671 7 -16511411.16249  20679807.15249
 24 11 23  0 16  0.0000000  0  9G02G07G13G14G15G17G19G22G30         
  23621104.352 2   -542207.610 2                
  22513786.539 6 -14631603.528 6 -10571286.22448  22513780.80948
  21120262.703 7 -11264810.495 7  -7723700.91448  21120255.50848
  20611940.727 6 -19561991.898 6 -15543648.87948  20611933.12148
  23275421.484 1  -2047261.313 1  -1498620.57046  23275418.21946
  20339656.898 7 -21901994.262 7 -17094617.68049  20339649.17649
  22234444.180 6 -16218418.040 6  -9897277.36847  22234437.39547
  21072344.734 7 -18625049.297 7 -12199991.56548  21072335.89848
  20684806.531 7 -15769477.896 7 -16490963.02349  20684801.03549
 24 11 23  0 16 30.0000000  0  9G02G07G13G14G15G17G19G22G30         
  23623335.734 1   -530475.247 1                
  22526758.109 6 -14563435.377 6 -10518168.23948  22526753.02748
  21117215.070 7 -11280827.426 7  -7736181.61348  21117207.69948
  20614231.773 6 -19549951.293 6 -15534266.55848  20614224.22748
  23267176.922 2  -2090593.840 2  -1532386.05046  23267171.42646
  20333561.516 7 -21934024.781 7 -17119576.47249  20333553.67649
  22216938.969 6 -16310409.477 6  -9968958.86047  22216932.00847
  21071365.492 6 -18630188.432 6 -12203996.05548  21071357.82848
  20689878.930 6 -15742824.791 6 -16470194.36549  20689873.55149
 24 11 23  0 17  0.0000000  0  9G02G07G13G14G15G17G19G22G30         
  23625663.750 1   -518235.853 1                
  22539791.719 6 -14494941.779 6 -10464796.65348  22539786.98848
  21114281.891 6 -11296240.575 6  -7748191.83248  21114274.63748
  20616557.766 6 -19537725.671 6 -15524740.08248  20616551.27348
  23259034.055 2  -2133374.713 2  -1565721.66846  23259032.13746
  20327568.867 7 -21965517.764 7 -17144116.42249  20327560.79349
  22199486.219 6 -16402120.526 6 -10040421.86447  22199479.08247
  21070425.328 7 -18635132.476 7 -12207848.51548  21070417.13748
  20695028.234 7 -15715759.950 7 -16449104.88349  20695023.32849
 24 11 23  0 17 30.0000000  0  9G02G07G13G14G15G17G19G22G30         
  23628090.625 2   -505489.003 2                
  22552887.438 6 -14426123.213 6 -10411171.83148  22552882.47348
  21111463.734 6 -11311049.237 6  -7759731.01048  21111456.89148
  20618919.523 6 -19525315.535 6 -15515069.81848  20618912.68048
  23250998.125 1  -2175602.545 1  -1598626.37346  23250996.38346
  20321678.078 7 -21996472.624 7 -17168237.04549  20321670.00449
  22182087.313 5 -16493549.041 5 -10111664.74047  22182080.46947
  21069521.414 6 -18639882.368 6 -12211549.70748  21069512.81348
  20700257.469 6 -15688282.758 6 -16427694.07549  20700252.68049
 24 11 23  0 18  0.0000000  0  9G02G07G13G14G15G17G19G22G30         
  23630614.500 3   -492234.942 3                
  22566045.742 6 -14356981.186 6 -10357294.97948  22566039.66048
  21108760.000 6 -11325254.036 6  -7770799.64848  21108753.09848
  20621315.727 6 -19512722.425 6 -15505256.97448  20621308.64848
  23243067.133 1  -2217277.314 1  -1631100.14846  23243064.86346
  20315889.609 7 -22026889.890 7 -17191938.77649  20315881.59449
  22164743.680 6 -16584693.540 6 -10182686.29947  22164735.89847
  21068653.844 6 -18644440.318 6 -12215101.32348  21068645.88748
  20705564.227 6 -15660393.719 6 -16405962.36349  20705559.26249
 24 11 23  0 18 30.0000000  0  9G02G07G13G14G15G17G19G22G30         
  23633232.586 2   -478474.811 2                
  22579264.734 6 -14287516.813 6 -10303166.94848  22579258.06648
  21106171.883 6 -11338855.320 6  -7781398.00448  21106165.03948
  20623747.344 7 -19499947.707 7 -15495302.61848  20623739.62148
  23235242.805 2  -2258398.428 2  -1663142.54346  23235239.48046
  20310203.750 7 -22056769.844 7 -17215221.81149  20310195.73449
  22147453.836 6 -16675553.251 6 -10253485.95547  22147445.46947
  21067823.375 7 -18648807.715 7 -12218504.44348  21067814.71548
  20710950.047 7 -15632093.122 7 -16383909.94849  20710944.55149
 24 11 23  0 19  0.0000000  0  9G02G07G13G14G15G17G19G22G30         
  23635948.000 2   -464207.651 2                
  22592545.148 6 -14217730.425 6 -10248787.98648  22592537.83648
  21103699.195 7 -11351852.133 7  -7791525.36848  21103691.88348
  20626212.320 7 -19486991.447 7 -15485206.82148  20626205.18448
  23227525.664 4  -2298964.563 4  -1694752.37646  23227520.05146
  20304620.117 6 -22086111.761 6 -17238085.60149  20304612.04349
  22130217.875 6 -16766125.756 6 -10324061.81047  22130210.32847
  21067028.055 6 -18652984.886 6 -12221759.33648  21067019.57048
  20716414.125 6 -15603379.909 6 -16361536.01049  20716408.45349
 24 11 23  0 19 30.0000000  0  9G02G07G13G14G15G17G19G22G30         
  23638756.719 1   -449433.252 1                
  22605885.820 6 -14147621.728 6 -10194157.89348  22605879.15248
  21101340.016 7 -11364243.567 7  -7801181.01048  21101333.28948
  20628712.047 7 -19473853.926 7 -15474969.75448  20628705.14548
  23219911.789 4  -2338974.249 4  -1725928.63546  23219906.82446
  20299139.344 7 -22114915.053 7 -17260529.68049  20299130.97749
  22113038.508 6 -16856407.764 6 -10394411.30647  22113030.66847
  21066269.469 6 -18656972.944 6 -12224866.86548  21066260.92648
  20721956.945 6 -15574253.404 6 -16338840.03649  20721951.15649
 24 11 23  0 20  0.0000000  0  9G02G07G13G14G15G17G19G22G30         
  23641666.578 1   -434147.522 1                
  22619288.180 6 -14077187.571 6 -10139274.20448  22619282.56648
  21099098.406 7 -11376025.724 7  -7810361.87848  21099091.73848
  20631247.672 7 -19460531.888 7 -15464588.94148  20631239.89148
  23212401.391 1  -2378422.732 1  -1756667.64446  23212399.82446
  20293761.242 7 -22143175.559 7 -17282550.80549  20293752.87549
  22095914.250 6 -16946394.199 6 -10464530.47348  22095906.35248
  21065546.820 7 -18660768.739 7 -12227824.58248  21065538.21948
  20727578.961 7 -15544709.316 7 -16315818.67149  20727572.99649
 24 11 23  0 20 30.0000000  0  9G02G07G13G14G15G17G19G22G30         
  23644671.383 2   -418353.783 2                
  22632751.898 5 -14006431.713 5 -10084139.81748  22632747.10948
  21096972.047 7 -11387201.037 7  -7819069.87948  21096965.37948
  20633817.039 7 -19447029.010 7 -15454067.19348  20633809.90248
  23205001.641 2  -2417311.921 2  -1786970.89546  23204999.54746
  20288486.367 7 -22170896.081 7 -17304151.14949  20288477.70749
  22078846.500 6 -17036085.910 6 -10534420.01548  22078838.60248
  21064860.055 7 -18664376.300 7 -12230635.62648  21064851.86348
  20733279.906 7 -15514750.321 7 -16292474.00649  20733274.11749
 24 11 23  0 21  0.0000000  0  9G02G07G13G14G15G17G19G22G30         
  23647774.516 2   -402051.861 2                
  22646277.367 5 -13935355.368 5 -10028755.70348  22646272.93048
  21094961.453 7 -11397769.768 7  -7827305.22848  21094954.02348
  20636421.109 7 -19433346.203 7 -15443405.23948  20636413.62148
  23197708.086 3  -2455641.233 3  -1816837.85746  23197705.87546
  20283313.906 7 -22198076.705 7 -17325330.80249  20283305.53949
  22061835.453 6 -17125481.317 6 -10604078.65948  22061826.96948
  21064208.992 7 -18667796.924 7 -12233301.00348  21064200.80148
  20739059.836 7 -15484376.374 7 -16268805.99649  20739054.39849
 24 11 23  0 21 30.0000000  0  9G02G07G13G14G15G17G19G22G30         
  23650973.164 4   -385243.087 4                
  22659863.828 6 -13863959.972 6  -9973122.99148  22659858.92248
  21093065.656 7 -11407733.113 7  -7835068.83948  21093058.28548
  20639058.273 7 -19419485.192 7 -15432604.44048  20639051.02048
  23190521.734 3  -2493410.891 3  -1846268.65546  23190518.05946
  20278244.258 7 -22224718.556 7 -17346090.63149  20278236.18449
  22044880.320 6 -17214579.602 6 -10673505.80248  22044872.07048
  21063593.805 7 -18671032.992 7 -12235822.55848  21063585.14548
  20744918.688 7 -15453588.282 7 -16244815.28049  20744912.89849
 24 11 23  0 22  0.0000000  0  9G02G07G13G14G15G17G19G22G30         
  23654267.680 4   -367927.301 4  -1213768.13656  23654260.95356
  22673511.383 6 -13792245.409 6  -9917241.53848  22673505.94548
  21091284.680 7 -11417089.874 7  -7842359.79448  21091277.48448
  20641730.250 7 -19405446.171 7 -15421664.93248  20641722.76248
  23183441.188 4  -2530619.705 4  -1875262.40746  23183438.27346
  20273276.680 7 -22250821.241 7 -17366430.33249  20273268.66449
  22027982.203 6 -17303378.507 6 -10742699.65848  22027974.36348
  21063012.648 7 -18674085.110 7 -12238200.77648  21063003.87148
  20750855.984 7 -15422385.251 7 -16220501.22949  20750851.13749
 24 11 23  0 22 30.0000000  0  9G02G07G13G14G15G17G19G22G30         
  23657658.898 2   -350103.425 2  -1199879.32045  23657653.81645
  22687218.977 6 -13720211.739 6  -9861111.45748  22687212.89548
  21089619.773 7 -11425839.347 7  -7849177.54048  21089612.63748
  20644435.602 7 -19391228.944 7 -15410586.55448  20644427.87948
  23176466.688 3  -2567265.851 3  -1903817.73446  23176464.65246
  20268411.859 7 -22276383.692 7 -17386349.07349  20268404.19549
  22011142.586 6 -17391875.182 6 -10811657.98748  22011133.86748
  21062466.813 6 -18676953.009 6 -12240435.43948  21062458.62148
  20756872.875 6 -15390766.151 6 -16195862.97549  20756867.55549
 24 11 23  0 23  0.0000000  0  9G02G07G13G14G15G17G19G22G30         
  23661145.180 1   -331770.576 1                
  22700987.602 6 -13647858.732 6  -9804732.54348  22700981.05148
  21088070.688 7 -11433980.300 7  -7855521.10948  21088063.43448
  20647175.414 7 -19376833.064 7 -15399368.97548  20647167.51648
  23169600.320 3  -2603347.364 3  -1931933.16746  23169598.63746
  20263651.094 7 -22301404.545 7 -17405845.78949  20263642.78549
  21994359.164 6 -17480066.720 6 -10880378.54147  21994351.26647
  21061955.516 7 -18679637.013 7 -12242526.82848  21061947.32448
  20762969.516 6 -15358729.659 6 -16170899.48749  20762964.02049
 24 11 23  0 23 30.0000000  0  9G02G07G13G14G15G17G19G22G30         
  23664732.578 2   -312929.286 2                
  22714815.867 6 -13575187.724 6  -9748105.85948  22714810.02048
  21086637.250 7 -11441513.363 7  -7861390.99848  21086629.82048
  20649948.078 7 -19362259.668 7 -15388013.07948  20649940.70748
  23162843.258 4  -2638863.951 4  -1959608.38747  23162839.46547
  20258992.398 7 -22325884.969 7 -17424921.39249  20258984.61749
  21977635.055 6 -17567951.710 6 -10948860.24348  21977627.03948
  21061480.164 7 -18682138.545 7 -12244476.02048  21061471.32848
  20769145.367 7 -15326276.066 7 -16145610.98249  20769139.52049
 24 11 23  0 24  0.0000000  0  9G02G07G13G14G15G17G19G22G30         
  23668415.617 3   -293580.054 3                
  22728705.375 6 -13502199.408 6  -9691231.91247  22728699.46947
  21085319.438 7 -11448438.504 7  -7866787.18648  21085311.59848
  20652755.219 7 -19347509.394 7 -15376519.34548  20652747.61348
  23156191.828 4  -2673815.203 4  -1986843.03647  23156188.38747
  20254437.266 7 -22349824.471 7 -17443575.49449  20254429.19149
  21960969.875 6 -17655528.232 6 -11017101.57748  21960961.80148
  21061037.625 7 -18684458.806 7 -12246283.97348  21061030.37148
  20775400.164 7 -15293405.105 7 -16119997.24949  20775394.37549
 24 11 23  0 24 30.0000000  0  9G02G07G13G14G15G17G19G22G30         
  23672195.680 4   -273723.351 4                
  22742654.789 5 -13428895.172 5  -9634111.80048  22742648.88348
  21084117.250 7 -11454755.752 7  -7871709.67948  21084109.35248
  20655595.648 7 -19332583.327 7 -15364888.63548  20655587.98448
  23149648.484 4  -2708200.652 4  -2013636.79147  23149644.86747
  20249984.133 7 -22373223.799 7 -17461808.68549  20249976.00049
  21944362.992 6 -17742795.236 6 -11085101.73548  21944355.32848
  21060630.609 7 -18686599.214 7 -12247951.80148  21060622.41848
  20781734.617 7 -15260117.068 7 -16094058.53149  20781729.06349
 24 11 23  0 25  0.0000000  0  9G02G07G13G14G15G17G19G22G30         
  23676069.703 4   -253358.497 4                
  22756664.672 6 -13355274.432 6  -9576745.04448  22756658.06348
  21083030.828 7 -11460464.094 7  -7876157.71148  21083022.81348
  20658469.117 7 -19317480.987 7 -15353120.56948  20658462.03948
  23143212.969 4  -2742018.499 4  -2039988.27246  23143208.64846
  20245634.250 7 -22396081.881 7 -17479620.12249  20245626.41049
  21927816.781 6 -17829749.447 6 -11152858.16648  21927808.70748
  21060257.992 7 -18688559.731 7 -12249479.45248  21060249.09848
  20788149.008 7 -15226410.578 7 -16067793.74349  20788143.57049
 24 11 23  0 25 30.0000000  0  9G02G07G13G14G15G17G19G22G30         
  23680041.398 4   -232485.432 4  -1114541.54855  23680035.08255
  22770733.914 6 -13281337.556 6  -9519131.97148  22770727.24648
  21082060.648 7 -11465563.566 7  -7880131.29148  21082052.98448
  20661376.539 7 -19302202.824 7 -15341215.50348  20661369.05148
  23136884.883 3  -2775268.371 3  -2065897.12447  23136881.61747
  20241387.672 7 -22418398.527 7 -17497009.66949  20241379.65649
  21911329.602 6 -17916388.788 6 -11220369.23748  21911321.58648
  21059918.578 7 -18690341.077 7 -12250867.47548  21059910.27048
  20794642.602 7 -15192285.367 7 -16041202.68249  20794637.52049
 24 11 23  0 26  0.0000000  0  9G02G07G13G14G15G17G19G22G30         
  23684109.133 3   -211104.016 3  -1097880.70545  23684104.28545
  22784863.711 6 -13207085.398 6  -9461273.19548  22784858.03948
  21081206.188 7 -11470054.210 7  -7883630.46348  21081197.87948
  20664317.148 7 -19286749.234 7 -15329173.74048  20664309.77748
  23130667.500 4  -2807948.562 4  -2091362.13247  23130663.76647
  20237244.516 7 -22440173.101 7 -17513976.82149  20237235.79749
  21894902.953 6 -18002711.105 6 -11287633.28148  21894895.11348
  21059614.164 7 -18691944.094 7 -12252116.55548  21059605.32848
  20801216.367 7 -15157741.002 7 -16014285.00349  20801211.22749
 24 11 23  0 26 30.0000000  0  9G02G07G13G14G15G17G19G22G30         
  23688274.977 3   -189215.990 3  -1080825.02045  23688269.59845
  22799052.961 5 -13132520.025 5  -9403170.37848  22799047.87948
  21080466.984 7 -11473937.291 7  -7886656.22048  21080458.96948
  20667290.648 7 -19271122.297 7 -15316996.89848  20667283.45348
  23124555.906 4  -2840060.114 4  -2116384.05647  23124553.16847
  20233203.320 7 -22461408.016 7 -17530523.46449  20233195.01249
  21878536.695 6 -18088716.289 6 -11354650.20948  21878528.62148
  21059342.039 6 -18693370.681 6 -12253228.16148  21059334.14148
  20807869.523 7 -15122778.814 7 -15987041.76049  20807864.55949
 24 11 23  0 27  0.0000000  0  9G02G07G13G14G15G17G19G22G30         
  23692537.094 1   -166821.237 1  -1063374.43745  23692531.95345
  22813302.055 5 -13057641.777 5  -9344823.75248  22813296.67648
  21079843.492 7 -11477212.356 7  -7889208.18748  21079836.12148
  20670297.484 7 -19255321.885 7 -15304684.86548  20670290.23048
  23118554.039 4  -2871602.117 4  -2140962.13347  23118550.07047
  20229265.523 7 -22482102.536 7 -17546649.01649  20229257.03949
  21862230.852 6 -18174402.171 6 -11421418.30947  21862222.42647
  21059104.180 6 -18694622.256 6 -12254203.41248  21059096.04748
  20814601.672 7 -15087397.948 7 -15959472.26749  20814596.82449
 24 11 23  0 27 30.0000000  0  9G02G07G13G14G15G17G19G22G30         
  23696893.477 1   -143918.809 1  -1045528.32445  23696890.91445
  22827610.641 5 -12982450.310 5  -9286233.08448  22827605.20348
  21079335.688 6 -11479878.297 6  -7891285.51648  21079329.07848
  20673337.250 7 -19239347.408 7 -15292237.21548  20673330.05548
  23112660.234 5  -2902572.427 5  -2165094.77047  23112656.61747
  20225430.320 7 -22502255.662 7 -17562352.70349  20225421.83649
  21845986.484 6 -18259765.347 6 -11487934.95848  21845978.41048
  21058899.492 7 -18695698.206 7 -12255041.80448  21058891.06648
  20821415.234 7 -15051597.037 7 -15931575.45949  20821409.27049
 24 11 23  0 28  0.0000000  0  9G02G07G13G14G15G17G19G22G30         
  23701348.586 2   -120508.397 2  -1027286.27845  23701345.61345
  22841978.891 5 -12906945.617 5  -9227398.29948  22841973.39548
  21078944.742 7 -11481934.735 7  -7892887.90448  21078937.25448
  20676410.266 7 -19223198.971 7 -15279654.00348  20676403.42248
  23106873.836 3  -2932970.104 3  -2188781.17646  23106871.39146
  20221698.664 7 -22521866.366 7 -17577633.72249  20221689.94549
  21829804.188 6 -18344803.140 6 -11554198.07548  21829796.17248
  21058728.117 7 -18696598.691 7 -12255743.45748  21058719.51648
  20828307.828 7 -15015375.556 7 -15903350.94049  20828301.98049
 24 11 23  0 28 30.0000000  0  9G02G07G13G14G15G17G19G22G30         
  23705900.883 2    -96592.268 2  -1008650.17445  23705895.80145
  22856405.758 5 -12831130.426 5  -9168321.56648  22856400.02748
  21078668.992 7 -11483383.479 7  -7894016.77348  21078662.03148
  20679515.805 7 -19206878.906 7 -15266937.06148  20679508.66848
  23101199.172 4  -2962796.599 4  -2212022.53747  23101195.61347
  20218069.117 7 -22540937.510 7 -17592494.30949  20218060.86749
  21813683.859 6 -18429516.302 6 -11620208.25648  21813676.48848
  21058589.016 7 -18697326.776 7 -12256310.78448  21058581.11748
  20835279.859 7 -14978735.119 7 -15874799.94949  20835275.07049
 24 11 23  0 29  0.0000000  0  9G02G07G13G14G15G17G19G22G30         
  23710546.953 2    -72170.891 2   -989620.30445  23710542.16445
  22870891.469 5 -12755005.792 5  -9109003.72448  22870886.38748
  21078509.172 7 -11484224.781 7  -7894672.31048  21078501.74248
  20682654.211 7 -19190387.647 7 -15254086.69748  20682646.72348
  23095632.336 4  -2992050.995 4  -2234818.07747  23095628.13347
  20214542.328 7 -22559469.149 7 -17606934.50149  20214534.31349
  21797626.117 6 -18513902.682 6 -11685963.77648  21797618.51248
  21058483.508 7 -18697883.359 7 -12256744.47448  21058474.67248
  20842332.086 7 -14941675.462 7 -15845922.29449  20842326.82449
 24 11 23  0 29 30.0000000  0  9G02G07G13G14G15G17G19G22G30         
  23715291.297 3    -47244.650 3   -970197.27745  23715284.92245
  22885436.852 6 -12678572.878 6  -9049445.66848  22885431.35548
  21078464.008 7 -11484459.487 7  -7894855.18148  21078456.93048
  20685824.852 7 -19173726.352 7 -15241103.83548  20685817.83248
  23090175.719 4  -3020733.620 4  -2257168.07747  23090170.45747
  20211118.586 7 -22577461.625 7 -17620954.57849  20211110.21949
  21781630.313 6 -18597960.942 6 -11751463.63148  21781622.00448
  21058410.164 7 -18698269.983 7 -12257045.71248  21058401.62148
  20849464.633 7 -14904197.163 7 -15816718.43549  20849458.66849
 24 11 23  0 30  0.0000000  0  9G02G07G13G14G15G17G19G22G30         
  23720130.188 2    -21812.911 2                
  22900040.266 6 -12601831.120 6  -8989646.97148  22900034.88748
  21078535.234 7 -11484086.368 7  -7894564.42248  21078527.80548
  20689027.438 7 -19156893.974 7 -15227987.66648  20689020.53548
  23084826.266 4  -3048842.327 4  -2279070.89147  23084821.77047
  20207797.508 7 -22594914.324 7 -17634554.04449  20207789.37549
  21765697.078 6 -18681687.881 6 -11816705.30048  21765688.82848
  21058368.781 7 -18698486.051 7 -12257214.05148  21058360.18048
  20856676.258 7 -14866298.476 7 -15787187.00349  20856670.46949
 24 11 23  0 30 30.0000000  0  9G02G07G13G14G15G17G19G22G30         
  23725064.773 1      4124.154 1                
  22914703.000 6 -12524781.226 6  -8929608.16448  22914697.73848
  21078721.805 7 -11483105.543 7  -7893800.11748  21078714.37548
  20692263.391 7 -19139890.974 7 -15214738.55748  20692255.90248
  23079585.977 3  -3076376.541 3  -2300526.05847  23079582.41847
  20204578.734 7 -22611827.160 7 -17647732.83549  20204570.89549
  21749827.680 6 -18765081.575 6 -11881687.29448  21749819.78148
  21058360.359 7 -18698532.147 7 -12257249.94448  21058351.40648
  20863967.789 7 -14827979.306 7 -15757327.92749  20863962.35249
 24 11 23  0 31  0.0000000  0  9G02G07G13G14G15G17G19G22G30         
  23730098.063 2     30566.940 2                
  22929423.844 5 -12447423.244 5  -8869329.31248  22929416.76648
  21079024.375 7 -11481516.553 7  -7892561.91448  21079017.06348
  20695531.477 7 -19122717.017 7 -15201356.21148  20695523.69548
  23074455.047 2  -3103335.076 2  -2321532.61347  23074452.01647
  20201463.914 7 -22628199.319 7 -17660490.31949  20201455.48849
  21734023.008 6 -18848139.564 6 -11946407.70348  21734013.76248
  21058383.344 7 -18698408.730 7 -12257153.73748  21058375.03548
  20871340.055 7 -14789238.739 7 -15727140.48249  20871334.38349
 24 11 23  0 31 30.0000000  0  9G02G07G13G14G15G17G19G22G30         
  23735224.773 1     57514.195 1                
  22944201.773 5 -12369758.641 5  -8808811.51248  22944198.03948
  21079442.383 6 -11479320.218 6  -7890850.45648  21079435.01248
  20698831.922 7 -19105373.371 7 -15187841.62748  20698824.19948
  23069434.688 4  -3129718.206 4  -2342090.81447  23069431.48047
  20198450.844 7 -22644031.942 7 -17672827.39049  20198442.24249
  21718281.406 6 -18930860.833 6 -12010865.72348  21718272.27748
  21058439.320 7 -18698117.304 7 -12256926.60548  21058430.30948
  20878792.445 7 -14750077.434 7 -15696625.19049  20878787.00849
 24 11 23  0 32  0.0000000  0  8G07G13G14G15G17G19G22G30            
  22959042.344 5 -12291782.786 5  -8748051.16748  22959035.26648
  21079976.930 7 -11476511.526 7  -7888661.84748  21079969.26648
  20702165.023 6 -19087855.032 6 -15174190.93648  20702158.41448
  23064524.219 4  -3155520.102 4  -2362196.09547  23064520.77747
  20195541.133 7 -22659319.986 7 -17684740.10449  20195533.05949
  21702605.930 6 -19013238.145 6 -12075055.72248  21702596.09848
  21058527.133 7 -18697653.334 7 -12256565.02348  21058518.53148
  20886325.125 7 -14710489.893 7 -15665777.76049  20886320.27749
 24 11 23  0 32 30.0000000  0  8G07G13G14G15G17G19G22G30            
  22973935.906 5 -12213509.137 5  -8687058.75448  22973930.76648
  21080625.500 7 -11473103.155 7  -7886005.95248  21080617.66048
  20705529.938 6 -19070174.774 6 -15160414.07948  20705522.15648
  23059723.523 4  -3180752.516 4  -2381857.62147  23059719.32047
  20192732.633 7 -22674076.185 7 -17696238.39149  20192725.02749
  21686993.125 6 -19095282.002 6 -12138985.90248  21686983.70348
  21058645.641 7 -18697030.167 7 -12256079.38848  21058637.03948
  20893937.031 7 -14670488.390 7 -15634607.76249  20893932.24249
 24 11 23  0 33  0.0000000  0  8G07G13G14G15G17G19G22G30            
  22988888.797 5 -12134930.498 5  -8625828.69247  22988883.41847
  21081390.008 7 -11469087.012 7  -7882876.48548  21081381.93448
  20708926.164 7 -19052324.768 7 -15146504.94048  20708918.50048
  23055030.891 3  -3205406.886 3  -2401068.72447  23055027.85947
  20190027.703 7 -22688292.340 7 -17707315.86849  20190019.51249
  21671445.086 6 -19176981.986 6 -12202648.12148  21671436.83648
  21058796.313 7 -18696240.073 7 -12255463.67748  21058787.65248
  20901629.523 7 -14630064.487 7 -15603108.60649  20901624.26249
 24 11 23  0 33 30.0000000  0  8G07G13G14G15G17G19G22G30            
  23003898.422 4 -12056047.593 4  -8564361.53747  23003894.51247
  21082269.281 7 -11464463.833 7  -7879274.00948  21082261.55948
  20712354.938 6 -19034305.910 6 -15132464.23648  20712347.50848
  23050448.742 3  -3229483.306 3  -2419829.50947  23050446.12147
  20187425.578 7 -22701969.225 7 -17717973.13249  20187417.15249
  21655963.594 6 -19258337.149 6 -12266041.65448  21655955.75448
  21058977.703 7 -18695284.540 7 -12254719.04648  21058969.21948
  20909402.719 7 -14589218.650 7 -15571280.70249  20909397.34049
 24 11 23  0 34  0.0000000  0  8G07G13G14G15G17G19G22G30            
  23018968.164 5 -11976862.350 5  -8502658.79247  23018962.37547
  21083264.227 7 -11459235.181 7  -7875199.71648  21083256.68048
  20715816.258 6 -19016119.335 6 -15118292.84048  20715808.65248
  23045977.203 3  -3252982.346 3  -2438140.36347  23045974.05547
  20184925.195 7 -22715107.917 7 -17728211.02849  20184917.23849
  21640547.766 6 -19339346.307 6 -12329165.57348  21640540.10248
  21059190.414 6 -18694165.166 6 -12253846.75848  21059182.34048
  20917255.805 7 -14547951.592 7 -15539124.56049  20917249.84049
 24 11 23  0 34 30.0000000  0  8G07G13G14G15G17G19G22G30            
  23034093.211 5 -11897378.414 5  -8440723.30747  23034086.36747
  21084374.281 7 -11453404.070 7  -7870655.98748  21084366.44148
  20719307.852 7 -18997768.313 7 -15103993.30948  20719300.65648
  23041614.648 4  -3275906.325 4  -2456003.11847  23041611.32447
  20182527.141 7 -22727711.846 7 -17738032.21249  20182518.59849
  21625198.305 6 -19420010.682 6 -12392020.83348  21625190.58248
  21059434.586 6 -18692885.657 6 -12252849.67548  21059425.63348
  20925188.406 7 -14506266.103 7 -15506642.36449  20925182.50049
 24 11 23  0 35  0.0000000  0  8G07G13G14G15G17G19G22G30            
  23049277.609 5 -11817592.804 5  -8378552.82647  23049269.88747
  21085598.992 7 -11446967.242 7  -7865640.25948  21085591.44548
  20722831.555 7 -18979249.320 7 -15089562.88848  20722824.59448
  23037362.398 4  -3298251.115 4  -2473414.52347  23037359.19147
  20180230.703 7 -22739777.659 7 -17747434.10049  20180222.68849
  21609915.688 6 -19500324.535 6 -12454602.94348  21609906.50048
  21059708.984 7 -18691442.856 7 -12251725.35548  21059700.20748
  20933200.719 7 -14464158.249 7 -15473831.05349  20933195.63749
 24 11 23  0 35 30.0000000  0  9G02G07G13G14G15G17G19G22G30         
  23779692.94511    233034.23311                
  23064515.695 5 -11737510.362 5  -8316151.02147  23064510.37547
  21086938.070 7 -11439929.074 7  -7860155.95748  21086930.75848
  20726387.930 7 -18960566.760 7 -15075005.01048  20726379.56348
  23033220.750 4  -3320020.206 4  -2490377.37647  23033216.43047
  20178034.953 7 -22751309.351 7 -17756419.78449  20178027.40649
  21594697.938 6 -19580290.295 6 -12516913.80248  21594689.51248
  21060013.039 7 -18689841.704 7 -12250477.65548  21060005.19948
  20941293.789 7 -14421631.973 7 -15440693.71049  20941287.88349
 24 11 23  0 36  0.0000000  0  9G02G07G13G14G15G17G19G22G30         
  23785681.711 3    264497.028 3                
  23079811.570 4 -11657129.904 4  -8253516.96347  23079806.48847
  21088392.102 7 -11432287.403 7  -7854201.39048  21088385.14148
  20729974.008 7 -18941718.630 7 -15060318.12548  20729966.69548
  23029188.086 4  -3341210.970 4  -2506889.57147  23029184.05947
  20175943.352 7 -22762305.607 7 -17764988.23949  20175934.57449
  21579547.734 6 -19659903.430 6 -12578949.90448  21579539.07448
  21060348.211 7 -18688080.763 7 -12249105.45648  21060339.78548
  20949466.086 7 -14378684.998 7 -15407228.54849  20949460.59049
 24 11 23  0 36 30.0000000  0  9G02G07G13G14G15G17G19G22G30         
  23791764.273 3    296459.396 3                
  23095164.688 5 -11576451.710 5  -8190650.87547  23095159.66447
  21089961.336 7 -11424042.277 7  -7847776.61048  21089953.55548
  20733591.570 7 -18922704.705 7 -15045502.06548  20733584.60948
  23025265.539 5  -3361822.942 5  -2522950.79447  23025262.03947
  20173953.430 7 -22772765.813 7 -17773139.00049  20173944.71149
  21564465.305 6 -19739161.785 6 -12640709.57048  21564456.58648
  21060713.898 7 -18686160.230 7 -12247608.89548  21060704.88748
  20957719.055 7 -14335316.658 7 -15373435.03949  20957713.20749
 24 11 23  0 37  0.0000000  0  9G02G07G13G14G15G17G19G22G30         
  23797941.430 3    328920.891 3                
  23110573.102 5 -11495476.353 5  -8127553.23447  23110568.19547
  21091645.297 7 -11415194.180 7  -7840881.97348  21091637.16448
  20737241.914 7 -18903525.250 7 -15030557.00748  20737234.36748
  23021453.359 5  -3381855.498 5  -2538560.48347  23021450.21147
  20172064.266 7 -22782690.251 7 -17780872.27949  20172055.95749
  21549450.680 6 -19818063.618 6 -12702191.40248  21549442.54748
  21061109.922 7 -18684080.343 7 -12245988.16048  21061100.79348
  20966051.391 7 -14291526.920 7 -15339313.16549  20966045.71949
 24 11 23  0 37 30.0000000  0  9G02G07G13G14G15G17G19G22G30         
  23804212.672 2    361881.848 2                
  23126038.508 5 -11414203.621 5  -8064223.84547  23126033.60247
  21093443.336 6 -11405742.594 6  -7833517.09548  21093435.84848
  20740922.797 6 -18884179.415 6 -15015482.30248  20740915.48448
  23017752.164 5  -3401307.401 5  -2553717.74247  23017748.84047
  20170277.938 7 -22792078.107 7 -17788187.43549  20170269.80549
  21534505.250 6 -19896605.954 6 -12763393.12248  21534496.23848
  21061535.664 7 -18681840.931 7 -12244243.12248  21061527.53148
  20974465.266 7 -14247314.616 7 -15304862.03549  20974459.30149
 24 11 23  0 38  0.0000000  0  9G02G07G13G14G15G17G19G22G30         
  23810580.172 2    395340.114 2   -728481.42755  23810571.62955
  23141560.094 5 -11332635.914 5  -8000664.66347  23141555.42247
  21095356.008 7 -11395689.452 7  -7825683.46848  21095348.87148
  20744635.539 6 -18864669.145 6 -15000279.46848  20744628.57848
  23014160.672 5  -3420179.802 5  -2568423.40747  23014156.93847
  20168593.070 7 -22800931.723 7 -17795086.30549  20168584.46949
  21519627.008 6 -19974788.794 6 -12824314.72248  21519618.40648
  21061991.984 7 -18679444.315 7 -12242375.60048  21061983.38348
  20982958.680 7 -14202681.337 7 -15270082.86249  20982953.30149
 24 11 23  0 38 30.0000000  0  9G02G07G13G14G15G17G19G22G30         
  23817040.898 3    429294.294 3   -702023.50945  23817033.17645
  23157138.977 5 -11250775.602 5  -7936877.44647  23157133.24647
  21097384.063 7 -11385036.338 7  -7817382.34548  21097375.98848
  20748379.141 6 -18844995.704 6 -14984949.48648  20748371.71148
  23010679.367 5  -3438474.041 5  -2582678.54547  23010675.51647
  20167009.500 7 -22809253.035 7 -17801570.41549  20167000.84049
  21504818.055 6 -20052611.285 6 -12884955.52948  21504808.86748
  21062477.523 7 -18676892.414 7 -12240387.05148  21062468.51248
  20991532.094 7 -14157628.188 7 -15234976.51849  20991526.42249
 24 11 23  0 39  0.0000000  0 10G02G06G07G13G14G15G17G19G22G30      
  23823596.570 2    463743.238 2   -675180.03345  23823589.84445
  25088211.16411                                
  23172771.039 5 -11168623.718 5  -7872863.04947  23172766.19147
  21099524.883 7 -11373784.324 7  -7808614.54348  21099517.51248
  20752154.094 6 -18825159.732 6 -14969492.86048  20752146.72348
  23007308.133 5  -3456190.058 5  -2596483.15247  23007304.10547
  20165527.711 7 -22817042.423 7 -17807640.00949  20165518.58249
  21490077.555 6 -20130072.111 6 -12945314.51148  21490068.77748
  21062992.305 6 -18674186.143 6 -12238278.24348  21062984.23048
  21000184.938 7 -14112155.455 7 -15199543.21349  21000179.50049
 24 11 23  0 39 30.0000000  0 10G02G06G07G13G14G15G17G19G22G30      
  23830247.164 2    498688.004 2                
  25069277.14111                    206167.43255  25069279.55955
  23188459.695 5 -11086179.312 5  -7808620.68947  23188454.96547
  21101780.016 6 -11361932.288 6  -7799379.19148  21101772.93848
  20755960.195 6 -18805159.822 6 -14953908.48848  20755952.70748
  23004047.578 5  -3473325.852 5  -2609835.67447  23004043.08247
  20164146.414 7 -22824298.642 7 -17813294.15949  20164138.10549
  21475407.180 6 -20207167.798 6 -13005388.96148  21475397.64148
  21063536.883 7 -18671324.698 7 -12236048.51148  21063528.39848
  21008918.563 7 -14066261.568 7 -15163781.74549  21008912.94949
 24 11 23  0 40  0.0000000  0 10G02G06G07G13G14G15G17G19G22G30      
  23836988.031 2    534120.613 2   -642429.42755  23836979.48855
  25050314.66411    131605.07911    128523.15955  25050318.60555
  23204202.547 5 -11003450.849 5  -7744156.98447  23204197.40647
  21104147.922 7 -11349488.316 7  -7789682.58448  21104140.66848
  20759795.633 6 -18785003.666 6 -14938202.36548  20759788.26248
  23000895.555 5  -3489888.939 5  -2622741.91848  23000891.76248
  20162865.164 7 -22831029.959 7 -17818539.30749  20162857.14849
  21460803.742 6 -20283904.021 6 -13065183.32248  21460794.78948
  21064109.633 7 -18668316.192 7 -12233704.18748  21064100.44548
  21017731.055 7 -14019953.881 7 -15127697.85049  21017725.03149
 24 11 23  0 40 30.0000000  0 10G02G06G07G13G14G15G17G19G22G30      
  23843827.602 2    570059.899 2   -614424.73045  23843820.11345
  25031328.99211                     50775.14255  25031331.46955
  23220002.945 5 -10920419.437 5  -7679457.22147  23219998.03947
  21106631.914 6 -11336433.300 6  -7779509.81548  21106625.12948
  20763664.438 6 -18764671.605 6 -14922359.18548  20763657.12548
  22997855.773 5  -3505859.157 5  -2635186.14448  22997852.15648
  20161687.641 7 -22837216.934 7 -17823360.27849  20161679.50849
  21446274.141 6 -20360259.226 6 -13124680.78748  21446264.71948
  21064713.484 7 -18665141.222 7 -12231230.14748  21064704.59048
  21026625.922 7 -13973212.652 7 -15091276.13249  21026619.72349
 24 11 23  0 41  0.0000000  0 10G02G06G07G13G14G15G17G19G22G30      
  23850757.648 3    606479.568 3   -586045.69445  23850751.03945
  25012313.39811    -68105.84911    -27094.69255  25012313.59055
  23235856.078 5 -10837111.867 5  -7614542.27247  23235850.87547
  21109228.180 6 -11322793.623 6  -7768881.49948  21109220.63348
  20767562.156 6 -18744189.857 6 -14906399.35748  20767554.60948
  22994924.703 5  -3521262.251 5  -2647188.46448  22994921.73048
  20160609.266 7 -22842885.664 7 -17827777.42149  20160600.66449
  21431811.703 6 -20436257.561 6 -13183900.16648  21431803.16048
  21065344.461 7 -18661826.632 7 -12228647.32248  21065335.50848
  21035596.867 7 -13926063.925 7 -15054536.88449  21035590.90249
 24 11 23  0 41 30.0000000  0 10G02G06G07G13G14G15G17G19G22G30      
  23857782.133 3    643397.463 3   -557278.46045  23857776.16845
  24993270.53911   -168174.50611   -105069.78956  24993271.43456
  23251765.117 4 -10753510.683 4  -7549398.55147  23251760.38747
  21111938.453 7 -11308551.279 7  -7757783.54948  21111930.61348
  20771491.844 6 -18723539.992 6 -14890308.53148  20771483.94548
  22992104.586 5  -3536079.884 5  -2658734.58748  22992101.84848
  20159632.273 7 -22848018.359 7 -17831776.89149  20159624.02349
  21417421.172 6 -20511878.701 6 -13242825.64148  21417412.86348
  21066005.047 7 -18658354.190 7 -12225941.47848  21065996.27048
  21044648.789 6 -13878489.119 6 -15017465.62649  21044644.70349
 24 11 23  0 42  0.0000000  0 10G02G06G07G13G14G15G17G19G22G30      
  23864901.563 4    680807.012 4   -528128.11745  23864894.66045
  24974199.313 1   -268381.125 1   -183152.36246  24974203.25446
  23267728.094 4 -10669622.411 4  -7484031.12247  23267723.83247
  21114762.008 6 -11293712.793 6  -7746221.09848  21114754.34448
  20775451.656 6 -18702727.890 6 -14874091.27448  20775444.75448
  22989395.742 5  -3550317.789 5  -2669829.01548  22989392.53548
  20158756.234 7 -22852621.521 7 -17835363.72749  20158748.16049
  21403102.281 6 -20587126.737 6 -13301460.37348  21403093.68048
  21066694.789 7 -18654730.430 7 -12223117.71648  21066685.77748
  21053783.367 6 -13830493.944 6 -14980066.79749  21053778.57849
 24 11 23  0 42 30.0000000  0 10G02G06G07G13G14G15G17G19G22G30      
  23872113.680 4    718706.161 4   -498596.17445  23872105.95745
  24955104.781 1   -368724.406 1   -261341.51746  24955107.02346
  23283745.352 3 -10585449.406 3  -7418441.79247  23283741.32447
  21117698.211 6 -11278280.487 6  -7734195.91448  21117691.25048
  20779443.016 6 -18681755.110 6 -14857748.83148  20779435.46948
  22986795.906 5  -3563977.097 5  -2680472.57247  22986792.58247
  20157980.656 7 -22856697.251 7 -17838539.57249  20157972.64149
  21388854.086 6 -20662001.485 6 -13359804.23548  21388845.13348
  21067412.211 7 -18650957.245 7 -12220177.53448  21067403.78548
  21062996.234 6 -13782079.911 6 -14942341.58749  21062990.85549
 24 11 23  0 43  0.0000000  0 10G02G06G07G13G14G15G17G19G22G30      
  23879420.055 4    757101.217 4   -468677.90145  23879411.92245
  24935985.18011                   -339629.69655  24935987.18855
  23299818.422 4 -10500985.804 4  -7352626.02547  23299813.21947
  21120749.531 6 -11262247.695 6  -7721702.82548  21120742.04348
  20783465.891 6 -18660614.995 6 -14841275.97048  20783458.57848
  22984309.320 5  -3577050.657 5  -2690659.69348  22984304.23848
  20157307.117 7 -22860238.794 7 -17841299.16849  20157298.39849
  21374678.742 6 -20736494.391 6 -13417850.54748  21374669.32048
  21068160.141 7 -18647028.310 7 -12217115.99648  21068151.36348
  21072289.969 6 -13733240.227 6 -14904284.69349  21072284.23849
 24 11 23  0 43 30.0000000  0  9G02G07G13G14G15G17G19G22G30         
  23886816.680 3    795977.897 3   -438384.30545  23886810.65645
  23315944.273 4 -10416245.763 4  -7286594.85347  23315939.07047
  21123912.367 6 -11245628.827 6  -7708753.05048  21123904.17648
  20787518.516 7 -18639320.980 7 -14824683.18948  20787510.44148
  22981928.563 5  -3589552.255 5  -2700401.15247  22981925.41447
  20156731.680 7 -22863260.477 7 -17843653.68749  20156723.48849
  21360573.781 6 -20810616.483 6 -13475607.91648  21360564.35948
  21068934.797 6 -18642957.773 6 -12213944.08848  21068925.72748
  21081662.414 6 -13683988.272 6 -14865906.55149  21081656.91849
 24 11 23  0 44  0.0000000  0  9G02G07G13G14G15G17G19G22G30         
  23894307.688 2    835342.101 2   -407710.73445  23894301.37145
  23332124.820 5 -10331223.785 5  -7220344.04047  23332117.97747
  21127186.984 7 -11228417.862 7  -7695341.89148  21127180.14148
  20791600.563 6 -18617866.430 6 -14807965.31348  20791593.19148
  22979661.297 5  -3601474.790 5  -2709691.38348  22979656.74248
  20156257.000 7 -22865755.992 7 -17845598.19049  20156248.39849
  21346540.852 6 -20884359.614 6 -13533069.99448  21346531.60548
  21069737.516 7 -18638739.235 7 -12210656.86848  21069728.85548
  21091114.508 6 -13634317.333 6 -14827201.93249  21091109.30549
 24 11 23  0 44 30.0000000  0  9G02G07G13G14G15G17G19G22G30         
  23901892.859 4    875192.813 4   -376658.22045  23901884.96145
  23348355.734 3 -10245920.847 3  -7153874.28047  23348350.82847
  21130574.523 6 -11210616.152 6  -7681470.40348  21130568.14848
  20795713.891 6 -18596252.224 6 -14791123.04448  20795706.28548
  22977501.438 4  -3612819.065 4  -2718531.05448  22977498.23048
  20155881.664 7 -22867726.836 7 -17847133.86749  20155873.23849
  21332579.617 6 -20957722.840 6 -13590236.02848  21332571.48448
  21070568.031 7 -18634374.054 7 -12207255.39548  21070559.60548
  21100646.836 6 -13584228.328 6 -14788171.53349  21100640.81349
 24 11 23  0 45  0.0000000  0  9G02G07G13G14G15G17G19G22G30         
  23909566.836 2    915529.457 2   -345226.94545  23909561.93045
  23364642.211 4 -10160337.935 4  -7087186.36447  23364637.07047
  21134074.672 6 -11192224.297 6  -7667139.07248  21134067.06648
  20799856.961 6 -18574478.041 6 -14774156.11748  20799849.23848
  22975452.953 4  -3623584.691 4  -2726919.81648  22975449.68848
  20155606.906 7 -22869172.902 7 -17848260.62449  20155598.30549
  21318692.742 6 -21030704.303 6 -13647104.59848  21318683.14548
  21071426.453 7 -18629862.337 7 -12203739.69648  21071417.50048
  21110257.977 6 -13533720.913 6 -14748815.11349  21110251.89549
 24 11 23  0 45 30.0000000  0  9G02G07G13G14G15G17G19G22G30         
  23917335.180 1    956350.859 1                
  23380980.445 3 -10074476.321 3  -7020281.24547  23380975.65647
  21137686.102 6 -11173243.528 6  -7652348.83048  21137678.78948
  20804030.938 7 -18552544.331 7 -14757064.85648  20804023.33248
  22973515.711 4  -3633772.114 4  -2734858.05448  22973511.21548
  20155430.875 7 -22870095.652 7 -17848979.58349  20155422.27349
  21304876.680 6 -21103302.466 6 -13703674.48448  21304868.25448
  21072312.672 7 -18625205.050 7 -12200110.58348  21072303.42648
  21119947.992 6 -13482795.506 6 -14709132.97649  21119942.61349
 24 11 23  0 46  0.0000000  0  9G02G07G13G14G15G17G19G22G30         
  23925195.109 1    997654.441 1                
  23397372.695 4  -9988338.382 4  -6953160.85647  23397368.55147
  21141409.773 7 -11153675.939 7  -7637101.34348  21141402.63748
  20808234.586 6 -18530452.621 6 -14739850.49948  20808227.44948
  22971686.695 5  -3643383.026 5  -2742347.00748  22971681.49248
  20155354.641 7 -22870496.907 7 -17849292.19149  20155345.92249
  21291135.469 6 -21175517.126 6 -13759945.54248  21291125.75448
  21073226.203 7 -18620404.423 7 -12196369.77948  21073217.54348
  21129717.742 6 -13431453.763 6 -14669126.41149  21129712.89549
 24 11 23  0 46 30.0000000  0  9G02G07G13G14G15G17G19G22G30         
  23933147.000 1   1039442.747 1                
  23413816.734 4  -9901922.352 4  -6885823.75047  23413812.82447
  21145245.820 6 -11133519.521 6  -7621395.02648  21145237.98048
  20812469.219 6 -18508200.022 6 -14722510.77548  20812461.84848
  22969966.688 5  -3652414.565 5  -2749384.50148  22969962.83648
  20155377.781 7 -22870374.211 7 -17849196.52749  20155369.12149
  21277466.461 6 -21247343.561 6 -13815914.08648  21277457.33248
  21074167.469 7 -18615457.677 7 -12192515.11248  21074159.10248
  21139568.109 6 -13379692.772 6 -14628793.16449  21139562.78949
 24 11 23  0 47  0.0000000  0  9G02G07G13G14G15G17G19G22G30         
  23941190.047 1   1081710.901 1                
  23430313.914 4  -9815232.872 4  -6818273.55347  23430308.53547
  21149192.602 6 -11112779.278 6  -7605233.79348  21149184.76248
  20816733.250 6 -18485790.528 6 -14705048.82448  20816726.11348
  22968358.844 5  -3660870.636 5  -2755973.59648  22968353.70348
  20155499.914 7 -22869732.741 7 -17848696.62049  20155491.43049
  21263871.773 6 -21318784.003 6 -13871581.86048  21263863.28948
  21075136.039 7 -18610369.047 7 -12188549.89048  21075126.79348
  21149496.391 6 -13327516.691 6 -14588136.47449  21149491.36749
 24 11 23  0 47 30.0000000  0  9G02G07G13G14G15G17G19G22G30         
  23949326.469 3   1124459.046 3                
  23446861.328 4  -9728270.100 4  -6750510.38647  23446857.53547
  21153249.852 6 -11091454.911 6  -7588617.37948  21153242.71548
  20821027.547 6 -18463223.379 6 -14687463.98448  20821020.35248
  22966859.297 5  -3668750.746 5  -2762113.88448  22966854.21548
  20155720.523 7 -22868572.186 7 -17847792.23449  20155712.15649
  21250350.742 6 -21389836.123 6 -13926947.03048  21250342.31648
  21076130.500 6 -18605138.508 6 -12184474.09248  21076122.01648
  21159504.656 6 -13274924.756 6 -14547155.74749  21159499.39549
 24 11 23  0 48  0.0000000  0  9G02G07G13G14G15G17G19G22G30         
  23957552.719 3   1167687.623 3   -238068.64155  23957543.59055
  23463461.766 4  -9641033.263 4  -6682533.69647  23463458.32447
  21157419.102 6 -11069545.574 6  -7571545.15048  21157411.73048
  20825352.836 7 -18440496.934 7 -14669755.01648  20825344.87948
  22965468.516 4  -3676053.401 4  -2767804.18547  22965464.43047
  20156040.211 7 -22866891.340 7 -17846482.43249  20156031.78549
  21236904.328 6 -21460496.376 6 -13982006.86548  21236895.72748
  21077154.078 7 -18599764.893 7 -12180286.79548  21077144.71548
  21169592.188 7 -13221915.521 7 -14505849.84549  21169585.81349
 24 11 23  0 48 30.0000000  0  9G02G07G13G14G15G17G19G22G30         
  23965869.102 3   1211395.059 3   -204010.87145  23965860.73445
  23480113.563 3  -9553524.592 3  -6614345.16347  23480109.77047
  21161700.039 7 -11047053.788 7  -7554019.05948  21161692.08248
  20829707.320 6 -18417612.146 6 -14651922.67448  20829699.71548
  22964188.602 4  -3682779.695 4  -2773045.40247  22964184.75047
  20156458.992 7 -22864692.085 7 -17844768.66649  20156450.44949
  21223533.266 6 -21530764.108 6 -14036760.84248  21223523.96148
  21078202.734 7 -18594249.657 7 -12175989.15448  21078193.95748
  21179758.141 7 -13168490.073 7 -14464219.62949  21179752.93849
 24 11 23  0 49  0.0000000  0 10G02G06G07G13G14G15G17G19G22G30      
  23974274.727 1   1255580.326 1   -169580.77745  23974268.70345
  24704737.49211                                
  23496818.188 4  -9465745.173 4  -6545945.68147  23496813.34047
  21166090.469 7 -11023979.854 7  -7536039.36248  21166082.51248
  20834092.625 6 -18394569.237 6 -14633967.13348  20834085.13748
  22963019.227 4  -3688929.827 4  -2777837.68947  22963014.55547
  20156975.969 7 -22861975.392 7 -17842651.70949  20156967.30949
  21210235.953 6 -21600637.933 6 -14091207.88248  21210227.29348
  21079279.336 6 -18588593.159 6 -12171581.44748  21079270.50048
  21190004.227 6 -13114648.793 6 -14422265.40049  21189998.08649
 24 11 23  0 49 30.0000000  0 10G02G06G07G13G14G15G17G19G22G30      
  23982774.719 1   1300241.710 1   -134779.66745  23982768.81345
  24685332.273 1  -1786386.750 1   -342904.42455  24685335.98055
  23513574.961 5  -9377696.717 5  -6477336.53947  23513569.05547
  21170591.258 6 -11000326.065 6  -7517607.81748  21170583.94548
  20838507.055 6 -18371368.993 6 -14615889.00148  20838499.56648
  22961957.789 4  -3694504.801 4  -2782181.80747  22961953.35247
  20157591.445 7 -22858742.903 7 -17840132.82949  20157582.60949
  21197014.961 6 -21670117.052 6 -14145347.36248  21197005.65648
  21080382.672 7 -18582796.963 7 -12167064.88148  21080373.48448
  21200328.891 7 -13060392.685 7 -14379987.90949  21200323.16049
 24 11 23  0 50  0.0000000  0 10G02G06G07G13G14G15G17G19G22G30      
  23991363.445 1   1345378.658 1    -99607.88545  23991358.71545
  24665908.508 1  -1888452.394 1   -422435.77245  24665912.50845
  23530380.508 5  -9289379.716 5  -6408518.14647  23530375.77747
  21175202.758 7 -10976092.975 7  -7498724.87448  21175195.32848
  20842952.188 6 -18348010.958 6 -14597687.88848  20842944.34848
  22961006.016 3  -3699504.684 3  -2786077.77347  22961001.75447
  20158304.055 7 -22854994.714 7 -17837212.10649  20158295.86349
  21183868.664 6 -21739199.263 6 -14199177.55048  21183859.53548
  21081512.227 6 -18576860.753 6 -12162439.20048  21081502.80548
  21210732.578 6 -13005721.451 6 -14337386.94549  21210727.08249
 24 11 23  0 50 30.0000000  0 10G02G06G07G13G14G15G17G19G22G30      
  24000042.594 1   1390987.009 1    -64068.91444  24000037.80544
  24646471.422 2  -1990613.522 2   -502041.54445  24646470.32445
  23547237.297 5  -9200798.292 5  -6339493.70547  23547232.33247
  21179923.766 6 -10951284.715 6  -7479393.74248  21179915.92648
  20847425.641 6 -18324498.144 6 -14579366.18148  20847418.73848
  22960164.547 5  -3703932.726 5  -2789528.11047  22960159.10947
  20159114.445 7 -22850735.125 7 -17833892.90549  20159105.84449
  21170798.563 6 -21807886.212 6 -14252699.74848  21170788.14548
  21082667.852 7 -18570788.268 7 -12157707.35148  21082658.43048
  21221214.156 7 -12950638.427 7 -14294465.10649  21221209.07449
 24 11 23  0 51  0.0000000  0 10G02G06G07G13G14G15G17G19G22G30      
  24008812.203 2   1437066.927 2                
  24627013.031 2  -2092866.296 2   -581718.57646  24627012.93046
  23564143.672 4  -9111952.836 4  -6270263.53647  23564139.35247
  21184754.023 6 -10925901.318 6  -7459614.46548  21184746.18448
  20851930.000 6 -18300829.670 6 -14560923.16748  20851922.39548
  22959430.141 4  -3707788.021 4  -2792532.14447  22959425.00047
  20160022.523 7 -22845963.759 7 -17830174.91749  20160014.21549
  21157803.406 6 -21876175.320 6 -14305911.93348  21157793.57448
  21083848.633 6 -18564578.728 6 -12152868.69948  21083839.97348
  21231774.914 6 -12895142.879 6 -14251221.81649  21231769.53549
 24 11 23  0 51 30.0000000  0 10G02G06G07G13G14G15G17G19G22G30      
  24017672.031 3   1483618.266 3                
  24607536.828 2  -2195206.962 2   -661464.12546  24607540.35946
  23581100.211 3  -9022843.539 3  -6200827.78547  23581095.36347
  21189693.797 7 -10899943.263 7  -7439387.40348  21189686.07448
  20856464.234 6 -18277004.837 6 -14542358.33948  20856456.04348
  22958804.359 5  -3711070.617 5  -2795089.95447  22958800.62547
  20161027.695 7 -22840680.850 7 -17826058.32749  20161019.73849
  21144884.250 6 -21944064.236 6 -14358812.27348  21144874.77048
  21085056.992 6 -18558232.226 6 -12147923.32848  21085047.68848
  21242413.766 6 -12839234.430 6 -14207656.77749  21242409.21149
 24 11 23  0 52  0.0000000  0 10G02G06G07G13G14G15G17G19G22G30      
  24026618.016 2   1530640.603 2                
  24588046.078 3  -2297631.542 3   -741275.03646  24588048.20346
  23598106.320 2  -8933470.429 2  -6131186.45546  23598102.64546
  21194742.563 6 -10873410.682 6  -7418712.64848  21194735.19148
  20861027.484 6 -18253022.696 6 -14523670.93348  20861019.93848
  22958289.273 4  -3713780.115 4  -2797201.20647  22958285.71547
  20162131.094 7 -22834886.438 7 -17821543.16949  20162122.08249
  21132041.813 6 -22011550.705 6 -14411399.03548  21132032.44948
  21086291.039 7 -18551748.000 7 -12142870.63148  21086281.50048
  21253131.633 6 -12782912.402 6 -14163769.48649  21253126.60949
 24 11 23  0 52 30.0000000  0 10G02G06G07G13G14G15G17G19G22G30      
  24035656.664 3   1578132.876 3                
  24568540.539 4  -2400137.300 4   -821149.20446  24568541.37546
  23615163.648 2  -8843834.589 2  -6061340.41046  23615159.97346
  21199900.859 6 -10846304.584 6  -7397591.01448  21199893.72348
  20865621.430 6 -18228883.279 6 -14504860.95148  20865613.53148
  22957882.844 5  -3715916.775 5  -2798866.05947  22957878.93447
  20163330.750 7 -22828581.403 7 -17816630.11149  20163321.73849
  21119275.867 6 -22078633.323 6 -14463671.10648  21119267.44148
  21087550.914 7 -18545126.807 7 -12137711.21148  21087541.60948
  21263927.906 6 -12726177.138 6 -14119560.19149  21263922.64549
 24 11 23  0 53  0.0000000  0 10G02G06G07G13G14G15G17G19G22G30      
  24044782.906 4   1626091.477 4                
  24549019.547 4  -2502723.979 4   -901086.43147  24549020.67647
  23632272.078 3  -8753940.332 3  -5991292.96646  23632266.93846
  21205167.297 6 -10818629.474 6  -7376025.98948  21205159.75048
  20870243.695 6 -18204589.494 6 -14485930.70148  20870236.14848
  22957583.484 4  -3717483.697 4  -2800086.98747  22957580.62947
  20164626.719 7 -22821769.583 7 -17811322.14849  20164617.59049
  21106587.109 7 -22145313.204 7 -14515629.35348  21106578.15648
  21088835.977 7 -18538371.470 7 -12132447.28448  21088826.78948
  21274802.203 6 -12669031.932 6 -14075031.45849  21274797.12149
 24 11 23  0 53 30.0000000  0 10G02G06G07G13G14G15G17G19G22G30      
  24053996.578 4   1674516.442 4     27177.30855  24053989.03155
  24529483.500 5  -2605387.302 5   -981083.36847  24529485.56647
  23649426.953 2  -8663787.046 2  -5921043.72146  23649421.69146
  21210542.195 6 -10790384.851 6  -7354017.17648  21210534.23848
  20874896.828 6 -18180139.955 6 -14466879.09048  20874889.39848
  22957395.594 5  -3718480.168 5  -2800863.41947  22957390.33247
  20166019.273 7 -22814450.617 7 -17805618.99349  20166010.49649
  21093975.906 6 -22211587.458 6 -14567271.53048  21093966.42648
  21090147.023 7 -18531481.365 7 -12127078.31748  21090137.95348
  21285754.641 6 -12611475.702 6 -14030182.46049  21285749.26249
 24 11 23  0 54  0.0000000  0 10G02G06G07G13G14G15G17G19G22G30      
  24063300.953 4   1723405.361 4     65272.56545  24063293.11345
  24509931.711 5  -2708125.513 5  -1061138.67047  24509933.89547
  23666632.055 3  -8573377.379 3  -5850594.70546  23666625.91446
  21216024.430 7 -10761573.239 7  -7331566.56448  21216017.00048
  20879578.969 6 -18155536.015 6 -14447707.14648  20879570.77748
  22957313.945 5  -3718907.995 5  -2801196.71647  22957309.03947
  20167508.188 7 -22806626.733 7 -17799522.41149  20167499.64549
  21081441.320 6 -22277456.278 6 -14618597.78648  21081431.89848
  21091484.094 6 -18524458.251 6 -12121605.71948  21091474.43848
  21296785.180 6 -12553510.154 6 -13985014.50349  21296779.74249
 24 11 23  0 54 30.0000000  0 10G02G06G07G13G14G15G17G19G22G30      
  24072692.156 3   1772759.585 3    103730.50445  24072684.55145
  24490367.227 4  -2810933.283 4  -1141248.13847  24490368.94147
  23683885.672 3  -8482710.342 3  -5779945.08946  23683879.53146
  21221615.711 7 -10732193.866 7  -7308673.53648  21221607.22748
  20884290.469 6 -18130775.185 6 -14428412.96948  20884282.92248
  22957340.852 5  -3718765.427 5  -2801085.56747  22957335.77047
  20169092.953 7 -22798296.325 7 -17793031.13149  20169084.64549
  21068984.492 6 -22342915.473 6 -14669604.84148  21068974.95348
  21092845.703 7 -18517300.189 7 -12116027.96748  21092836.57448
  21307893.930 6 -12495133.243 6 -13939526.00549  21307888.25849
 24 11 23  0 55  0.0000000  0 10G02G06G07G13G14G15G17G19G22G30      
  24082172.203 3   1822576.791 3    142549.10045  24082165.18445
  24470790.000 4  -2913808.808 4  -1221410.42447  24470792.35947
  23701186.625 2  -8391787.982 2  -5709096.52746  23701182.07046
  21227314.117 7 -10702248.760 7  -7285339.68748  21227305.63348
  20889031.430 6 -18105858.657 6 -14408997.44348  20889023.64848
  22957475.414 5  -3718054.275 5  -2800531.33747  22957470.74247
  20170774.523 7 -22789461.763 7 -17786147.00349  20170765.80549
  21056606.133 7 -22407965.036 7 -14720292.70848  21056596.41848
  21094233.313 7 -18510008.572 7 -12110346.15148  21094223.89148
  21319080.422 6 -12436346.603 6 -13893718.24049  21319075.28149
 24 11 23  0 55 30.0000000  0 10G02G06G07G13G14G15G17G19G22G30      
  24091740.547 2   1872854.691 2    181726.74045  24091732.64845
  24451200.461 3  -3016750.205 3  -1301624.02346  24451201.94146
  23718536.320 1  -8300612.582 1  -5638050.76545  23718531.35545
  21233119.797 7 -10671740.621 7  -7261567.11448  21233111.48848
  20893802.438 6 -18080787.549 6 -14389461.48748  20893795.00848
  22957719.195 5  -3716776.117 5  -2799535.29648  22957714.64148
  20172551.031 6 -22780125.691 6 -17778872.08949  20172542.13749
  21044305.703 6 -22472604.528 6 -14770661.04748  21044296.45748
  21095645.828 6 -18502585.149 6 -12104561.62748  21095636.58248
  21330345.328 6 -12377151.809 6 -13847592.41649  21330339.65649
 24 11 23  0 56  0.0000000  0 10G02G06G07G13G14G15G17G19G22G30      
  24101395.320 1   1923591.848 1                
  24431598.453 4  -3119754.509 4  -1381886.68746  24431599.69946
  23735936.367 1  -8209185.408 1  -5566808.91245  23735929.87545
  21239031.563 6 -10640671.006 6  -7237357.02248  21239023.66448
  20898602.953 6 -18055561.805 6 -14369805.01848  20898595.05548
  22958070.234 5  -3714931.276 5  -2798097.68747  22958065.44547
  20174422.844 7 -22770288.850 7 -17771206.96449  20174414.18449
  21032084.016 7 -22536832.594 7 -14820708.78848  21032074.35948
  21097083.344 7 -18495030.465 7 -12098674.80248  21097074.39148
  21341687.016 6 -12317549.184 6 -13801148.80649  21341682.10949
 24 11 23  0 56 30.0000000  0 10G02G06G07G13G14G15G17G19G22G30      
  24111138.023 1   1974787.620 1                
  24411985.531 3  -3222818.272 3  -1462195.67346  24411986.77746
  23753381.250 1  -8117507.345 1  -5495371.43745  23753376.87145
  21245050.242 6 -10609040.608 6  -7212709.95248  21245042.93048
  20903433.680 6 -18030181.098 6 -14350027.79048  20903424.84448
  22958529.180 5  -3712520.438 5  -2796219.05747  22958524.27347
  20176389.680 7 -22759951.762 7 -17763152.02549  20176380.96149
  21019939.992 7 -22600647.416 7 -14870434.51948  21019930.51248
  21098545.898 6 -18487344.345 6 -12092685.56948  21098537.06348
  21353106.602 6 -12257538.928 6 -13754387.55149  21353101.46149
 24 11 23  0 57  0.0000000  0 10G02G06G07G13G14G15G17G19G22G30      
  24120966.148 1   2026439.935 1                
  24392362.852 4  -3325939.455 4  -1542549.37747  24392363.39547
  23770877.594 1  -8025580.492 1  -5423740.16045  23770870.92645
  21251175.898 6 -10576851.663 6  -7187627.65048  21251168.87948
  20908291.680 6 -18004646.248 6 -14330130.44748  20908283.78148
  22959095.180 6  -3709545.211 6  -2793900.62648  22959089.97748
  20178452.125 7 -22749116.145 7 -17754708.63549  20178442.87949
  21007874.914 6 -22664048.475 6 -14919837.84348  21007865.19948
  21100033.359 7 -18479527.845 7 -12086594.74148  21100024.46548
  21364603.453 6 -12197122.248 6 -13707309.62249  21364598.31349
 24 11 23  0 57 30.0000000  0 10G02G06G07G13G14G15G17G19G22G30      
  24130880.930 1   2078546.457 1                
  24372730.695 5  -3429116.022 5  -1622946.31947  24372730.12547
  23788415.23411                 -17627916.74255  23788412.02755
  21257407.148 6 -10544106.949 6  -7162112.29048  21257399.66048
  20913179.758 6 -17978958.330 6 -14310113.85148  20913172.21148
  22959768.492 6  -3706007.276 6  -2791143.70748  22959763.28948
  20180608.156 7 -22737785.127 7 -17745879.21249  20180599.14549
  20995888.500 6 -22727035.837 6 -14968918.81248  20995879.02048
  21101545.336 7 -18471582.795 7 -12080403.74948  21101535.68048
  21376177.320 6 -12136300.946 6 -13659916.39749  21376171.59049
 24 11 23  0 58  0.0000000  0  9G02G06G13G14G15G17G19G22G30         
  24140882.68811                                
  24353088.102 5  -3532337.544 5  -1703378.28647  24353087.12147
  21263745.211 7 -10510800.538 7  -7136159.22948  21263736.96148
  20918098.938 6 -17953109.878 6 -14289972.13548  20918090.45348
  22960549.227 6  -3701899.998 6  -2787943.13748  22960544.84848
  20182859.891 7 -22725952.029 7 -17736658.55049  20182850.87949
  20983982.656 6 -22789600.501 6 -15017670.40748  20983973.35248
  21103082.164 7 -18463502.060 7 -12074107.01248  21103073.56348
  21387829.664 6 -12075067.984 6 -13612202.38049  21387824.34449
 24 11 23  0 58 30.0000000  0  9G02G06G13G14G15G17G19G22G30         
  24150971.00811                                
  24333434.078 4  -3635612.867 4  -1783852.15647  24333433.44947
  21270187.695 6 -10476945.852 6  -7109778.96248  21270179.32848
  20923046.109 6 -17927112.740 6 -14269714.58448  20923038.03548
  22961437.320 6  -3697235.871 6  -2784308.66248  22961432.11748
  20185204.555 7 -22713629.675 7 -17727056.67249  20185195.36749
  20972156.016 6 -22851753.186 6 -15066100.96948  20972145.89148
  21104644.492 7 -18455297.880 7 -12067714.09748  21104635.18848
  21399558.273 6 -12013435.779 6 -13564177.27149  21399552.83649
 24 11 23  0 59  0.0000000  0  9G02G06G13G14G15G17G19G22G30         
  24161146.14111    662171.81911                
  24313770.891 3  -3738934.544 3  -1864362.18647  24313772.13747
  21276735.172 6 -10442539.628 6  -7082968.91348  21276727.21548
  20928022.273 6 -17900962.522 6 -14249337.74448  20928014.55148
  22962430.711 5  -3692011.398 5  -2780237.54648  22962426.74248
  20187643.070 7 -22700814.815 7 -17717071.01349  20187634.29349
  20960407.594 6 -22913488.076 6 -15114205.97248  20960397.64548
  21106229.531 7 -18446966.503 7 -12061222.06048  21106220.28548
  21411363.102 6 -11951400.524 6 -13515838.10749  21411358.31349
 24 11 23  0 59 30.0000000  0  9G02G06G13G14G15G17G19G22G30         
  24171408.133 1    716086.350 1                
  24294101.789 3  -3842298.210 3  -1944904.92447  24294104.09047
  21283385.719 6 -10407582.183 6  -7055729.35548  21283378.52348
  20933027.477 6 -17874657.820 6 -14228840.53848  20933019.69548
  22963531.969 5  -3686225.700 5  -2775729.15948  22963527.76648
  20190175.258 7 -22687507.722 7 -17706701.81649  20190166.65649
  20948739.984 6 -22974802.464 6 -15161983.32048  20948730.15248
  21107839.063 7 -18438506.549 7 -12054629.85348  21107830.05148
  21423244.641 6 -11888961.435 6 -13467184.27749  21423239.32049
 24 11 23  1  0  0.0000000  0  9G02G06G13G14G15G17G19G22G30         
  24181752.391 1    770449.254 1                
  24274424.875 4  -3945701.266 4  -2025478.41547  24274427.64547
  21290143.461 6 -10372075.770 6  -7028062.02748  21290135.38748
  20938062.781 6 -17848199.064 6 -14208223.28448  20938054.70748
  22964739.070 5  -3679880.682 5  -2770784.92347  22964734.92647
  20192800.828 7 -22673710.079 7 -17695950.36849  20192791.99249
  20937151.922 6 -23035695.903 6 -15209432.65248  20937142.61748
  21109473.102 7 -18429919.552 7 -12047938.64148  21109463.85548
  21435203.031 6 -11826119.593 6 -13418216.59449  21435198.00849
 24 11 23  1  0 30.0000000  0  9G02G06G13G14G15G17G19G22G30         
  24192183.18811                                
  24254740.664 3  -4049134.564 3  -2106075.45147  24254743.66847
  21297005.625 6 -10336016.021 6  -6999963.52948  21296997.31648
  20943128.156 6 -17821580.187 6 -14187481.25148  20943120.43448
  22966054.125 5  -3672971.145 5  -2765400.83147  22966049.51247
  20195520.883 7 -22659416.807 7 -17684812.72049  20195511.98849
  20925645.656 6 -23096160.884 6 -15256548.12648  20925636.64548
  21111132.719 7 -18421199.102 7 -12041143.43248  21111123.23848
  21447239.063 6 -11762869.531 6 -13368930.82849  21447233.98049
 24 11 23  1  1  0.0000000  0  9G02G06G13G14G15G17G19G22G30         
  24202697.109 1    880515.803 1                
  24235050.250 3  -4152612.146 3  -2186706.95647  24235050.91047
  21303969.313 6 -10299421.100 6  -6971448.00848  21303961.53148
  20948220.828 6 -17794818.160 6 -14166627.69548  20948212.10948
  22967472.031 4  -3665515.271 4  -2759591.00547  22967468.29747
  20198331.492 7 -22644646.198 7 -17673303.10749  20198322.59849
  20914217.750 6 -23156213.385 6 -15303342.19548  20914208.62148
  21112814.219 6 -18412362.834 6 -12034257.98448  21112804.68048
  21459349.281 6 -11699228.910 6 -13319340.72249  21459344.72749
 24 11 23  1  1 30.0000000  0  9G02G06G13G14G15G17G19G22G30         
  24213294.688 2    936215.352 2                
  24215353.297 2  -4256115.425 2  -2267358.45947  24215354.36747
  21311037.398 6 -10262277.559 6  -6942504.99348  21311029.61748
  20953343.078 6 -17767897.490 6 -14145650.50848  20953335.23848
  22968997.813 4  -3657497.578 4  -2753343.40347  22968993.84447
  20201235.758 7 -22629384.364 7 -17661410.73149  20201226.80549
  20902872.508 6 -23215836.492 6 -15349801.66548  20902862.91048
  21114520.742 7 -18403395.700 7 -12027270.56648  21114511.08648
  21471536.953 6 -11635182.912 6 -13269434.73649  21471531.98849
 24 11 23  1  2  0.0000000  0  9G02G06G13G14G15G17G19G22G30         
  24223978.813 1    992356.869 1                
  24195652.969 3  -4359646.555 3  -2348031.66147  24195653.33647
  21318208.250 6 -10224592.210 6  -6913139.78848  21318200.87948
  20958495.359 6 -17740823.284 6 -14124553.68948  20958487.22748
  22970629.344 5  -3648924.722 5  -2746663.18547  22970625.55147
  20204232.266 7 -22613637.640 7 -17649140.50449  20204222.96149
  20891608.023 7 -23275034.350 7 -15395929.76448  20891597.31348
  21116250.656 7 -18394303.391 7 -12020185.60948  21116241.46948
  21483800.516 6 -11570737.332 6 -13219217.38349  21483795.19549
 24 11 23  1  2 30.0000000  0  9G02G06G13G14G15G17G19G22G30         
  24234746.469 1   1048937.896 1                
  24175947.008 4  -4463203.843 4  -2428725.27747  24175945.91047
  21325482.148 6 -10186368.281 6  -6883354.90248  21325474.66048
  20963675.664 6 -17713596.968 6 -14103338.34648  20963668.35248
  22972364.664 4  -3639799.325 4  -2739552.43147  22972361.86747
  20207320.469 7 -22597408.703 7 -17636494.52649  20207311.39849
  20880423.531 6 -23333807.221 6 -15441726.70648  20880412.82048
  21118004.617 7 -18385087.587 7 -12013004.41748  21117995.31348
  21496140.172 6 -11505894.360 6 -13168690.40149  21496134.67649
 24 11 23  1  3  0.0000000  0  9G02G06G13G14G15G17G19G22G30         
  24245595.563 1   1105957.934 1                
  24156234.688 3  -4566783.065 3  -2509435.99747  24156234.93847
  21332858.102 6 -10147605.782 6  -6853150.36048  21332851.43448
  20968886.250 6 -17686217.085 6 -14082003.34648  20968878.58648
  22974208.180 5  -3630120.874 5  -2732010.73247  22974203.68447
  20210499.906 7 -22580697.802 7 -17623473.00549  20210491.12949
  20869320.258 6 -23392152.765 6 -15487190.66848  20869310.01648
  21119781.555 7 -18375747.933 7 -12005726.70848  21119772.25048
  21508554.469 6 -11440653.259 6 -13117853.19649  21508549.56349
 24 11 23  1  3 30.0000000  0  8G06G13G14G15G17G19G22G30            
  24136521.875 3  -4670375.107 3  -2590156.70747  24136522.47747
  21340337.750 7 -10108300.865 7  -6822523.16348  21340330.49648
  20974127.133 6 -17658677.816 6 -14060544.14048  20974119.23448
  22976155.203 4  -3619884.559 4  -2724034.32747  22976151.23447
  20213772.891 7 -22563500.413 7 -17610072.39249  20213763.82049
  20858300.125 6 -23450063.871 6 -15532316.10748  20858290.76248
  21121584.891 7 -18366277.906 7 -11998347.39948  21121574.47348
  21521046.188 6 -11375009.025 6 -13066701.84749  21521041.34049
 24 11 23  1  4  0.0000000  0  8G06G13G14G15G17G19G22G30            
  24116804.469 3  -4773990.037 3  -2670895.34547  24116804.66047
  21347918.219 7 -10068468.220 7  -6791484.73448  21347910.37948
  20979395.219 6 -17630992.161 6 -14038970.85448  20979387.26248
  22978207.602 3  -3609104.669 3  -2715634.36647  22978202.57847
  20217134.852 7 -22545830.912 7 -17596303.90649  20217126.07449
  20847360.555 6 -23507552.346 6 -15577112.25148  20847350.89848
  21123407.953 7 -18356691.218 7 -11990877.19948  21123398.35548
  21533612.313 6 -11308975.406 6 -13015247.08349  21533607.40649
 24 11 23  1  4 30.0000000  0  8G06G13G14G15G17G19G22G30            
  24097083.945 2  -4877617.689 2  -2751643.86347  24097084.72347
  21355599.320 6 -10028102.841 6  -6760031.20247  21355591.94947
  20984693.273 6 -17603152.971 6 -14017277.95048  20984684.61348
  22980362.961 4  -3597775.184 4  -2706806.14647  22980358.69947
  20220588.781 7 -22527683.634 7 -17582163.11849  20220579.53549
  20836502.781 7 -23564610.423 7 -15621573.00848  20836493.18448
  21125255.242 7 -18346981.209 7 -11983310.89048  21125246.17248
  21546253.656 6 -11242546.061 6 -12963483.95849  21546248.51649
 24 11 23  1  5  0.0000000  0  8G06G13G14G15G17G19G22G30            
  24077360.727 1  -4981255.367 1  -2832400.17146  24077362.50046
  21363381.172 6  -9987206.752 6  -6728164.13548  21363374.27048
  20990019.719 6 -17575160.447 6 -13995465.56148  20990011.99648
  22982623.586 5  -3585897.413 5  -2697550.67647  22982618.68047
  20224132.414 7 -22509060.143 7 -17567651.25649  20224123.34449
  20825726.773 7 -23621237.158 7 -15665697.65248  20825717.58648
  21127127.281 7 -18337149.076 7 -11975649.43848  21127117.33248
  21558969.664 6 -11175722.081 6 -12911413.32149  21558964.40249
 24 11 23  1  5 30.0000000  0  8G06G13G14G15G17G19G22G30            
  24057635.891 1  -5084899.235 1  -2913161.36746  24057640.06646
  21371263.859 6  -9945780.894 6  -6695884.23848  21371257.48448
  20995375.516 6 -17547014.047 6 -13973533.27148  20995367.67648
  22984987.680 4  -3573472.009 4  -2687868.47447  22984983.24247
  20227766.859 7 -22489961.093 7 -17552768.82149  20227757.37949
  20815033.422 6 -23677431.018 6 -15709484.98448  20815023.23848
  21129021.016 7 -18327193.892 7 -11967892.09248  21129011.65248
  21571760.500 6 -11108503.636 6 -12859035.29949  21571755.94549
 24 11 23  1  6  0.0000000  0  8G06G13G14G15G17G19G22G30            
  24037914.391 1  -5188549.052 1  -2993927.18947  24037916.80947
  21379247.367 6  -9903830.314 6  -6663195.47148  21379240.11348
  21000760.969 6 -17518716.393 6 -13951483.11548  21000752.77748
  22987455.977 4  -3560503.019 4  -2677762.74146  22987450.83646
  20231490.430 7 -22470391.485 7 -17537519.72049  20231481.30149
  20804421.563 7 -23733193.530 7 -15752936.20148  20804411.67248
  21130937.820 6 -18317119.134 6 -11960041.56448  21130928.45748
  21584626.320 6 -11040894.363 6 -12806352.73649  21584621.00049
 24 11 23  1  6 30.0000000  0  8G06G13G14G15G17G19G22G30            
  24018192.086 3  -5292201.756 3  -3074695.28647  24018190.93047
  21387330.188 6  -9861356.839 6  -6630099.25448  21387322.52348
  21006173.648 6 -17490267.466 6 -13929315.09048  21006166.16048
  22990027.063 3  -3546991.771 3  -2667234.48046  22990021.74246
  20235304.031 7 -22450352.217 7 -17521904.65649  20235294.49249
  20793893.188 7 -23788523.691 7 -15796050.51748  20793882.88748
  21132877.773 7 -18306925.064 7 -11952098.06548  21132868.00048
  21597566.227 6 -10972895.093 6 -12753366.28849  21597560.96549
 24 11 23  1  7  0.0000000  0  8G06G13G14G15G17G19G22G30            
  23998464.852 2  -5395852.491 2  -3155461.78847  23998464.28147
  21395511.508 6  -9818360.455 6  -6596595.58148  21395504.48848
  21011616.969 6 -17461665.426 6 -13907027.74748  21011609.07048
  22992701.023 4  -3532937.439 4  -2656283.06547  22992696.17647
  20239206.750 7 -22429843.333 7 -17505923.65349  20239197.38749
  20783447.141 7 -23843418.798 7 -15838825.82948  20783436.43048
  21134841.289 7 -18296610.166 7 -11944060.42848  21134831.39848
  21610580.508 6 -10904504.817 6 -12700075.18249  21610575.24649
 24 11 23  1  7 30.0000000  0  8G06G13G14G15G17G19G22G30            
  23978741.484 1  -5499496.998 1  -3236223.50646  23978740.85546
  21403792.984 6  -9774842.230 6  -6562685.28648  21403785.43848
  21017088.711 6 -17432909.189 6 -13884620.25448  21017081.34048
  22995478.078 4  -3518340.402 4  -2644908.74147  22995473.69947
  20243198.383 7 -22408865.552 7 -17489577.27749  20243189.07849
  20773083.758 7 -23897877.040 7 -15881260.73548  20773073.57448
  21136826.563 7 -18286173.883 7 -11935928.20648  21136817.14148
  21623669.094 6 -10835723.496 6 -12646479.35649  21623663.48049
 24 11 23  1  8  0.0000000  0  8G06G13G14G15G17G19G22G30            
  23959022.820 3  -5603133.909 3  -3316979.28147  23959019.55547
  21412172.789 6  -9730805.721 6  -6528371.12248  21412165.12548
  21022589.836 6 -17404000.251 6 -13862093.76248  21022582.58248
  22998358.438 4  -3503203.531 4  -2633113.76447  22998354.00047
  20247279.336 7 -22387421.278 7 -17472867.40849  20247270.26649
  20762803.563 7 -23951899.035 7 -15923355.69548  20762793.43848
  21138835.430 7 -18275618.075 7 -11927702.83548  21138825.89148
  21636831.906 6 -10766553.486 6 -12592580.65349  21636826.35249
 24 11 23  1  8 30.0000000  0  8G06G13G14G15G17G19G22G30            
  23939303.031 3  -5706763.374 3  -3397729.24147  23939300.05947
  21420650.258 7  -9686256.393 7  -6493657.36648  21420643.12148
  21028120.070 6 -17374941.957 6 -13839450.90148  21028111.70348
  23001342.477 5  -3487531.598 5  -2620901.86347  23001335.98447
  20251447.422 7 -22365515.835 7 -17455798.18849  20251438.76249
  20752606.195 7 -24005487.286 7 -15965112.68448  20752595.60248
  21140866.398 7 -18264946.325 7 -11919387.14048  21140856.50848
  21650067.234 6 -10696999.125 6 -12538382.44449  21650062.09449
 24 11 23  1  9  0.0000000  0  8G06G13G14G15G17G19G22G30            
  23919583.656 3  -5810378.403 3  -3478467.94247  23919582.91047
  21429226.297 7  -9641192.131 7  -6458542.36248  21429218.51648
  21033678.391 6 -17345730.238 6 -13816688.48448  21033670.19948
  23004426.313 5  -3471322.025 5  -2608271.02647  23004420.99247
  20255704.156 7 -22343146.699 7 -17438367.63949  20255695.20349
  20742491.742 6 -24058636.688 6 -16006527.71148  20742481.32448
  21142919.500 7 -18254155.204 7 -11910978.41748  21142909.96148
  21663377.328 6 -10627057.303 6 -12483882.31549  21663372.53949
 24 11 23  1  9 30.0000000  0  8G06G13G14G15G17G19G22G30            
  23899869.883 3  -5913975.086 3  -3559192.41547  23899869.84047
  21437899.633 7  -9595614.447 7  -6423027.28548  21437891.61748
  21039266.414 6 -17316364.295 6 -13793805.87948  21039258.75048
  23007612.367 5  -3454575.185 5  -2595221.53447  23007608.10547
  20260048.805 7 -22320315.162 7 -17420576.78549  20260039.79349
  20732461.477 6 -24111345.795 6 -16047599.64348  20732451.58648
  21144995.648 7 -18243244.149 7 -11902476.25948  21144986.34448
  21676760.313 6 -10556728.277 6 -12429080.47549  21676755.40649
 24 11 23  1 10  0.0000000  0  8G06G13G14G15G17G19G22G30            
  23880159.633 3  -6017551.915 3  -3639901.37847  23880159.41447
  21446669.141 6  -9549526.706 6  -6387114.75948  21446662.18048
  21044884.180 6 -17286845.575 6 -13770804.23648  21044875.75448
  23010900.742 5  -3437294.448 5  -2581756.05147  23010897.30147
  20264480.656 7 -22297023.994 7 -17402427.79249  20264471.82049
  20722514.570 6 -24163615.103 6 -16088328.88248  20722504.79748
  21147094.289 7 -18232215.165 7 -11893882.18948  21147084.98448
  21690216.414 6 -10486014.482 6 -12373978.81649  21690211.44949
 24 11 23  1 10 30.0000000  0  8G06G13G14G15G17G19G22G30            
  23860453.898 3  -6121106.400 3  -3720592.99347  23860454.14847
  21455535.406 6  -9502931.530 6  -6350806.84747  21455528.56347
  21050529.914 6 -17257174.785 6 -13747684.10948  21050522.48448
  23014291.523 5  -3419481.922 5  -2567876.13847  23014286.61747
  20268999.875 7 -22273275.506 7 -17383922.44449  20268991.39149
  20712652.289 6 -24215444.567 6 -16128715.38748  20712642.22348
  21149215.352 7 -18221069.161 7 -11885196.95148  21149206.10548
  21703745.313 6 -10414917.743 6 -12318578.75549  21703740.28949
 24 11 23  1 11  0.0000000  0  8G06G13G14G15G17G19G22G30            
  23840752.180 3  -6224635.341 3  -3801264.72347  23840752.84047
  21464498.625 7  -9455831.309 7  -6314105.36647  21464490.96147
  21056205.430 6 -17227351.582 6 -13724445.21048  21056196.88748
  23017781.047 5  -3401138.619 5  -2553582.62247  23017776.49247
  20273605.984 7 -22249071.268 7 -17365061.96449  20273597.32449
  20702872.672 6 -24266833.273 6 -16168758.44448  20702862.89848
  21151358.508 7 -18209806.278 7 -11876420.63748  21151349.32048
  21717347.203 6 -10343438.714 6 -12262880.79449  21717342.35549
 24 11 23  1 11 30.0000000  0  8G06G13G14G15G17G19G22G30            
  23821057.820 4  -6328133.792 4  -3881912.66247  23821057.07447
  21473557.891 7  -9408226.050 7  -6277010.37647  21473550.34447
  21061908.547 6 -17197374.137 6 -13701086.13748  21061901.64548
  23021372.813 4  -3382264.295 4  -2538875.33447  23021368.49247
  20278298.961 7 -22224411.102 7 -17345846.20949  20278289.71549
  20693178.727 7 -24317778.449 7 -16208455.88648  20693168.54348
  21153524.703 7 -18198425.065 7 -11867552.11748  21153514.81348
  21731021.703 6 -10271576.648 6 -12206884.36949  21731017.38349
 24 11 23  1 12  0.0000000  0  8G06G13G14G15G17G19G22G30            
  23801368.531 4  -6431600.383 4  -3962535.75047  23801367.55147
  21482712.031 7  -9360119.994 7  -6239525.14048  21482704.66048
  21067643.227 6 -17167244.149 6 -13677608.17748  21067634.85948
  23025065.672 4  -3362862.435 4  -2523756.99947  23025060.64847
  20283077.641 7 -22199298.643 7 -17326278.01049  20283068.16049
  20683568.281 6 -24368281.283 6 -16247808.65248  20683557.74648
  21155712.180 7 -18186927.652 7 -11858593.04648  21155703.22748
  21744769.047 6 -10199334.324 6 -12150591.64149  21744765.02049
 24 11 23  1 12 30.0000000  0  8G06G13G14G15G17G19G22G30            
  23781686.836 4  -6535033.230 4  -4043132.56347  23781685.21147
  21491960.766 7  -9311516.468 7  -6201652.26747  21491953.86347
  21073405.609 6 -17136962.718 6 -13654012.21648  21073397.77048
  23028857.602 4  -3342935.422 4  -2508229.47347  23028852.93047
  20287942.227 7 -22173736.605 7 -17306359.49349  20287932.57049
  20674041.953 7 -24418342.017 7 -16286816.91448  20674030.89148
  21157921.766 7 -18175315.535 7 -11849544.60048  21157912.63748
  21758588.875 6 -10126714.018 6 -12094004.39549  21758583.85249
 24 11 23  1 13  0.0000000  0  8G06G13G14G15G17G19G22G30            
  23762010.227 4  -6638428.934 4  -4123700.48247  23762009.24647
  21501304.719 7  -9262417.373 7  -6163393.22648  21501297.46548
  21079196.750 6 -17106529.620 6 -13630298.07748  21079188.96948
  23032749.375 5  -3322484.988 5  -2492294.05347  23032744.76247
  20292891.031 7 -22147726.423 7 -17286091.76649  20292882.48849
  20664599.594 7 -24467959.920 7 -16325480.12248  20664589.64548
  21160152.945 7 -18163588.657 7 -11840406.73248  21160143.93448
  21772480.344 6 -10053716.589 6 -12037123.27649  21772474.67249
 24 11 23  1 13 30.0000000  0  8G06G13G14G15G17G19G22G30            
  23742342.227 4  -6741783.981 4  -4204236.72047  23742340.01647
  21510741.211 6  -9212824.415 6  -6124749.35748  21510734.13348
  21085016.555 6 -17075944.253 6 -13606465.28848  21085008.65648
  23036739.805 4  -3301512.043 4  -2475951.46147  23036735.71947
  20297926.227 7 -22121269.171 7 -17265475.66749  20297916.33649
  20655242.273 7 -24517133.733 7 -16363797.29448  20655231.91448
  21162406.742 7 -18151746.798 7 -11831179.26648  21162397.14548
  21786443.031 6  -9980342.608 6 -11979948.75449  21786437.24249
 24 11 23  1 14  0.0000000  0  8G06G13G14G15G17G19G22G30            
  23722682.523 4  -6845093.814 4  -4284737.68747  23722679.55147
  21520272.922 7  -9162738.325 7  -6085721.24848  21520265.14148
  21090865.742 6 -17045205.167 6 -13582512.72148  21090858.07848
  23040830.641 5  -3280017.134 5  -2459202.17247  23040825.79347
  20303045.555 7 -22094365.787 7 -17244511.94349  20303036.36749
  20645969.438 7 -24565861.302 7 -16401766.74348  20645958.96148
  21164682.203 7 -18139789.061 7 -11821861.50648  21164672.66448
  21800477.305 6  -9906591.918 6 -11922480.67949  21800471.10549
 24 11 23  1 14 30.0000000  0  8G06G13G14G15G17G19G22G30            
  23703032.383 4  -6948354.414 4  -4365200.27047  23703030.52347
  21529897.195 6  -9112160.523 6  -6046309.98548  21529889.76648
  21096745.078 6 -17014311.412 6 -13558439.62848  21096736.59448
  23045020.617 5  -3258000.746 5  -2442046.54947  23045015.35547
  20308250.039 7 -22067016.926 7 -17223201.09549  20308240.09049
  20636782.336 7 -24614141.087 7 -16439387.27148  20636771.44948
  21166979.617 7 -18127715.048 7 -11812453.13848  21166970.60548
  21814583.117 6  -9832464.601 6 -11864719.14249  21814576.97749
 24 11 23  1 15  0.0000000  0  8G06G13G14G15G17G19G22G30            
  23683389.750 2  -7051564.949 2  -4445623.87047  23683392.10947
  21539614.773 7  -9061095.690 7  -6006519.22447  21539606.81647
  21102652.977 6 -16983265.177 6 -13534247.70848  21102644.72748
  23049308.203 4  -3235466.739 4  -2424487.62347  23049303.41447
  20313537.875 7 -22039226.580 7 -17201546.22949  20313528.68849
  20627679.266 7 -24661974.869 7 -16476660.25548  20627669.31648
  21169298.992 7 -18115526.931 7 -11802955.86148  21169289.21948
  21828759.539 6  -9757964.163 6 -11806666.86849  21828753.39849
 24 11 23  1 15 30.0000000  0  8G06G13G14G15G17G19G22G30            
  23663760.609 3  -7154722.247 3  -4526006.02047  23663761.85547
  21549424.938 7  -9009546.445 7  -5966350.98648  21549416.51248
  21108589.906 6 -16952066.424 6 -13509936.95248  21108581.94948
  23053693.797 4  -3212416.980 4  -2406526.76747  23053689.30147
  20318910.000 7 -22010996.327 7 -17179548.58549  20318900.75449
  20618662.547 7 -24709361.631 7 -16513584.92848  20618651.42648
  21171640.250 7 -18103225.234 7 -11793370.07548  21171630.59448
  21843006.984 6  -9683091.732 6 -11748324.70349  21843001.25449
 24 11 23  1 16  0.0000000  0  8G06G13G14G15G17G19G22G30            
  23644142.102 4  -7257823.508 4  -4606344.46947  23644141.53147
  21559325.180 6  -8957515.249 6  -5925807.21147  21559317.57447
  21114555.953 6 -16920715.349 6 -13485507.50348  21114547.46948
  23058177.336 3  -3188853.378 3  -2388165.48846  23058173.13346
  20324365.125 7 -21982328.493 7 -17157209.97249  20324355.99649
  20609729.992 7 -24756301.268 7 -16550161.18049  20609719.16449
  21174002.453 7 -18090810.405 7 -11783696.13348  21173992.73848
  21857325.578 6  -9607848.704 6 -11689693.79849  21857320.55549
 24 11 23  1 16 30.0000000  0  8G06G13G14G15G17G19G22G30            
  23624533.977 4  -7360866.216 4  -4686637.29247  23624532.17647
  21569317.836 7  -8905005.051 7  -5884890.17847  21569310.46547
  21120550.719 6 -16889212.404 6 -13460959.72148  21120542.35248
  23062760.898 4  -3164778.542 4  -2369405.84446  23062754.34846
  20329903.477 7 -21953225.665 7 -17134532.40149  20329894.28949
  20600882.141 7 -24802793.814 7 -16586389.05948  20600872.30948
  21176386.367 7 -18078283.050 7 -11773934.52948  21176376.82848
  21871714.336 6  -9532236.925 6 -11630775.53349  21871709.37149
 24 11 23  1 17  0.0000000  0  8G06G13G14G15G17G19G22G30            
  23604937.773 4  -7463846.903 4  -4766881.74747  23604936.38347
  21579400.547 6  -8852017.817 6  -5843601.43048  21579393.64548
  21126574.563 6 -16857557.286 6 -13436293.38448  21126566.72348
  23067439.180 4  -3140193.870 4  -2350248.94446  23067432.86346
  20335524.422 7 -21923689.117 7 -17111516.86449  20335514.64849
  20592120.289 6 -24848838.457 6 -16622267.93048  20592110.34048
  21178791.508 7 -18065643.656 7 -11764085.59248  21178781.67648
  21886172.352 6  -9456257.359 6 -11571570.67449  21886167.97349
 24 11 23  1 17 30.0000000  0  8G06G13G14G15G17G19G22G30            
  23585352.688 4  -7566759.749 4  -4847073.30147  23585351.94147
  21589575.406 7  -8798553.039 7  -5801940.58148  21589567.62548
  21132627.609 6 -16825747.152 6 -13411506.23548  21132619.53548
  23072212.883 2  -3115098.434 2  -2330694.08346  23072208.79746
  20341226.836 7 -21893717.584 7 -17088162.37949  20341217.94149
  20583444.563 7 -24894431.826 7 -16657795.16549  20583433.73449
  21181218.422 7 -18052889.710 7 -11754147.39948  21181208.59048
  21900701.555 6  -9379908.442 6 -11512078.00049  21900696.05949
 24 11 23  1 18  0.0000000  0  8G06G13G14G15G17G19G22G30            
  23565781.156 4  -7669603.520 4  -4927211.03247  23565780.05947
  21599838.898 6  -8744615.530 6  -5759911.35948  21599831.64548
  21138709.867 6 -16793783.809 6 -13386599.71348  21138702.08648
  23077086.992 2  -3089495.930 2  -2310744.10746  23077080.32446
  20347012.414 7 -21863315.606 7 -17064472.48249  20347003.34449
  20574853.984 7 -24939575.370 7 -16692971.87548  20574843.27348
  21183666.555 7 -18040023.415 7 -11744121.66448  21183657.30948
  21915300.336 6  -9303193.320 6 -11452299.98349  21915295.48849
 24 11 23  1 18 30.0000000  0  8G06G13G14G15G17G19G22G30            
  23546224.336 3  -7772375.320 3  -5007292.70747  23546222.59447
  21610192.188 6  -8690207.715 6  -5717515.67447  21610184.58247
  21144821.852 6 -16761667.594 6 -13361574.07548  21144813.89548
  23082054.047 2  -3063388.542 2  -2290400.66446  23082049.08246
  20352879.125 7 -21832485.313 7 -17040448.83749  20352870.23049
  20566348.930 6 -24984268.732 6 -16727797.79048  20566338.04348
  21186136.555 7 -18027045.184 7 -11734008.70048  21186127.01648
  21929968.094 6  -9226113.587 6 -11392237.86749  21929962.30549
 24 11 23  1 19  0.0000000  0  8G06G13G14G15G17G19G22G30            
  23526681.523 4  -7875071.719 4  -5087315.59647  23526680.89547
  21620635.094 6  -8635331.562 6  -5674755.03347  21620627.60547
  21150961.797 6 -16729397.927 6 -13336428.85248  21150953.95748
  23087118.766 3  -3036777.483 3  -2269664.78046  23087112.97746
  20358827.172 7 -21801228.010 7 -17016092.45549  20358817.86749
  20557930.180 7 -25028511.092 7 -16762272.27649  20557919.17649
  21188627.695 7 -18013954.959 7 -11723808.46348  21188617.86348
  21944704.844 6  -9148670.090 6 -11331892.30349  21944699.05549
 24 11 23  1 19 30.0000000  0  8G06G13G14G15G17G19G22G30            
  23507154.484 4  -7977690.176 4  -5167277.72547  23507152.56647
  21631166.484 6  -8579990.669 6  -5631632.27947  21631158.35247
  21157132.023 6 -16696975.306 6 -13311164.45048  21157123.89148
  23092276.828 1  -3009665.615 1  -2248538.64046  23092271.86346
  20364855.930 7 -21769546.085 7 -16991405.21049  20364846.85949
  20549596.406 7 -25072302.577 7 -16796395.43948  20549585.87148
  21191139.211 7 -18000753.588 7 -11713521.63448  21191129.61348
  21959511.828 6  -9070864.737 6 -11271264.77049  21959504.28149
 24 11 23  1 20  0.0000000  0  8G06G13G14G15G17G19G22G30            
  23487642.727 5  -8080225.996 5  -5247175.46548  23487641.62948
  21641785.195 6  -8524185.640 6  -5588147.84547  21641777.88347
  21163331.148 6 -16664398.141 6 -13285779.63348  21163322.89848
  23097532.398 3  -2982053.255 3  -2227022.56046  23097526.31646
  20370965.711 7 -21737439.878 7 -16966387.35849  20370956.52349
  20541349.313 7 -25115641.389 7 -16830165.87449  20541338.77749
  21193672.930 7 -17987439.831 7 -11703147.20948  21193662.98048
  21974385.445 6  -8992697.293 6 -11210355.08849  21974379.36349
 24 11 23  1 20 30.0000000  0  8G06G13G14G15G17G19G22G30            
  23468146.203 5  -8182678.827 5  -5327008.54248  23468146.10248
  21652492.086 6  -8467921.631 6  -5544305.78348  21652484.53948
  21169559.047 6 -16631669.165 6 -13260276.51648  21169551.03148
  23102879.563 2  -2953945.029 2  -2205120.11946  23102875.18446
  20377154.883 7 -21704914.391 7 -16941042.78949  20377145.98849
  20533187.758 7 -25158529.706 7 -16863585.26049  20533176.98849
  21196227.063 7 -17974016.519 7 -11692687.44248  21196217.17248
  21989327.625 6  -8914171.847 6 -11149166.45448  21989322.95348
 24 11 23  1 21  0.0000000  0  8G06G13G14G15G17G19G22G30            
  23448667.555 5  -8285041.020 5  -5406770.98148  23448665.69548
  21663286.211 6  -8411196.948 6  -5500104.72247  21663278.89847
  21175817.547 6 -16598783.635 6 -13234651.40848  21175809.00448
  23108323.664 3  -2925338.531 3  -2182829.38247  23108318.34447
  20383425.125 7 -21671967.027 7 -16915369.49149  20383415.64549
  20525113.445 7 -25200962.025 7 -16896649.33049  20525102.09049
  21198803.430 7 -17960479.552 7 -11682139.10648  21198793.36348
  22004339.789 6  -8835285.164 6 -11087696.34149  22004334.82449
 24 11 23  1 21 30.0000000  0  8G06G13G14G15G17G19G22G30            
  23429206.188 5  -8387314.212 5  -5486464.07547  23429202.80547
  21674167.547 6  -8354018.900 6  -5455550.40748  21674159.88348
  21182104.203 6 -16565746.315 6 -13208908.01848  21182095.89548
  23113861.211 4  -2896240.629 4  -2160155.73947  23113856.07047
  20389773.859 7 -21638604.342 7 -16889372.55949  20389764.49649
  20517124.016 7 -25242943.709 7 -16929362.25649  20517112.89549
  21201399.797 7 -17946833.923 7 -11671506.10548  21201390.37548
  22019418.828 6  -8756043.487 6 -11025949.58349  22019414.97749
 24 11 23  1 22  0.0000000  0  8G06G13G14G15G17G19G22G30            
  23409761.367 5  -8489492.173 5  -5566082.99647  23409758.57047
  21685134.719 6  -8296386.708 6  -5410642.20447  21685126.87947
  21188420.188 6 -16532554.069 6 -13183043.91248  21188412.34848
  23119491.766 4  -2866650.110 4  -2137098.22047  23119487.09447
  20396201.219 7 -21604825.136 7 -16863051.06049  20396192.14849
  20509221.359 7 -25284470.890 7 -16961721.01249  20509211.00049
  21204017.492 7 -17933076.541 7 -11660786.02848  21204007.83648
  22034565.852 6  -8676445.068 6 -10963924.85149  22034561.76649
 24 11 23  1 22 30.0000000  0  8G06G13G14G15G17G19G22G30            
  23390335.461 4  -8591572.802 4  -5645626.03847  23390334.36347
  21696187.430 6  -8238304.287 6  -5365383.18447  21696179.53147
  21194765.805 6 -16499207.734 6 -13157059.73048  21194757.08648
  23125216.797 3  -2836569.925 3  -2113659.13247  23125211.06647
  20402707.938 7 -21570632.432 7 -16836407.35749  20402698.51649
  20501405.789 7 -25325543.955 7 -16993725.90449  20501395.07849
  21206656.977 7 -17919208.968 7 -11649980.08648  21206646.67648
  22049781.125 6  -8596492.197 6 -10901623.89449  22049775.92249
 24 11 23  1 23  0.0000000  0  8G06G13G14G15G17G19G22G30            
  23370928.633 3  -8693553.204 3  -5725091.01447  23370926.18847
  21707324.242 6  -8179774.626 6  -5319775.66047  21707316.40247
  21201141.391 6 -16465707.559 6 -13130955.68248  21201132.37948
  23131033.727 4  -2806002.836 4  -2089840.60446  23131027.41046
  20409292.492 7 -21536028.723 7 -16809443.40049  20409283.18849
  20493675.992 7 -25366163.355 7 -17025377.30049  20493665.57449
  21209315.844 7 -17905231.964 7 -11639088.87248  21209306.83248
  22065062.352 6  -8516186.599 6 -10839048.11449  22065057.21149
 24 11 23  1 23 30.0000000  0  8G06G13G14G15G17G19G22G30            
  23351541.930 4  -8795429.418 4  -5804474.75747  23351538.60547
  21718547.258 6  -8120798.996 6  -5273820.62747  21718540.00447
  21207544.563 6 -16432052.538 6 -13104730.96548  21207537.01648
  23136942.133 2  -2774949.688 2  -2065643.32646  23136937.16846
  20415955.586 7 -21501015.194 7 -16782160.09049  20415946.10549
  20486032.875 7 -25406327.716 7 -17056674.12649  20486022.51649
  21211996.875 7 -17891144.495 7 -11628111.61748  21211987.45348
  22080410.844 6  -8435528.953 6 -10776198.02948  22080405.28948
 24 11 23  1 24  0.0000000  0  8G06G13G14G15G17G19G22G30            
  23332177.469 5  -8897199.036 5  -5883775.45247  23332172.09047
  21729854.102 6  -8061381.028 6  -5227520.92547  21729846.90647
  21213979.227 6 -16398243.316 6 -13078386.08248  21213970.50848
  23142943.055 2  -2743413.163 2  -2041069.40546  23142937.97346
  20422696.375 7 -21465594.451 7 -16754559.47149  20422686.71949
  20478476.336 7 -25446037.402 7 -17087616.66149  20478465.97749
  21214698.680 7 -17876947.437 7 -11617048.93648  21214688.32048
  22095825.430 6  -8354521.329 6 -10713075.26748  22095820.05148
 24 11 23  1 24 30.0000000  0  8G06G13G14G15G17G19G22G30            
  23312831.328 5  -8998857.650 5  -5962989.69948  23312827.71148
  21741245.195 6  -8001522.363 6  -5180877.80847  21741237.12147
  21220442.023 6 -16364278.557 6 -13051920.00248  21220433.24648
  23149035.141 2  -2711394.511 2  -2016119.75746  23149030.82046
  20429513.594 7 -21429766.838 7 -16726641.82049  20429504.46549
  20471006.875 7 -25485290.844 7 -17118203.67949  20470996.22349
  21217420.758 7 -17862640.041 7 -11605900.27248  21217411.27748
  22111308.008 6  -8273163.947 6 -10649679.94448  22111301.92648
 24 11 23  1 25  0.0000000  0  8G06G13G14G15G17G19G22G30            
  23293507.086 5  -9100403.096 5  -6042115.78948  23293504.87548
  21752719.086 6  -7941226.458 6  -5133893.96647  21752710.83647
  21226934.164 6 -16330159.163 6 -13025333.41248  21226926.32448
  23155221.336 3  -2678896.674 3  -1990796.74246  23155215.13746
  20436408.359 7 -21393536.428 7 -16698410.28749  20436398.70349
  20463624.195 7 -25524088.699 7 -17148435.69949  20463612.60549
  21220164.031 7 -17848223.264 7 -11594666.40648  21220155.54748
  22126856.352 6  -8191459.218 6 -10586013.93648  22126850.44548
 24 11 23  1 25 30.0000000  0  8G06G13G14G15G17G19G22G30            
  23274205.664 4  -9201832.527 4  -6121151.47847  23274203.27747
  21764275.266 6  -7880496.264 6  -5086571.74047  21764267.83647
  21233456.672 6 -16295885.266 6 -12998626.44648  21233448.83248
  23161495.766 4  -2645922.260 4  -1965102.39246  23161489.85946
  20443378.703 7 -21356905.030 7 -16669866.29949  20443369.69149
  20456327.445 7 -25562431.254 7 -17178312.95649  20456316.55949
  21222928.883 7 -17833697.711 7 -11583347.78248  21222918.52348
  22142470.445 6  -8109408.938 6 -10522078.65349  22142465.00849
 24 11 23  1 26  0.0000000  0  8G06G13G14G15G17G19G22G30            
  23254926.484 4  -9303143.587 4  -6200094.89947  23254924.80147
  21775913.453 6  -7819335.641 6  -5038914.11647  21775906.31647
  21240008.617 6 -16261457.588 6 -12971799.65748  21240000.07448
  23167861.688 1  -2612474.119 1  -1939038.85846  23167855.43046
  20450425.352 7 -21319875.453 7 -16641012.04449  20450415.81349
  20449118.055 7 -25600318.848 7 -17207835.69049  20449106.23049
  21225713.367 7 -17819064.408 7 -11571945.17048  21225703.18448
  22158148.945 6  -8027015.404 6 -10457875.90248  22158143.86348
 24 11 23  1 26 30.0000000  0  8G06G13G14G15G17G19G22G30            
  23235671.703 5  -9404330.175 5  -6278941.35748  23235668.61348
  21787633.820 6  -7757744.055 6  -4990920.65647  21787626.39147
  21246589.000 6 -16226872.965 6 -12944850.57748  21246581.21948
  23174315.461 1  -2578551.589 1  -1912605.78845  23174310.61345
  20457548.039 7 -21282446.689 7 -16611846.73649  20457538.32449
  20441995.383 7 -25637748.323 7 -17237001.44749  20441983.91049
  21228518.750 7 -17804320.594 7 -11560456.44748  21228509.44548
  22173893.258 6  -7944277.040 6 -10393404.46348  22173888.76248
 24 11 23  1 27  0.0000000  0  8G06G13G14G15G17G19G22G30            
  23216443.180 5  -9505382.684 5  -6357683.33148  23216438.74248
  21799437.266 6  -7695717.695 6  -4942588.45347  21799429.54347
  21253201.172 6 -16192125.022 6 -12917774.22748  21253193.09848
  23180859.08611                  -3113399.68355  23180856.99255
  20464746.906 7 -21244614.671 7 -16582367.20249  20464737.07449
  20434961.359 7 -25674713.359 7 -17265805.30549  20434949.94549
  21231346.594 7 -17789459.986 7 -11548876.73248  21231336.82048
  22189704.891 6  -7861189.061 6 -10328660.60148  22189700.10248
 24 11 23  1 27 30.0000000  0  7G06G13G14G17G19G22G30               
  23197234.570 5  -9606315.638 5  -6436332.16148  23197230.77748
  21811319.617 6  -7633277.197 6  -4893933.52147  21811311.48447
  21259841.508 6 -16157231.183 6 -12890584.18348  21259833.14148
  20472019.242 7 -21206398.726 7 -16552588.51249  20472009.93849
  20428011.742 7 -25711231.321 7 -17294260.81749  20428001.14849
  21234193.133 7 -17774500.300 7 -11537219.81148  21234183.53548
  22205578.156 6  -7777770.583 6 -10263659.21748  22205573.66048
 24 11 23  1 28  0.0000000  0  7G06G13G14G17G19G22G30               
  23178053.094 5  -9707114.672 5  -6514876.61748  23178049.53548
  21823281.633 6  -7570413.974 6  -4844949.20647  21823274.73047
  21266511.859 6 -16122180.189 6 -12863271.69448  21266503.55148
  20479366.602 7 -21167790.240 7 -16522503.94849  20479356.71149
  20421149.336 7 -25747290.749 7 -17322359.01749  20421138.91849
  21237061.180 7 -17759430.790 7 -11525477.28448  21237051.40648
  22221516.844 6  -7694012.042 6 -10198392.84248  22221512.05548
 24 11 23  1 28 30.0000000  0  7G06G13G14G17G19G22G30               
  23158897.484 5  -9807779.758 5  -6593316.66148  23158893.28148
  21835323.477 6  -7507133.883 6  -4795640.04647  21835316.34047
  21273210.852 6 -16086975.006 6 -12835839.03948  21273202.60248
  20486787.219 7 -21128794.147 7 -16492117.36249  20486777.15249
  20414373.977 7 -25782894.739 7 -17350102.33649  20414363.14849
  21239949.039 7 -17744254.572 7 -11513651.62748  21239939.14848
  22237519.789 6  -7609917.985 6 -10132865.03548  22237514.00048
 24 11 23  1 29  0.0000000  0  7G06G13G14G17G19G22G30               
  23139767.063 5  -9908304.268 5  -6671647.19647  23139764.55947
  21847445.180 6  -7443436.480 6  -4746005.70947  21847437.51647
  21279939.664 6 -16051611.988 6 -12808283.40348  21279932.11748
  20494281.617 7 -21089408.778 7 -16461427.43349  20494271.90249
  20407686.297 7 -25818039.643 7 -17377487.92149  20407675.41049
  21242857.992 7 -17728968.421 7 -11501740.30148  21242848.04348
  22253586.523 6  -7525486.551 6 -10067074.33348  22253579.97348
 24 11 23  1 29 30.0000000  0  7G06G13G14G17G19G22G30               
  23120664.000 4 -10008687.852 4  -6749867.96348  23120661.61348
  21859644.422 6  -7379327.692 6  -4696050.81647  21859636.99247
  21286699.797 6 -16016093.995 6 -12780607.00748  21286690.49248
  20501849.008 7 -21049639.828 7 -16430438.62249  20501839.87949
  20401084.898 7 -25852728.256 7 -17404517.95649  20401074.36349
  21245787.250 7 -17713575.185 7 -11489745.52848  21245777.24248
  22269716.844 6  -7440722.218 6 -10001024.24148  22269710.41048
 24 11 23  1 30  0.0000000  0  7G06G13G14G17G19G22G30               
  23101587.922 4 -10108927.900 4  -6827976.88948  23101586.76648
  21871922.594 6  -7314810.269 6  -4645777.51547  21871914.69547
  21293487.453 6 -15980421.332 6 -12752810.09448  21293478.85248
  20509490.297 7 -21009489.818 7 -16399152.87249  20509480.23049
  20394571.094 7 -25886961.075 7 -17431192.81449  20394560.44149
  21248736.719 7 -17698075.725 7 -11477667.98348  21248726.06648
  22285910.422 6  -7355627.111 6  -9934716.39548  22285904.04748
 24 11 23  1 30 30.0000000  0  7G06G13G14G17G19G22G30               
  23082543.703 5 -10209015.563 5  -6905967.03148  23082539.91048
  21884277.367 6  -7249881.622 6  -4595183.78247  21884269.87947
  21300305.984 6 -15944588.116 6 -12724888.05248  21300297.50048
  20517203.148 7 -20968954.966 7 -16367567.25249  20517193.49249
  20388144.805 7 -25920731.973 7 -17457507.74449  20388133.80149
  21251707.234 7 -17682464.404 7 -11465503.27548  21251697.10948
  22302166.125 6  -7270196.955 6  -9868147.44848  22302161.33648
 24 11 23  1 31  0.0000000  0  7G06G13G14G17G19G22G30               
  23063526.711 5 -10308953.264 5  -6983840.30148  23063522.80148
  21896709.266 6  -7184550.048 6  -4544276.06047  21896702.42247
  21307154.688 6 -15908599.824 6 -12696845.18348  21307146.26248
  20524988.461 7 -20928042.679 7 -16335687.53549  20524978.74649
  20381804.664 7 -25954046.948 7 -17483467.40449  20381794.18849
  21254697.875 7 -17666746.924 7 -11453255.84448  21254688.16048
  22318485.352 6  -7184439.078 6  -9801323.15348  22318480.62148
 24 11 23  1 31 30.0000000  0  7G06G13G14G17G19G22G30               
  23044538.070 5 -10408735.782 5  -7061592.67548  23044534.33648
  21909218.273 6  -7118816.568 6  -4493055.18047  21909210.96147
  21314032.719 6 -15872454.319 6 -12668679.82748  21314024.11748
  20532845.641 7 -20886753.600 7 -16303514.21449  20532835.80949
  20375552.453 7 -25986903.601 7 -17509069.92249  20375541.62549
  21257709.172 7 -17650921.426 7 -11440924.24048  21257699.69148
  22334867.641 6  -7098353.082 6  -9734243.16948  22334862.26248
 24 11 23  1 32  0.0000000  0  7G06G13G14G17G19G22G30               
  23025579.180 5 -10508361.223 5  -7139222.65848  23025575.97348
  21921803.328 6  -7052685.348 6  -4441524.37747  21921795.25447
  21320940.305 6 -15836152.732 6 -12640392.82248  21320932.17248
  20540773.273 7 -20845091.038 7 -16271049.85749  20540763.96949
  20369387.109 7 -26019303.528 7 -17534316.53349  20369375.46149
  21260741.820 7 -17634989.425 7 -11428509.63548  21260731.75448
  22351311.164 6  -7011941.872 6  -9666909.78248  22351304.96548
 24 11 23  1 32 30.0000000  0  7G06G13G14G17G19G22G30               
  23006650.438 4 -10607823.961 4  -7216725.84348  23006649.16448
  21934462.297 6  -6986156.696 6  -4389683.89747  21934454.69147
  21327879.313 6 -15799692.375 6 -12611982.11248  21327870.24248
  20548772.867 7 -20803054.486 7 -16238294.08549  20548763.03549
  20363309.063 7 -26051243.911 7 -17559205.06849  20363297.59049
  21263793.422 7 -17618948.250 7 -11416009.96548  21263784.05948
  22367816.656 6  -6925204.516 6  -9599322.26048  22367810.57448
 24 11 23  1 33  0.0000000  0  7G06G13G14G17G19G22G30               
  22987753.383 4 -10707120.932 4  -7294099.88148  22987752.81348
  21947197.461 6  -6919233.547 6  -4337536.00347  21947190.20747
  21334847.133 6 -15763073.309 6 -12583447.73348  21334838.53148
  20556842.938 7 -20760646.254 7 -16205248.68349  20556833.10549
  20357317.617 7 -26082725.105 7 -17583735.79049  20357306.84849
  21266866.813 7 -17602798.324 7 -11403425.55648  21266856.92248
  22384384.656 6  -6838142.932 6  -9531482.11748  22384377.81348
 24 11 23  1 33 30.0000000  0  7G06G13G14G17G19G22G30               
  22968891.891 5 -10806251.145 5  -7371343.97548  22968888.09848
  21960006.977 6  -6851921.102 6  -4285084.75747  21959999.54747
  21341845.148 6 -15726297.463 6 -12554791.19448  21341836.95748
  20564982.617 7 -20717871.112 7 -16171917.37449  20564973.19549
  20351414.109 7 -26113749.167 7 -17607910.30949  20351402.81349
  21269960.313 7 -17586541.841 7 -11390758.11248  21269950.07048
  22401012.609 6  -6750760.853 6  -9463392.22748  22401006.46948
 24 11 23  1 34  0.0000000  0  7G06G13G14G17G19G22G30               
  22950060.883 5 -10905211.357 5  -7448455.64848  22950056.21148
  21972889.211 6  -6784222.173 6  -4232332.35247  21972882.01647
  21348873.148 7 -15689364.581 7 -12526012.28248  21348864.84048
  20573191.898 7 -20674730.345 7 -16138301.16249  20573182.30149
  20345597.680 7 -26144316.171 7 -17631728.67749  20345586.79349
  21273074.461 7 -17570178.829 7 -11378007.65448  21273064.27748
  22417701.828 6  -6663059.891 6  -9395053.83148  22417696.15648
 24 11 23  1 34 30.0000000  0  7G06G13G14G17G19G22G30               
  22931263.078 6 -11003996.974 6  -7525431.24248  22931257.99648
  21985845.680 6  -6716138.453 6  -4179280.12247  21985838.42647
  21355931.359 6 -15652273.155 6 -12497109.84948  21355923.05148
  20581470.836 7 -20631225.526 7 -16104401.26849  20581461.23849
  20339868.297 7 -26174424.721 7 -17655189.79849  20339857.00049
  21276208.281 6 -17553708.086 6 -11365173.26248  21276198.85948
  22434450.250 5  -6575040.424 5  -9326467.26348  22434446.04748
 24 11 23  1 35  0.0000000  0  7G06G13G14G17G19G22G30               
  22912498.609 6 -11102606.007 6  -7602269.21548  22912492.17648
  21998874.211 6  -6647673.536 6  -4125930.85747  21998866.37147
  21363020.211 7 -15615024.164 7 -12468084.63448  21363011.25848
  20589817.680 7 -20587359.850 7 -16070220.18349  20589808.66849
  20334225.492 7 -26204075.980 7 -17678294.59549  20334214.25449
  21279362.688 7 -17537130.939 7 -11352255.94348  21279352.91448
  22451260.117 5  -6486705.182 5  -9257634.61648  22451255.44548
 24 11 23  1 35 30.0000000  0  8G06G13G14G15G17G19G22G30            
  22893765.172 6 -11201049.657 6  -7678978.34048  22893758.85548
  22011971.164 6  -6578845.127 6  -4072298.34547  22011964.02747
  21370135.336 6 -15577631.829 6 -12438947.70948  21370127.14548
  23305399.63312    858858.51912  -2854792.84456  23305395.02056
  20598231.094 7 -20543149.497 7 -16035770.50849  20598221.37949
  20328667.445 7 -26233284.726 7 -17701054.58849  20328656.03149
  21282534.570 7 -17520461.521 7 -11339266.71748  21282525.26648
  22468127.445 6  -6398070.321 6  -9188568.50448  22468122.42248
 24 11 23  1 36  0.0000000  0  8G06G13G14G15G17G19G22G30            
  22875069.016 6 -11299291.569 6  -7755530.29048  22875064.40248
  22025144.531 6  -6509622.797 6  -4018358.89347  22025136.63347
  21377284.281 6 -15540062.793 6 -12409673.10048  21377276.03148
  23313480.266 1    901329.584 1  -2821698.52746  23313476.82446
  20606714.867 7 -20498563.917 7 -16001028.45449  20606705.62149
  20323199.023 7 -26262017.660 7 -17723443.81149  20323188.13749
  21285731.070 7 -17503666.763 7 -11326179.82648  21285721.41448
  22485057.289 6  -6309104.372 6  -9119244.40748  22485052.20748
 24 11 23  1 36 30.0000000  0  8G06G13G14G15G17G19G22G30            
  22856409.336 5 -11397348.750 5  -7831938.32448  22856404.43048
  22038386.953 6  -6440029.854 6  -3964130.63447  22038380.52047
  21384463.578 6 -15502337.021 6 -12380276.37048  21384454.68448
  23321646.289 4    944223.999 4  -2788274.36946  23321638.97746
  20615266.797 7 -20453625.285 7 -15966011.29349  20615257.49249
  20317818.352 7 -26290295.116 7 -17745478.12849  20317806.99649
  21288946.984 7 -17486766.863 7 -11313011.03248  21288937.62148
  22502045.289 6  -6219829.254 6  -9049679.40948  22502039.79348
 24 11 23  1 37  0.0000000  0  8G06G13G14G15G17G19G22G30            
  22837785.992 6 -11495215.001 6  -7908197.54748  22837781.78948
  22051700.633 6  -6370066.227 6  -3909613.52547  22051693.90647
  21391673.047 6 -15464451.358 6 -12350755.05548  21391664.32848
  23329887.422 3    987542.125 3  -2754520.02547  23329883.04347
  20623886.023 7 -20408332.349 7 -15930718.04449  20623876.19149
  20312524.703 7 -26318114.369 7 -17767155.40449  20312513.23049
  21292182.875 7 -17469759.236 7 -11299758.29048  21292172.86748
  22519092.352 5  -6130243.714 5  -8979872.51348  22519086.56348
 24 11 23  1 37 30.0000000  0  8G06G13G14G15G17G19G22G30            
  22819199.859 6 -11592886.577 6  -7984305.09448  22819195.59848
  22065083.508 6  -6299734.465 6  -3854809.57647  22065077.25047
  21398912.359 6 -15426405.044 6 -12321108.54448  21398904.10948
  23338210.602 4   1031282.159 4  -2720436.90047  23338205.04747
  20632571.375 7 -20362687.406 7 -15895150.50249  20632562.12949
  20307317.906 7 -26345474.886 7 -17788475.22949  20307306.90249
  21295440.461 7 -17452643.115 7 -11286421.00048  21295429.98448
  22536199.242 5  -6040348.878 5  -8909824.63348  22536192.92648
 24 11 23  1 38  0.0000000  0  8G06G13G14G15G17G19G22G30            
  22800650.938 6 -11690361.471 6  -8060259.39748  22800646.67648
  22078537.289 6  -6229038.673 6  -3799721.96147  22078529.80147
  21406183.000 6 -15388199.087 6 -12291337.63748  21406174.69148
  23346612.680 3   1075440.478 3  -2686027.89846  23346608.59446
  20641323.891 7 -20316693.878 7 -15859311.34549  20641314.23449
  20302198.539 7 -26372378.134 7 -17809438.75349  20302187.12549
  21298717.672 7 -17435419.791 7 -11273000.16548  21298707.72348
  22553363.828 5  -5950147.773 5  -8839538.06448  22553358.03948
 24 11 23  1 38 30.0000000  0  8G06G13G14G15G17G19G22G30            
  22782139.109 6 -11787637.338 6  -8136058.62348  22782136.02048
  22092058.547 6  -6157982.647 6  -3744353.65247  22092051.76247
  21413483.883 6 -15349834.064 6 -12261442.79448  21413474.93048
  23355096.523 2   1120013.506 2  -2651295.70546  23355091.02746
  20650142.063 7 -20270354.250 7 -15823202.49849  20650132.34849
  20297165.922 7 -26398824.946 7 -17830046.61049  20297154.50849
  21302015.195 7 -17418089.972 7 -11259496.34848  21302004.89548
  22570586.602 6  -5859642.936 6  -8769014.83148  22570581.39848
 24 11 23  1 39  0.0000000  0  8G06G13G14G15G17G19G22G30            
  22763668.750 6 -11884698.245 6  -8211690.35448  22763665.19148
  22105651.258 6  -6086556.501 6  -3688696.92247  22105643.82847
  21420817.578 6 -15311297.080 6 -12231413.92848  21420808.74248
  23363657.80511                  -3843832.62456  23363653.54356
  20659027.711 7 -20223658.446 7 -15786816.10549  20659018.46549
  20292222.344 7 -26424802.973 7 -17850289.18249  20292211.04749
  21305336.891 7 -17400641.215 7 -11245899.88648  21305325.65248
  22587869.734 6  -5768823.372 6  -8698246.36248  22587863.35948
 24 11 23  1 39 30.0000000  0  7G06G13G14G17G19G22G30               
  22745234.805 5 -11981565.019 5  -8287170.80448  22745231.18848
  22119308.328 6  -6014787.345 6  -3632772.91247  22119300.84047
  21428177.961 6 -15272611.980 6 -12201269.65248  21428170.12148
  20667976.898 7 -20176632.343 7 -15750172.34549  20667967.30149
  20287363.656 7 -26450336.509 7 -17870185.39749  20287352.06649
  21308673.320 7 -17383097.237 7 -11232229.20748  21308663.54748
  22605207.234 5  -5677714.923 5  -8627252.79148  22605200.74248
 24 11 23  1 40  0.0000000  0  7G06G13G14G17G19G22G30               
  22726842.094 6 -12078222.121 6  -8362487.84948  22726837.59848
  22133032.109 6  -5942666.137 6  -3576574.56347  22133024.97347
  21435570.633 7 -15233766.145 7 -12171000.10848  21435562.14848
  20676989.563 7 -20129266.274 7 -15713263.67349  20676980.08249
  20282591.320 7 -26475413.290 7 -17889725.70249  20282580.14149
  21312032.406 7 -17365445.758 7 -11218474.74748  21312022.28148
  22622600.758 5  -5586306.949 5  -8556025.84348  22622594.79348
 24 11 23  1 40 30.0000000  0  8G06G13G14G15G17G19G22G30            
  22708485.602 5 -12174681.209 5  -8437650.63148  22708481.45748
  22146820.055 6  -5870210.371 6  -3520115.55747  22146812.44947
  21442990.297 6 -15194774.175 6 -12140616.70348  21442981.40248
  23389803.72711   -273024.48411  -3783655.71056  23389797.05956
  20686065.242 7 -20081577.059 7 -15676103.19949  20686055.64549
  20277903.375 7 -26500048.401 7 -17908921.84649  20277891.96149
  21315409.828 7 -17347701.480 7 -11204647.98948  21315398.76648
  22640048.156 5  -5494616.227 5  -8484578.55448  22640042.77748
 24 11 23  1 41  0.0000000  0  8G06G13G14G15G17G19G22G30            
  22690175.008 5 -12270907.364 5  -8512631.87148  22690170.04348
  22160677.742 6  -5797391.334 6  -3463373.49447  22160670.13747
  21450443.617 6 -15155604.162 6 -12110094.58948  21450435.89548
  23398675.18812   -226410.79612  -3747333.47956  23398668.75456
  20695207.227 7 -20033535.133 7 -15638667.89049  20695197.57049
  20273305.672 7 -26524210.479 7 -17927749.37949  20273294.19949
  21318810.070 7 -17329832.843 7 -11190724.31148  21318799.30148
  22657556.297 5  -5402612.713 5  -8412887.54848  22657550.85948
 24 11 23  1 41 30.0000000  0  8G06G13G14G15G17G19G22G30            
  22671907.391 6 -12366904.601 6  -8587434.76348  22671903.24648
  22174601.547 6  -5724219.629 6  -3406356.60247  22174594.00047
  21457930.500 6 -15116263.123 6 -12079439.18648  21457922.13348
  23407622.05511                  -3710692.03155  23407617.44155
  20704414.188 7 -19985149.962 7 -15600965.12849  20704404.70749
  20268796.313 7 -26547906.767 7 -17946213.95749  20268784.84049
  21322233.281 7 -17311847.120 7 -11176709.42148  21322222.39548
  22675121.383 5  -5310305.523 5  -8340959.89248  22675117.41448
 24 11 23  1 42  0.0000000  0  8G06G13G14G15G17G19G22G30            
  22653677.352 5 -12462699.606 5  -8662080.07548  22653673.44148
  22188586.742 6  -5650727.840 6  -3349090.29347  22188579.31347
  21465444.094 6 -15076780.714 6 -12048673.63448  21465435.14148
  23416640.58611   -131987.32411  -3673756.84055  23416639.02055
  20713681.180 7 -19936453.328 7 -15563019.65249  20713671.28949
  20264369.852 7 -26571167.652 7 -17964339.25649  20264358.37949
  21325671.203 7 -17293773.880 7 -11162626.34048  21325661.54748
  22692739.336 5  -5217726.254 5  -8268820.23048  22692735.13348
 24 11 23  1 42 30.0000000  0  8G06G13G14G15G17G19G22G30            
  22635494.766 5 -12558251.880 5  -8736536.25548  22635490.44548
  22202639.281 6  -5576881.766 6  -3291547.90147  22202631.96947
  21472991.219 6 -15037119.348 6 -12017768.62048  21472982.44148
  23425741.25011                                
  20723013.211 7 -19887410.733 7 -15524804.60449  20723003.55549
  20260033.625 7 -26593956.083 7 -17982096.42149  20260021.91849
  21329134.539 7 -17275575.948 7 -11148446.09048  21329124.06348
  22710415.406 5  -5124839.500 5  -8196440.94948  22710410.79348
 24 11 23  1 43  0.0000000  0  8G06G13G14G15G17G19G22G30            
  22617352.672 6 -12653593.643 6  -8810828.38948  22617347.29348
  22216752.016 6  -5502719.771 6  -3233759.37247  22216744.29347
  21480565.484 6 -14997314.209 6 -11986751.58348  21480556.94148
  23434911.79711    -35990.27711                
  20732404.453 7 -19838059.424 7 -15486349.00649  20732395.14849
  20255779.531 7 -26616307.949 7 -17999513.39849  20255768.76249
  21332614.602 7 -17257288.641 7 -11134196.20048  21332604.53548
  22728142.719 5  -5031682.489 5  -8123851.07948  22728138.57448
 24 11 23  1 43 30.0000000  0  8G06G13G14G15G17G19G22G30            
  22599255.656 6 -12748694.381 6  -8884932.70948  22599250.10248
  22230928.891 6  -5428218.071 6  -3175706.12847  22230921.52047
  21488173.211 6 -14957337.663 6 -11955601.01048  21488164.25848
  23444156.45311     12593.24611                
  20741859.328 7 -19788374.512 7 -15447633.44649  20741849.61349
  20251614.352 7 -26638195.958 7 -18016568.93749  20251603.17249
  21336116.320 7 -17238884.463 7 -11119855.22648  21336106.25448
  22745925.727 5  -4938229.648 5  -8051030.69648  22745921.28948
 24 11 23  1 44  0.0000000  0  9G06G13G14G15G17G19G22G24G30         
  22581203.008 6 -12843557.985 6  -8958852.25548  22581198.45348
  22245169.141 6  -5353386.651 6  -3117395.92847  22245162.06347
  21495811.539 6 -14917196.727 6 -11924322.31448  21495802.76248
  23453475.72711     61565.23511                
  20751376.063 7 -19738365.212 7 -15408665.13449  20751365.87949
  20247536.172 7 -26659627.665 7 -18033268.90049  20247524.75849
  21339639.813 7 -17220370.778 7 -11105428.93048  21339629.62948
  23170812.10911  -1296714.71811   -414388.39356  23170806.32056
  22763763.891 5  -4844490.079 5  -7977986.89748  22763757.98448
 24 11 23  1 44 30.0000000  0  9G06G13G14G15G17G19G22G24G30         
  22563196.047 6 -12938185.846 6  -9032588.12948  22563191.37548
  22259470.430 6  -5278232.864 6  -3058834.56247  22259462.53147
  21503480.578 6 -14876895.600 6 -11892918.81848  21503471.91848
  23462865.008 1    110918.173 1                
  20760952.750 7 -19688038.477 7 -15369449.45249  20760942.33249
  20243543.641 7 -26680608.028 7 -18049617.16549  20243532.16849
  21343182.984 7 -17201751.956 7 -11090920.71048  21343173.03548
  23153388.242 1  -1388275.017 1   -485733.85046  23153383.62946
  22781655.352 5  -4750470.139 5  -7904724.63948  22781649.21148
 24 11 23  1 45  0.0000000  0  8G06G13G14G17G19G22G24G30            
  22545236.242 6 -13032566.938 6  -9106131.69348  22545230.80548
  22273833.633 6  -5202751.733 6  -3000018.11347  22273826.55547
  21511182.031 7 -14836426.118 7 -11861384.13748  21511173.02048
  20770591.031 7 -19637388.611 7 -15329981.98349  20770580.90649
  20239638.641 7 -26701129.477 7 -18065607.83549  20239626.75849
  21346747.227 7 -17183019.826 7 -11076324.19148  21346737.04348
  23136016.352 1  -1479554.950 1   -556860.81846  23136013.55546
  22799600.352 5  -4656163.813 5  -7831239.23048  22799595.27048
 24 11 23  1 45 30.0000000  0  8G06G13G14G17G19G22G24G30            
  22527322.023 6 -13126702.476 6  -9179483.88648  22527317.00048
  22288258.750 6  -5126951.526 6  -2940953.06647  22288250.61747
  21518913.820 6 -14795792.607 6 -11829721.63148  21518905.80548
  20780290.063 7 -19586421.648 7 -15290267.42549  20780279.76249
  20235819.922 7 -26721197.053 7 -18081244.82949  20235808.39149
  21350332.313 7 -17164178.822 7 -11061642.84748  21350322.36348
  23118697.609 1  -1570556.208 1   -627770.66846  23118696.27746
  22817599.906 6  -4561577.387 6  -7757535.54848  22817595.58648
 24 11 23  1 46  0.0000000  0  8G06G13G14G17G19G22G24G30            
  22509454.781 5 -13220590.244 5  -9252643.04648  22509450.81348
  22302742.883 6  -5050835.595 6  -2881641.96647  22302734.98447
  21526677.398 6 -14754995.683 6 -11797931.79248  21526668.56348
  20790047.844 7 -19535141.540 7 -15250308.86949  20790037.83649
  20232086.672 7 -26740811.878 7 -18096529.04149  20232075.37549
  21353938.711 7 -17145229.735 7 -11046877.29948  21353928.29348
  23101434.195 1  -1661277.188 1   -698462.10546  23101432.33646
  22835652.430 6  -4466713.717 6  -7683615.85648  22835647.46548
 24 11 23  1 46 30.0000000  0  8G06G13G14G17G19G22G24G30            
  22491635.289 5 -13314227.228 5  -9325606.81948  22491632.43448
  22317285.945 6  -4974407.669 6  -2822087.78047  22317278.28147
  21534471.844 7 -14714035.371 7 -11766014.63648  21534462.59848
  20799865.227 7 -19483550.660 7 -15210108.15249  20799855.57049
  20228440.445 7 -26759974.716 7 -18111461.04949  20228428.79749
  21357564.367 7 -17126172.926 7 -11032027.77748  21357554.30148
  23084226.797 2  -1751715.614 2   -768933.37546  23084221.65646
  22853757.070 6  -4371574.959 6  -7609481.79348  22853752.63348
 24 11 23  1 47  0.0000000  0  9G06G13G14G15G17G19G22G24G30         
  22473865.203 5 -13407614.255 5  -9398375.82048  22473861.11748
  22331887.258 6  -4897674.704 6  -2762295.88147  22331879.94547
  21542296.734 7 -14672915.296 7 -11733972.99348  21542288.07448
  23510906.12511   -347564.90911  -3503485.49256  23510900.33656
  20809740.680 7 -19431655.084 7 -15169670.00849  20809731.14149
  20224878.945 7 -26778689.980 7 -18126044.29649  20224867.29749
  21361210.859 7 -17107011.941 7 -11017097.08948  21361200.73448
  23067070.563 3  -1841872.833 3   -839185.50246  23067064.65646
  22871913.414 6  -4276166.942 6  -7535137.89648  22871907.85948
 24 11 23  1 47 30.0000000  0  9G06G13G14G15G17G19G22G24G30         
  22456144.625 6 -13500739.085 6  -9470940.51848  22456139.89548
  22346549.000 6  -4820630.738 6  -2702261.64747  22346540.69147
  21550153.438 6 -14631626.122 6 -11701799.59448  21550144.25048
  23520723.719 1   -295962.222 1  -3463275.63446  23520720.27746
  20819675.438 7 -19379447.784 7 -15128988.95949  20819665.84049
  20221404.148 7 -26796949.063 7 -18140272.07849  20221392.38349
  21364878.195 6 -17087737.764 6 -11002078.21948  21364868.77348
  23049968.578 3  -1931737.164 3   -909209.42346  23049963.78946
  22890120.602 5  -4180482.518 5  -7460578.62548  22890115.75448
 24 11 23  1 48  0.0000000  0  9G06G13G14G15G17G19G22G24G30         
  22438473.297 6 -13593601.353 6  -9543300.59448  22438469.44548
  22361268.758 6  -4743281.651 6  -2641989.66347  22361261.15247
  21558042.008 6 -14590170.461 6 -11669496.45548  21558033.64148
  23530614.320 2   -243993.348 2  -3422780.45046  23530609.00046
  20829668.383 7 -19326933.985 7 -15088069.08449  20829658.84449
  20218016.055 7 -26814755.107 7 -18154146.84649  20218004.46549
  21368567.789 7 -17068353.188 7 -10986973.32148  21368557.25448
  23032923.234 2  -2021308.804 2   -979005.26146  23032918.27046
  22908380.141 5  -4084526.403 5  -7385807.61948  22908375.82048
 24 11 23  1 48 30.0000000  0  9G06G13G14G15G17G19G22G24G30         
  22420851.734 5 -13686200.782 5  -9615455.88148  22420848.35248
  22376044.414 6  -4665633.573 6  -2581484.70347  22376037.10247
  21565962.344 6 -14548550.964 6 -11637065.65748  21565953.15648
  23540570.938 3   -191664.241 3  -3382004.56846  23540566.91046
  20839718.813 6 -19274118.824 6 -15046914.39049  20839709.03949
  20214713.109 7 -26832111.841 7 -18167671.50949  20214701.57849
  21372276.375 7 -17048860.738 7 -10971784.37648  21372266.19148
  23015933.625 2  -2110588.160 2  -1048573.36246  23015928.54346
  22926690.813 6  -3988303.493 6  -7310828.71948  22926686.78548
 24 11 23  1 49  0.0000000  0  9G06G13G14G15G17G19G22G24G30         
  22403282.031 6 -13778532.398 6  -9687402.48648  22403277.94548
  22390875.961 6  -4587687.584 6  -2520747.61547  22390869.52747
  21573913.695 6 -14506765.432 6 -11604505.46248  21573905.09448
  23550598.469 3   -138975.754 3  -3340948.61446  23550593.50446
  20849825.914 7 -19221002.752 7 -15005525.20649  20849816.72749
  20211495.828 7 -26849017.769 7 -18180844.88249  20211484.12149
  21376006.773 7 -17029258.659 7 -10956509.97648  21375996.47348
  22999000.000 2  -2199570.707 2  -1117910.22646  22998995.97346
  22945052.078 6  -3891813.789 6  -7235641.97748  22945048.28548
 24 11 23  1 49 30.0000000  0  9G06G13G14G15G17G19G22G24G30         
  22385763.297 6 -13870593.138 6  -9759138.01448  22385758.62548
  22405765.406 6  -4509447.106 6  -2459781.03647  22405757.62547
  21581897.000 6 -14464813.796 6 -11571815.87348  21581888.22348
  23560693.094 3    -85930.547 3  -3299614.71147  23560687.59847
  20859990.984 7 -19167588.194 7 -14963903.44049  20859980.97749
  20208364.195 7 -26865473.371 7 -18193667.35749  20208352.66449
  21379758.313 7 -17009546.789 7 -10941150.02948  21379747.71948
  22982123.875 1  -2288254.045 1  -1187013.89646  22982119.14546
  22963463.914 6  -3795059.376 6  -7160248.96248  22963459.12548
 24 11 23  1 50  0.0000000  0  9G06G13G14G15G17G19G22G24G30         
  22368297.336 6 -13962379.983 6  -9830660.14148  22368292.19548
  22420709.203 6  -4430915.296 6  -2398587.45447  22420701.89147
  21589912.102 6 -14422695.871 6 -11538996.69548  21589902.97348
  23570853.766 4    -32531.973 4  -3258005.39847  23570849.03547
  20870211.578 7 -19113877.155 7 -14922050.65549  20870202.27349
  20205318.234 7 -26881479.345 7 -18206139.46949  20205306.46949
  21383530.039 7 -16989725.341 7 -10925704.71248  21383519.44548
  22965304.844 2  -2376635.821 2  -1255882.60146  22965300.46546
  22981925.992 5  -3698042.421 5  -7084651.38148  22981920.73048
 24 11 23  1 50 30.0000000  0  9G06G13G14G15G17G19G22G24G30         
  22350883.727 6 -14053890.872 6  -9901967.22849  22350878.11349
  22435708.219 6  -4352096.545 6  -2337170.25547  22435701.19947
  21597957.688 6 -14380412.522 6 -11506048.61548  21597949.32048
  23581081.109 4     21216.279 4  -3216123.64947  23581077.02347
  20880487.703 7 -19059873.294 7 -14879969.68349  20880478.16449
  20202357.648 7 -26897037.421 7 -18218262.57749  20202346.00049
  21387322.344 7 -16969794.772 7 -10910174.35248  21387311.80948
  22948544.719 2  -2464714.344 2  -1324514.99846  22948538.87146
  23000437.523 5  -3600765.876 5  -7008851.51248  23000432.02748
 24 11 23  1 51  0.0000000  0  9G06G13G14G15G17G19G22G24G30         
  22333522.789 6 -14145121.147 6  -9973055.62948  22333516.76648
  22450762.047 6  -4272992.325 6  -2275530.64747  22450754.44147
  21606036.000 6 -14337961.925 6 -11472970.19248  21606026.81348
  23591375.977 4     75312.497 4  -3173970.79547  23591371.07047
  20890820.211 7 -19005577.033 7 -14837660.86449  20890810.37949
  20199482.719 7 -26912146.767 7 -18230036.03149  20199470.71949
  21391135.648 7 -16949753.773 7 -10894557.94648  21391125.75848
  22931842.297 3  -2552485.612 3  -1392907.98147  22931836.33247
  23018997.992 5  -3503230.265 5  -6932849.76448  23018992.43848
 24 11 23  1 51 30.0000000  0  9G06G13G14G15G17G19G22G24G30         
  22316216.148 6 -14236068.916 6 -10043923.91148  22316209.77348
  22465869.641 6  -4193607.118 6  -2213672.08447  22465860.74647
  21614146.141 6 -14295345.108 6 -11439762.26348  21614136.48448
  23601735.109 4    129752.776 4  -3131549.79447  23601730.55547
  20901207.531 7 -18950992.368 7 -14795127.31349  20901197.64149
  20196692.445 7 -26926808.958 7 -18241461.04149  20196680.62149
  21394970.078 7 -16929603.444 7 -10878856.32048  21394959.66048
  22915198.742 3  -2639948.289 3  -1461060.51447  22915193.18847
  23037606.266 5  -3405438.823 5  -6856648.67248  23037601.94548
 24 11 23  1 52  0.0000000  0 10G06G11G13G14G15G17G19G22G24G30      
  22298963.313 6 -14326728.394 6 -10114567.54048  22298958.23048
  25170912.96911   -332872.86611                
  22481027.805 6  -4113941.422 6  -2151594.95047  22481020.25847
  21622286.984 6 -14252559.203 6 -11406422.56048  21622278.14848
  23612158.930 2    184536.775 2  -3088860.98947  23612155.84047
  20911649.883 7 -18896118.217 7 -14752368.18449  20911639.69949
  20193987.828 7 -26941022.241 7 -18252536.25549  20193976.23849
  21398826.086 7 -16909341.000 7 -10863067.33748  21398815.55148
  22898614.273 4  -2727097.198 4  -1528968.56247  22898609.30947
  23056263.695 5  -3307390.919 5  -6780247.70748  23056260.25448
 24 11 23  1 52 30.0000000  0 10G06G11G13G14G15G17G19G22G24G30      
  22281765.055 6 -14417103.158 6 -10184989.33048  22281760.03148
  25150534.000 1   -439968.851 1                
  22496239.227 6  -4034005.116 6  -2089306.96547  22496231.73847
  21630460.328 6 -14209610.540 6 -11372956.01048  21630451.55148
  23622648.141 3    239654.957 3  -3045911.77047  23622644.75847
  20922145.047 7 -18840964.066 7 -14709390.88449  20922135.44949
  20191366.523 7 -26954793.857 7 -18263267.32049  20191355.16849
  21402702.781 7 -16888972.907 7 -10847196.04348  21402691.66048
  22882087.688 3  -2813936.435 3  -1596635.32647  22882084.30547
  23074968.344 5  -3209095.174 5  -6703653.62648  23074964.66848
 24 11 23  1 53  0.0000000  0 10G06G11G13G14G15G17G19G22G24G30      
  22264622.547 5 -14507180.176 5 -10255179.10248  22264619.22348
  25130137.16411   -547146.60711                
  22511503.664 6  -3953791.698 6  -2026803.01747  22511495.18047
  21638665.742 7 -14166489.000 7 -11339354.77147  21638656.96547
  23633202.609 3    295113.998 3  -3002696.87747  23633198.34847
  20932695.508 7 -18785522.115 7 -14666189.31149  20932685.50049
  20188831.961 7 -26968114.415 7 -18273646.91549  20188820.07849
  21406599.383 7 -16868488.979 7 -10831234.48048  21406589.43448
  22865624.906 4  -2900453.533 4  -1664051.10347  22865621.28947
  23093723.133 5  -3110543.759 5  -6626860.31748  23093718.81348
 24 11 23  1 53 30.0000000  0 10G06G11G13G14G15G17G19G22G24G30      
  22247538.914 6 -14596961.740 6 -10325138.65848  22247534.06648
  25109724.625 1   -654409.131 1                
  22526818.773 6  -3873309.595 6  -1964089.74447  22526810.64147
  21646903.711 7 -14123199.747 7 -11305622.81947  21646894.34847
  23643817.914 2    350905.978 2  -2959222.60847  23643815.35247
  20943299.227 7 -18729800.398 7 -14622769.74549  20943288.80949
  20186382.227 7 -26980990.038 7 -18283679.80149  20186370.05149
  21410519.172 7 -16847894.229 7 -10815186.60048  21410508.16848
  22849222.055 4  -2986651.353 4  -1731218.07447  22849218.14547
  23112524.078 5  -3011744.121 5  -6549873.63147  23112518.81647
 24 11 23  1 54  0.0000000  0 10G06G11G13G14G15G17G19G22G24G30      
  22230511.617 6 -14686443.759 6 -10394864.78349  22230506.47749
  25089299.398 2   -761753.000 2                
  22542184.945 6  -3792560.444 6  -1901168.35247  22542177.16447
  21655173.453 6 -14079741.460 6 -11271759.18247  21655164.14847
  23654499.469 3    407028.705 3  -2915490.61646  23654494.91446
  20953955.570 7 -18673799.561 7 -14579132.68749  20953945.68049
  20184015.953 7 -26993420.355 7 -18293365.68349  20184004.83249
  21414459.453 7 -16827187.923 7 -10799051.75048  21414448.50848
  22832880.227 5  -3072526.353 5  -1798133.48547  22832876.43447
  23131371.180 4  -2912697.179 4  -6472694.24547  23131366.68447
 24 11 23  1 54 30.0000000  0 10G06G11G13G14G15G17G19G22G24G30      
  22213541.352 6 -14775623.883 6 -10464355.65849  22213535.85549
  25068854.766 1   -869176.505 1                
  22557600.508 6  -3711549.076 6  -1838042.64347  22557593.66447
  21663475.688 7 -14036114.661 7 -11237764.22547  21663465.79747
  23665241.289 3    463478.465 3  -2871503.81446  23665236.26646
  20964663.961 6 -18617523.075 6 -14535280.83449  20964654.36349
  20181735.219 7 -27005407.066 7 -18302705.90449  20181723.04349
  21418420.883 7 -16806370.826 7 -10782830.58348  21418409.93848
  22816600.836 5  -3158076.666 5  -1864795.90447  22816596.51647
  23150266.422 5  -2813405.857 5  -6395324.42047  23150261.28147
 24 11 23  1 55  0.0000000  0 10G06G11G13G14G15G17G19G22G24G30      
  22196627.859 6 -14864498.152 6 -10533608.18848  22196623.42248
  25048397.523 2   -976676.232 2   -179766.30155  25048397.42255
  22573066.844 6  -3630277.393 6  -1774714.10247  22573058.94547
  21671809.375 7 -13992318.233 7 -11203637.06347  21671799.89547
  23676043.977 3    520253.599 3  -2827263.47246  23676040.18446
  20975425.352 7 -18560971.968 7 -14491214.99249  20975415.40249
  20179538.992 7 -27016949.558 7 -18311699.98749  20179526.64149
  21422403.211 7 -16785441.480 7 -10766521.95848  21422393.02748
  22800384.484 5  -3243299.026 5  -1931202.78647  22800378.57847
  23169207.398 5  -2713871.282 5  -6317765.05548  23169202.31648
 24 11 23  1 55 30.0000000  0 10G06G11G13G14G15G17G19G22G24G30      
  22179774.664 6 -14953063.181 6 -10602619.76548  22179769.40248
  25027927.164 3  -1084249.501 3   -263589.07345  25027927.47345
  22588580.789 6  -3548748.399 6  -1711185.05647  22588572.71547
  21680175.742 7 -13948351.605 7 -11169377.31247  21680167.02347
  23686909.984 3    577350.793 3  -2782772.13847  23686905.95747
  20986238.992 6 -18504148.204 6 -14446936.69349  20986228.98449
  20177427.086 7 -27028048.124 7 -18320348.14949  20177414.91049
  21426407.023 7 -16764399.191 7 -10750125.30548  21426397.19148
  22784229.516 5  -3328190.435 5  -1997351.76747  22784223.66847
  23188193.695 5  -2614095.225 5  -6240017.51248  23188188.78948
 24 11 23  1 56  0.0000000  0 11G06G11G12G13G14G15G17G19G22G24G30   
  22162980.500 6 -15041316.672 6 -10671388.60248  22162975.35948
  25007442.383 3  -1191894.708 3   -347467.83845  25007443.04345
  25101374.74211   -218869.55311                
  22604143.828 6  -3466966.048 6  -1647458.59146  22604135.75446
  21688574.836 6 -13904215.329 6 -11134985.34347  21688565.82447
  23697835.375 3    634766.908 3  -2738032.29547  23697832.52047
  20997103.609 7 -18447055.124 7 -14402448.55349  20997093.83649
  20175399.094 7 -27038704.479 7 -18328651.73949  20175386.97749
  21430432.992 7 -16743244.591 7 -10733641.17848  21430422.51648
  22768138.219 5  -3412749.162 5  -2063241.53147  22768132.48847
  23207227.047 5  -2514080.498 5  -6162083.98148  23207221.49248
 24 11 23  1 56 30.0000000  0 11G06G11G12G13G14G15G17G19G22G24G30   
  22146246.594 6 -15129255.403 6 -10739912.14748  22146241.21548
  24986944.164 3  -1299609.159 3   -431400.56245  24986945.05945
  25086146.43011   -298878.50211                
  22619752.813 5  -3384933.299 5  -1583537.00647  22619745.61747
  21697005.430 6 -13859908.926 6 -11100460.81447  21696997.18047
  23708820.664 2    692498.498 2  -2693046.62446  23708818.21946
  21008018.406 7 -18389694.468 7 -14357751.89849  21008008.69149
  20173454.672 7 -27048919.548 7 -18336611.47149  20173443.25849
  21434480.172 7 -16721977.597 7 -10717069.45448  21434469.52048
  22752109.945 5  -3496972.500 5  -2128869.94847  22752105.33247
  23226304.742 5  -2413829.041 5  -6083965.99548  23226298.83648
 24 11 23  1 57  0.0000000  0 11G06G11G12G13G14G15G17G19G22G24G30   
  22129572.789 6 -15216875.856 6 -10808187.66849  22129567.82449
  24966433.195 3  -1407389.942 3   -515385.05345  24966434.44145
  25070918.52311                                
  22635411.148 5  -3302652.757 5  -1519422.31447  22635403.54347
  21705469.938 6 -13815431.671 6 -11065803.17447  21705461.16047
  23719868.922 2    750543.509 2  -2647816.72246  23719864.19146
  21018984.789 6 -18332068.007 6 -14312848.14149  21018974.48849
  20171594.828 7 -27058693.385 7 -18344227.38849  20171583.00449
  21438548.430 7 -16700597.454 7 -10700409.56148  21438538.01248
  22736147.242 5  -3580857.517 5  -2194234.73948  22736142.57048
  23245425.930 5  -2313342.447 5  -6005664.77048  23245420.90648
 24 11 23  1 57 30.0000000  0 10G06G11G13G14G15G17G19G22G24G30      
  22112960.609 6 -15304175.731 6 -10876213.37549  22112954.46949
  24945912.508 3  -1515235.419 3                
  22651115.180 5  -3220128.707 5  -1455117.91146  22651107.22346
  21713966.117 6 -13770784.064 6 -11031012.79147  21713956.69547
  23730970.953 1    808897.850 1  -2602345.77346  23730969.38746
  21030000.102 7 -18274179.393 7 -14267740.09349  21029990.21149
  20169818.781 7 -27068027.669 7 -18351500.78349  20169806.78149
  21442638.195 7 -16679104.745 7 -10683661.96148  21442628.24648
  22720249.680 5  -3664402.366 5  -2259334.47548  22720244.18448
  23264592.219 5  -2212623.557 5  -5927182.55548  23264586.89848
 24 11 23  1 58  0.0000000  0 10G06G11G13G14G15G17G19G22G24G30      
  22096410.180 6 -15391150.829 6 -10943986.02849  22096403.39549
  24925375.273 1  -1623141.915 1                
  22666864.531 6  -3137363.356 6  -1390625.45346  22666856.69146
  21722494.492 6 -13725964.785 6 -10996088.63047  21722485.83247
  23742133.68811                  -2556635.23455  23742131.65255
  21041065.734 7 -18216029.306 7 -14222428.30049  21041055.55149
  20168125.945 7 -27076921.983 7 -18358431.34949  20168114.29749
  21446749.555 7 -16657498.149 7 -10666825.59848  21446739.54748
  22704417.398 5  -3747603.496 5  -2324166.36348  22704411.25848
  23283802.086 5  -2111673.384 5  -5848520.09547  23283796.23847
 24 11 23  1 58 30.0000000  0 10G06G11G13G14G15G17G19G22G24G30      
  22079921.109 6 -15477798.232 6 -11011503.34349  22079915.20349
  24904830.391 2  -1731107.009 2                
  22682658.813 5  -3054359.639 5  -1325947.25146  22682652.20346
  21731056.328 6 -13680973.585 6 -10961030.53848  21731047.14148
  23753356.594 2    926526.361 2  -2510687.40345  23753350.92245
  21052180.719 7 -18157620.068 7 -14176914.58349  21052170.59449
  20166516.781 7 -27085377.321 7 -18365019.86649  20166505.13349
  21450883.523 7 -16635777.417 7 -10649900.30848  21450872.40248
  22688650.500 5  -3830458.405 5  -2388728.45348  22688644.30148
  23303055.703 5  -2010494.104 5  -5769679.12447  23303050.20747
 24 11 23  1 59  0.0000000  0 10G06G11G13G14G15G17G19G22G24G30      
  22063495.180 6 -15564115.392 6 -11078763.33649  22063489.85949
  24884274.375 2  -1839128.786 2                
  22698498.734 6  -2971121.694 6  -1261086.51947  22698492.35947
  21739650.219 6 -13635810.770 6 -10925838.70248  21739641.14848
  23764634.67212    985793.84312  -2464505.02855  23764629.82455
  21063344.000 7 -18098954.649 7 -14131201.23949  21063334.52049
  20164991.484 7 -27093394.963 7 -18371267.31549  20164979.36749
  21455037.656 7 -16613943.066 7 -10632886.48548  21455027.35548
  22672949.867 5  -3912965.038 5  -2453019.16948  22672943.72748
  23322354.000 5  -1909088.306 5  -5690661.66447  23322347.62547
 24 11 23  1 59 30.0000000  0 10G06G11G13G14G15G17G19G22G24G30      
  22047132.906 6 -15650098.796 6 -11145763.26949  22047127.35249
  24863707.422 3  -1947204.209 3   -526398.19055  24863703.51255
  22714383.664 6  -2887652.102 6  -1196045.31046  22714376.41046
  21748277.211 6 -13590475.574 6 -10890512.53647  21748267.67247
  23775968.96912   1045359.75612  -2418089.99955  23775965.11755
  21074555.813 7 -18040034.544 7 -14085289.43349  21074546.97749
  20163548.969 7 -27100974.806 7 -18377173.61949  20163536.67649
  21459214.438 7 -16591994.150 7 -10615783.39448  21459204.19548
  22657315.578 5  -3995120.479 5  -2517036.24848  22657309.96548
  23341693.086 5  -1807457.631 5  -5611468.97947  23341687.29747
 24 11 23  2  0  0.0000000  0 10G06G11G13G14G15G17G19G22G24G30      
  22030834.188 6 -15735747.185 6 -11212502.12549  22030828.45749
  24843129.930 2  -2055332.562 2   -610653.35645  24843127.42645
  22730309.852 5  -2803955.641 5  -1130827.30546  22730302.71546
  21756937.242 6 -13544969.407 6 -10855053.16048  21756927.76248
  23787361.664 2   1105219.027 2  -2371446.41746  23787355.75846
  21085816.586 7 -17980863.738 7 -14039182.28049  21085806.63749
  20162189.117 7 -27108119.975 7 -18382741.22449  20162177.00049
  21463412.609 7 -16569932.482 7 -10598592.45748  21463402.07448
  22641749.383 5  -4076923.944 5  -2580779.04348  22641743.35948
  23361074.797 5  -1705605.985 5  -5532104.05847  23361069.12547
 24 11 23  2  0 30.0000000  0 10G06G11G13G14G15G17G19G22G24G30      
  22014600.672 6 -15821055.276 6 -11278975.82949  22014594.53149
  24822543.773 2  -2163509.034 2   -694946.06945  24822543.02745
  22746280.039 6  -2720033.270 6  -1065433.23046  22746271.84846
  21765628.938 6 -13499289.878 6 -10819458.68448  21765620.16048
  23798807.031 1   1165370.988 1  -2324574.76246  23798802.59446
  21097123.727 7 -17921442.463 7 -13992879.93249  21097113.25049
  20160912.266 7 -27114828.954 7 -18387968.93649  20160899.91449
  21467633.211 7 -16547755.057 7 -10581311.30648  21467622.55948
  22626250.039 5  -4158370.649 5  -2644243.85848  22626244.42648
  23380498.391 5  -1603533.246 5  -5452566.87947  23380493.36747
 24 11 23  2  1  0.0000000  0 10G06G11G13G14G15G17G19G22G24G30      
  21998431.789 6 -15906020.494 6 -11345182.36549  21998426.11749
  24801950.898 4  -2271731.559 4   -779274.84345  24801949.56645
  22762292.586 6  -2635888.785 6   -999866.15846  22762284.92246
  21774354.836 6 -13453437.011 6 -10783729.14447  21774346.05947
  23810310.28112   1225812.39612  -2277477.56256  23810304.43456
  21108477.844 7 -17861773.165 7 -13946384.32249  21108468.24649
  20159718.773 7 -27121103.096 7 -18392857.82349  20159706.71549
  21471875.563 7 -16525462.229 7 -10563940.22748  21471864.61748
  22610819.242 5  -4239458.494 5  -2707429.03948  22610814.10248
  23399963.484 5  -1501241.858 5  -5372859.32847  23399958.63747
 24 11 23  2  1 30.0000000  0 10G06G11G13G14G15G17G19G22G24G30      
  21982330.008 6 -15990639.094 6 -11411118.80849  21982323.80949
  24781348.797 4  -2379996.821 4   -863636.82145  24781346.41045
  22778347.109 6  -2551524.811 6   -934128.00947  22778339.73847
  21783113.422 7 -13407409.851 7 -10747863.79247  21783103.64847
  23821862.000 1   1286540.656 1  -2230156.83245  23821860.43445
  21119879.930 7 -17801857.119 7 -13899696.44049  21119870.15649
  20158607.461 7 -27126942.046 7 -18397407.60149  20158595.28549
  21476139.719 7 -16503053.048 7 -10546478.45948  21476129.41848
  22595458.672 5  -4320184.306 5  -2770332.10848  22595452.18048
  23419470.781 5  -1398733.281 5  -5292982.53947  23419465.16847
 24 11 23  2  2  0.0000000  0 10G06G11G13G14G15G17G19G22G24G30      
  21966293.398 6 -16074909.330 6 -11476783.81349  21966287.84449
  24760739.188 4  -2488303.595 4   -948031.15145  24760736.09845
  22794441.938 6  -2466945.630 6   -868222.14147  22794434.80147
  21791905.188 7 -13361209.421 7 -10711863.42147  21791895.64847
  23833476.23412   1347551.94412  -2182615.54755  23833471.50455
  21131327.117 7 -17741698.554 7 -13852819.58849  21131317.63749
  20157578.414 7 -27132348.305 7 -18401620.21949  20157566.53149
  21480425.313 7 -16480528.398 7 -10528926.73748  21480415.12948
  22580164.664 6  -4400546.802 6  -2832952.09548  22580159.58248
  23439017.234 5  -1296011.001 5  -5212939.20847  23439011.50447
 24 11 23  2  2 30.0000000  0 10G06G11G13G14G15G17G19G22G24G30      
  21950324.125 6 -16158828.321 6 -11542175.12249  21950318.21949
  24740119.992 4  -2596649.509 4  -1032455.97645  24740117.95745
  22810577.352 6  -2382154.371 6   -802151.01147  22810569.80547
  21800730.063 7 -13314835.558 7 -10675727.90047  21800720.52347
  23845140.023 4   1408842.571 4  -2134856.60146  23845133.64846
  21142820.813 7 -17681299.434 7 -13805755.29849  21142810.98049
  20156631.617 7 -27137323.177 7 -18405496.69249  20156620.02749
  21484734.078 7 -16457888.201 7 -10511284.95948  21484723.36748
  22564942.617 5  -4480543.599 5  -2895287.11348  22564936.59448
  23458605.641 5  -1193077.145 5  -5132731.05847  23458599.50047
 24 11 23  2  3  0.0000000  0 10G06G11G13G14G15G17G19G22G24G30      
  21934422.305 6 -16242392.819 6 -11607290.19749  21934415.87149
  24719494.898 4  -2705031.508 4  -1116908.88646  24719494.15246
  22826751.367 5  -2297154.497 5   -735917.36946  22826743.87946
  21809588.141 7 -13268287.592 7 -10639456.73948  21809577.95748
  23856853.352 2   1470410.066 2  -2086882.05446  23856849.44146
  21154359.914 6 -17620661.325 6 -13758504.78649  21154350.19949
  20155766.500 7 -27141866.986 7 -18409037.27149  20155754.67649
  21489064.516 7 -16435131.988 7 -10493552.80348  21489053.74648
  22549789.914 6  -4560171.923 6  -2957335.01748  22549783.53948
  23478234.320 5  -1089933.632 5  -5052359.54447  23478227.82847
 24 11 23  2  3 30.0000000  0 10G06G11G13G14G15G17G19G22G24G30      
  21918589.180 6 -16325598.402 6 -11672125.62249  21918582.57049
  24698864.805 4  -2813445.787 4  -1201386.96346  24698862.65246
  22842966.500 5  -2211947.650 5   -669522.42446  22842957.37146
  21818478.602 6 -13221563.894 6 -10603048.64647  21818469.76647
  23868623.422 4   1532252.886 4  -2038692.84546  23868617.57446
  21165944.563 6 -17559785.329 6 -13711068.90149  21165934.73049
  20154984.313 7 -27145979.290 7 -18412241.59749  20154972.19549
  21493416.453 7 -16412258.141 7 -10475728.99648  21493406.62148
  22534706.859 5  -4639427.891 5  -3019092.77548  22534701.12948
  23497899.703 5   -986581.213 5  -4971825.20247  23497895.26647
 24 11 23  2  4  0.0000000  0 10G06G11G13G14G15G17G19G22G24G30      
  21902823.836 6 -16408441.780 6 -11736678.77549  21902817.81349
  24678228.742 5  -2921889.311 5  -1285887.87746  24678226.47346
  22859219.148 5  -2126536.746 5   -602968.50846  22859210.07846
  21827403.203 6 -13174663.827 6 -10566503.12648  21827394.25048
  23880441.977 3   1594367.697 3  -1990291.67346  23880438.35946
  21177573.688 6 -17498673.498 6 -13663449.25149  21177563.73849
  20154284.117 7 -27149660.549 7 -18415110.06349  20154271.94149
  21497792.258 7 -16389265.655 7 -10457812.71448  21497781.37148
  22519696.648 5  -4718308.602 5  -3080558.12948  22519690.74248
  23517606.469 5   -883021.672 5  -4891129.44847  23517602.61747
 24 11 23  2  4 30.0000000  0 10G06G11G13G14G15G17G19G22G24G30      
  21887128.102 6 -16490921.589 6 -11800948.64849  21887122.31349
  24657587.703 5  -3030361.237 5  -1370410.90946  24657584.14546
  22875510.508 5  -2040926.480 5   -536259.22246  22875502.72746
  21836361.609 6 -13127588.762 6 -10529821.23148  21836352.65648
  23892315.313 3   1656750.276 3  -1941681.85746  23892308.82046
  21189246.531 6 -17437329.625 6 -13615648.79849  21189236.69949
  20153664.953 7 -27152913.423 7 -18417644.71349  20153652.60249
  21502189.484 7 -16366155.974 7 -10439805.12048  21502178.89148
  22504757.602 6  -4796813.256 6  -3141730.44448  22504751.52048
  23537351.422 4   -779258.764 4  -4810275.22947  23537347.68847
 24 11 23  2  5  0.0000000  0 10G06G11G13G14G15G17G19G22G24G30      
  21871502.742 6 -16573034.774 6 -11864932.81949  21871497.01249
  24636940.703 5  -3138858.777 5  -1454953.90246  24636936.26646
  22891838.945 5  -1955119.879 5   -469396.91746  22891831.51646
  21845352.336 6 -13080338.271 6 -10493002.63847  21845344.02747
  23904236.016 2   1719397.733 2  -1892865.65946  23904230.28546
  21200963.922 6 -17375755.238 6 -13567668.72149  21200953.85549
  20153127.000 7 -27155739.110 7 -18419846.48549  20153115.00049
  21506609.719 7 -16342928.740 7 -10421705.93048  21506599.06648
  22489890.727 6  -4874939.212 6  -3202607.67448  22489884.76248
  23557136.109 5   -675294.536 5  -4729264.16047  23557132.08247
 24 11 23  2  5 30.0000000  0 10G06G11G13G14G15G17G19G22G24G30      
  21855948.461 6 -16654776.988 6 -11928627.92249  21855941.38349
  24616288.953 4  -3247378.030 4  -1539513.83246  24616285.10246
  22908204.039 5  -1869118.744 5   -402383.03746  22908197.37146
  21854377.609 6 -13032910.739 6 -10456046.07047  21854369.06647
  23916206.367 2   1782307.947 2  -1843844.65846  23916201.16446
  21212725.266 6 -17313951.418 6 -13519509.87249  21212714.78949
  20152671.094 7 -27158136.694 7 -18421714.66249  20152658.62549
  21511052.602 7 -16319582.297 7 -10403513.84348  21511041.65648
  22475096.000 6  -4952682.647 6  -3263186.83748  22475090.38748
  23576958.453 5   -571129.834 5  -4648096.89447  23576953.60547
 24 11 23  2  6  0.0000000  0 10G06G11G13G14G15G17G19G22G24G30      
  21840464.148 6 -16736146.501 6 -11992032.61049  21840457.36349
  24595634.078 4  -3355917.643 4  -1624089.62046  24595628.75846
  22924605.852 5  -1782927.845 5   -335221.28046  22924598.12946
  21863436.555 6 -12985307.001 6 -10418952.22447  21863427.60247
  23928227.258 1   1845476.842 1  -1794622.16946  23928222.23446
  21224529.102 6 -17251922.225 6 -13471175.41049  21224518.50849
  20152296.133 7 -27160108.404 7 -18423250.99849  20152283.31349
  21515517.531 7 -16296117.741 7 -10385229.72548  21515506.82048
  22460375.219 5  -5030042.332 5  -3323466.96048  22460369.07848
  23596818.211 5   -466768.036 5  -4566776.02647  23596813.07047
 24 11 23  2  6 30.0000000  0 10G06G11G13G14G15G17G19G22G24G30      
  21825050.438 6 -16817139.896 6 -12055144.21649  21825044.76649
  24574974.680 2  -3464474.436 2  -1708678.79446  24574970.41846
  22941041.773 5  -1696549.903 5   -267913.81346  22941034.81346
  21872529.336 6 -12937526.323 6 -10381720.50747  21872519.44547
  23940297.000 3   1908901.984 3  -1745200.04346  23940292.27046
  21236375.445 7 -17189668.658 7 -13422666.10449  21236365.02749
  20152001.313 7 -27161654.919 7 -18424456.00249  20151988.66849
  21520005.688 7 -16272533.814 7 -10366852.59148  21519994.56648
  22445726.953 5  -5107015.218 5  -3383445.69248  22445721.45748
  23616715.203 6   -362210.737 6  -4485302.82647  23616709.94147
 24 11 23  2  7  0.0000000  0 10G06G11G13G14G15G17G19G22G24G30      
  21809709.313 6 -16897754.480 6 -12117960.66749  21809704.05149
  24554312.711 2  -3573046.140 2  -1793279.62245  24554309.79745
  22957514.828 5  -1609988.126 5   -200463.10546  22957506.46146
  21881654.906 6 -12889568.668 6 -10344350.87047  21881646.18847
  23952414.711 4   1972579.812 4  -1695580.99346  23952409.44946
  21248263.828 6 -17127193.407 6 -13373984.08049  21248253.52749
  20151787.305 7 -27162777.494 7 -18425330.66849  20151775.53949
  21524515.523 7 -16248830.537 7 -10348382.45748  21524505.04748
  22431153.320 6  -5183599.186 6  -3443121.38748  22431148.47348
  23636648.219 5   -257460.416 5  -4403679.20947  23636643.19547
 24 11 23  2  7 30.0000000  0 10G06G11G13G14G15G17G19G22G24G30      
  21794441.422 6 -16977988.620 6 -12180480.66849  21794435.69149
  24533649.750 2  -3681631.459 2  -1877891.01145  24533647.42245
  22974022.016 5  -1523247.018 5   -132872.66846  22974013.00446
  21890815.078 6 -12841434.975 6 -10306844.09447  21890806.12547
  23964579.406 4   2036506.256 4  -1645768.18347  23964574.55947
  21260194.461 6 -17064499.931 6 -13325132.00449  21260183.80949
  20151653.922 7 -27163478.410 7 -18425876.77149  20151641.98049
  21529049.008 7 -16225008.968 7 -10329820.15548  21529038.29748
  22416654.828 6  -5259793.003 6  -3502493.05748  22416648.92248
  23656617.195 5   -152520.519 5  -4321907.87247  23656612.46547
 24 11 23  2  8  0.0000000  0 10G06G11G13G14G15G17G19G22G24G30      
  21779247.930 6 -17057836.142 6 -12242699.39549  21779241.20349
  24512983.492 1  -3790224.303 1  -1962508.32545  24512983.33245
  22990562.078 5  -1436326.484 5    -65142.41146  22990554.53146
  21900007.813 6 -12793121.727 6 -10269197.35347  21899999.03547
  23976790.086 1   2100681.365 1  -1595761.67346  23976786.87946
  21272166.359 6 -17001586.841 6 -13276108.78749  21272155.82449
  20151600.977 7 -27163755.208 7 -18426092.39549  20151589.03549
  21533605.133 7 -16201065.503 7 -10311162.87148  21533594.77348
  22402231.047 6  -5335590.953 6  -3561556.25048  22402224.84848
  23676623.086 5    -47389.975 5  -4239987.97147  23676617.59047
 24 11 23  2  8 30.0000000  0 10G06G11G13G14G15G17G19G22G24G30      
  21764127.531 6 -17137295.615 6 -12304615.72449  21764119.98449
  24492317.734 2  -3898823.610 2  -2047130.75745  24492316.75445
  23007134.414 5  -1349231.458 5      2723.83846  23007127.98046
  21909236.250 6 -12744630.109 6 -10231411.64447  21909227.00447
  23989049.086 3   2165100.097 3  -1545565.25046  23989044.94146
  21284179.031 6 -16938458.182 6 -13226917.59849  21284169.08249
  20151628.844 7 -27163610.206 7 -18425979.34249  20151616.78549
  21538184.539 7 -16177001.263 7 -10292411.47548  21538173.41848
  22387881.813 5  -5410992.095 5  -3620310.24048  22387876.55148
  23696663.406 4     57927.598 4  -4157922.36447  23696658.32447
 24 11 23  2  9  0.0000000  0 10G06G11G13G14G15G17G19G22G24G30      
  21749081.000 6 -17216364.225 6 -12366227.48749  21749073.80549
  24471651.359 3  -4007426.878 3  -2131756.25946  24471650.37946
  23023740.148 5  -1261965.070 5     70723.62246  23023734.47746
  21918497.594 6 -12695959.859 6 -10193486.75947  21918488.52347
  24001355.133 1   2229760.068 1  -1495180.90146  24001349.28546
  21296233.133 6 -16875115.715 6 -13177559.81549  21296222.77349
  20151736.109 7 -27163045.370 7 -18425539.14349  20151723.58249
  21542786.344 7 -16152815.761 7 -10273565.58248  21542776.10248
  22373608.977 5  -5485993.957 5  -3678753.10648  22373603.95348
  23716739.398 3    163429.940 3  -4075712.80447  23716735.25447
 24 11 23  2  9 30.0000000  0 10G06G11G13G14G15G17G19G22G24G30      
  21734109.141 6 -17295040.110 6 -12427533.21649  21734102.88349
  24450983.383 2  -4116032.433 2  -2216383.59846  24450983.28146
  23040379.664 5  -1174531.292 5    138853.81546  23040372.58646
  21927792.492 6 -12647111.719 6 -10155423.24247  21927784.18447
  24013704.820 3   2294656.759 3  -1444612.07746  24013698.97346
  21308327.008 7 -16811562.948 7 -13128038.14349  21308316.64849
  20151923.578 7 -27162062.336 7 -18424773.08749  20151911.22749
  21547412.359 7 -16128509.572 7 -10254625.66448  21547401.53148
  22359413.742 6  -5560595.234 6  -3736883.83648  22359407.71948
  23736850.742 3    269113.848 3  -3993361.76547  23736846.77347
 24 11 23  2 10  0.0000000  0 10G06G11G13G14G15G17G19G22G24G30      
  21719212.352 6 -17373319.513 6 -12488530.03549  21719206.68049
  24430314.484 2  -4224636.723 2  -2301010.01546  24430316.02346
  23057047.328 4  -1086933.063 4    207112.16046  23057042.53946
  21937122.625 6 -12598084.492 6 -10117220.18347  21937112.67647
  24026097.148 2   2359787.840 2  -1393860.58946  24026092.88746
  21320460.000 6 -16747801.074 6 -13078353.53749  21320449.93449
  20152190.320 7 -27160661.147 7 -18423681.19949  20152178.02749
  21552060.547 7 -16104081.644 7 -10235590.89048  21552049.71948
  22345294.742 6  -5634792.599 6  -3794699.81348  22345288.01648
  23756996.484 3    374977.949 3  -3910870.28847  23756991.93047
 24 11 23  2 10 30.0000000  0 10G06G11G13G14G15G17G19G22G24G30      
  21704392.016 6 -17451200.170 6 -12549216.16949  21704386.40249
  24409649.789 2  -4333237.783 2  -2385633.88345  24409649.33645
  23073747.992 5   -999173.599 5    275496.15246  23073742.61346
  21946486.938 6 -12548878.533 6 -10078877.81647  21946477.04747
  24038535.156 4   2425149.573 4  -1342929.39646  24038530.48446
  21332633.016 7 -16683832.856 7 -13028508.15549  21332622.77349
  20152536.086 7 -27158843.579 7 -18422264.84849  20152523.79349
  21556732.352 7 -16079531.914 7 -10216461.18448  21556721.11348
  22331252.047 6  -5708584.215 6  -3852199.62448  22331245.43848
  23777174.383 3    481019.460 3  -3828240.53647  23777171.46947
 24 11 23  2 11  0.0000000  0 10G06G11G13G14G15G17G19G22G24G30      
  21689648.930 6 -17528678.144 6 -12609588.49649  21689643.25849
  24388987.414 3  -4441831.757 3  -2470252.24245  24388982.56645
  23090478.695 5   -911255.121 5    344004.05246  23090472.02746
  21955883.797 6 -12499492.451 6 -10040395.12847  21955874.78547
  24051017.359 3   2490740.399 3  -1291819.75647  24051011.57047
  21344844.297 6 -16619659.365 6 -12978502.80449  21344834.64149
  20152960.773 7 -27156609.579 7 -18420524.01549  20152948.89149
  21561427.641 7 -16054859.595 7 -10197235.96948  21561416.16848
  22317287.203 6  -5781966.519 6  -3909380.50748  22317281.35548
  23797388.375 4    587237.315 4  -3745473.40347  23797383.99647
 24 11 23  2 11 30.0000000  0 10G06G11G13G14G15G17G19G22G24G30      
  21674982.383 7 -17605751.864 7 -12669645.81549  21674975.71549
  24368326.516 4  -4550417.274 4  -2554864.01746  24368317.91446
  23107239.750 6   -823182.536 6    412632.01246  23107231.20746
  21965315.719 6 -12449927.180 6 -10001772.82147  21965306.18047
  24063540.406 3   2556555.558 3  -1240535.29447  24063536.49647
  21357094.734 6 -16555283.916 6 -12928340.08449  21357083.96549
  20153464.594 7 -27153961.356 7 -18418460.41149  20153452.41849
  21566145.758 7 -16030065.170 7 -10177915.60448  21566134.46148
  22303402.547 6  -5854938.455 6  -3966241.62448  22303395.05948
  23817634.391 4    693628.029 4  -3662571.57047  23817629.60247
 24 11 23  2 12  0.0000000  0 10G06G11G13G14G15G17G19G22G24G30      
  21660392.766 6 -17682418.204 6 -12729385.66249  21660386.33249
  24347665.445 4  -4658991.380 4  -2639466.91446  24347656.19946
  23124027.359 5   -734958.130 5    481378.29146  23124020.04746
  21974782.367 6 -12400182.073 6  -9963010.35647  21974772.71147
  24076107.680 3   2622592.377 3  -1189078.06847  24076102.71547
  21369382.781 6 -16490708.487 6 -12878021.53749  21369372.71549
  20154047.922 7 -27150899.816 7 -18416074.75149  20154034.98449
  21570886.578 7 -16005147.757 7 -10158499.42048  21570876.62948
  22289594.086 6  -5927497.246 6  -4022780.80848  22289587.59448
  23837911.766 4    800189.709 4  -3579536.50847  23837907.27047
 24 11 23  2 12 30.0000000  0 10G06G11G13G14G15G17G19G22G24G30      
  21645881.742 6 -17758672.505 6 -12788804.45949  21645875.07449
  24327007.570 5  -4767549.583 5  -2724057.43346  24326999.02746
  23140844.844 5   -646583.361 5    550241.73846  23140837.23846
  21984282.742 6 -12350255.075 6  -9924106.18746  21984272.79346
  24088715.234 2   2688849.631 2  -1137449.03747  24088711.85247
  21381709.188 7 -16425933.021 7 -12827547.10249  21381698.88749
  20154709.313 7 -27147424.154 7 -18413366.39449  20154696.31649
  21575652.133 7 -15980105.057 7 -10138985.59848  21575641.36348
  22275865.773 6  -5999638.775 6  -4078994.83648  22275859.80948
  23858222.492 3    906921.921 3  -3496368.55447  23858217.76247
 24 11 23  2 13  0.0000000  0 10G06G11G13G14G15G17G19G22G24G30      
  21631449.461 6 -17834513.882 6 -12847901.52649  21631443.26249
  24306351.266 5  -4876091.041 5  -2808634.94846  24306343.66046
  23157689.148 5   -558063.706 5    619218.04846  23157682.42246
  21993817.922 6 -12300147.851 6  -9885061.57746  21993808.20746
  24101366.016 4   2755322.016 4  -1085652.44047  24101361.28547
  21394073.391 7 -16360961.959 7 -12776920.26349  21394062.44549
  20155448.148 7 -27143537.596 7 -18410337.84449  20155436.09049
  21580442.188 7 -15954938.827 7 -10119375.52848  21580430.89148
  22262216.555 6  -6071362.474 6  -4134883.30348  22262210.88348
  23878565.227 3   1013820.593 3  -3413070.92247  23878559.90647
 24 11 23  2 13 30.0000000  0 11G06G11G12G13G14G15G17G19G22G24G30   
  21617097.070 6 -17909939.477 6 -12906674.61649  21617090.16849
  24285699.781 4  -4984613.143 4  -2893197.39346  24285692.35246
  24567020.26611     60839.93011    359315.05555  24567016.76655
  23174561.336 5   -469402.125 5    688304.98246  23174553.73046
  22003386.953 6 -12249859.979 6  -9845876.19446  22003377.70746
  24114053.617 2   2822006.780 2  -1033690.31246  24114050.46946
  21406473.461 7 -16295797.230 7 -12726142.52549  21406462.92649
  20156265.438 7 -27139241.279 7 -18406990.02449  20156253.20349
  21585254.117 7 -15929648.644 7 -10099668.84848  21585243.23048
  22248648.625 6  -6142665.961 6  -4190444.34448  22248642.07448
  23898937.938 3   1120883.507 3  -3329645.28647  23898933.44147
 24 11 23  2 14  0.0000000  0 11G06G11G12G13G14G15G17G19G22G24G30   
  21602824.320 6 -17984943.910 6 -12965119.52249  21602817.59449
  24265053.461 5  -5093110.429 5  -2977740.49646  24265044.85946
  24551714.016 1    -19596.250 1    296637.74445  24551709.63745
  23191460.430 5   -380599.232 5    757502.02446  23191452.82446
  22012991.781 5 -12199388.455 5  -9806547.73246  22012982.82846
  24126784.617 2   2888903.353 2   -981563.08547  24126780.12147
  21418911.203 7 -16230438.133 7 -12675213.32549  21418900.25849
  20157161.438 7 -27134533.386 7 -18403321.49149  20157149.32049
  21590090.234 6 -15904231.427 6 -10079863.18748  21590079.87548
  22235160.125 6  -6213544.204 6  -4245674.02149  22235154.04349
  23919342.836 3   1228111.182 3  -3246091.27347  23919337.98847
 24 11 23  2 14 30.0000000  0 11G06G11G12G13G14G15G17G19G22G24G30   
  21588631.602 7 -18059527.138 7 -13023236.20549  21588624.64149
  24244412.602 5  -5201583.015 5  -3062264.41146  24244402.24246
  24536405.703 1   -100042.838 1    233952.35245  24536400.68045
  23208384.336 5   -291660.669 5    826804.78146  23208377.19946
  22022630.953 5 -12148735.871 5  -9767078.17946  22022622.00046
  24139554.156 3   2956006.020 3   -929275.33447  24139549.30947
  21431384.375 7 -16164889.590 7 -12624136.51149  21431374.01649
  20158135.266 7 -27129418.081 7 -18399335.49849  20158122.44549
  21594951.281 7 -15878689.205 7 -10059960.11848  21594940.33648
  22221753.367 6  -6283997.586 6  -4300572.66249  22221747.16849
  23939777.750 4   1335498.506 4  -3162412.87347  23939772.78547
 24 11 23  2 15  0.0000000  0 11G06G11G12G13G14G15G17G19G22G24G30   
  21574519.383 6 -18133684.725 6 -13081021.23949  21574512.59849
  24223775.047 5  -5310026.507 5  -3146765.62746  24223766.85546
  24521095.609 1   -180498.031 1    171260.29345  24521089.87945
  23225332.227 4   -202588.286 4    896211.80946  23225326.96546
  22032303.555 5 -12097900.197 5  -9727465.89146  22032295.77346
  24152361.406 4   3023313.156 4   -876828.30947  24152357.08647
  21443892.734 6 -16099152.058 6 -12572912.42249  21443883.48849
  20159186.102 7 -27123894.697 7 -18395031.51549  20159173.51649
  21599835.375 7 -15853020.173 7 -10039958.25248  21599825.42648
  22208428.180 6  -6354022.163 6  -4355137.15849  22208421.62949
  23960244.203 4   1443045.031 4  -3078610.42547  23960238.06347
 24 11 23  2 15 30.0000000  0 10G06G11G13G14G15G17G19G22G24G30      
  21560489.250 7 -18207413.008 7 -13138471.73149  21560483.34449
  24203145.320 4  -5418437.334 4  -3231241.43446  24203137.59846
  23242306.859 3   -113383.876 3    965721.71346  23242301.36346
  22042012.094 5 -12046880.191 5  -9687710.03446  22042004.37146
  24165208.445 4   3090822.527 4   -824223.68047  24165204.41847
  21456438.516 6 -16033226.699 6 -12521541.98849  21456428.62549
  20160314.539 7 -27117963.458 7 -18390409.72249  20160301.95349
  21604744.750 7 -15827222.922 7 -10019856.48148  21604734.21548
  22195184.828 6  -6423614.565 6  -4409364.90149  22195178.68849
  23980739.234 3   1550749.446 3  -2994684.92847  23980734.03147
 24 11 23  2 16  0.0000000  0 10G06G11G13G14G15G17G19G22G24G30      
  21546541.602 7 -18280712.023 7 -13195587.73149  21546534.34849
  24182518.844 3  -5526815.546 3  -3315691.81846  24182513.70346
  23259305.578 4    -24053.892 4   1035329.46345  23259299.37945
  22051757.242 5 -11995678.421 5  -9647812.54446  22051747.23446
  24178094.039 3   3158528.283 3   -771466.01147  24178088.42647
  21469017.977 6 -15967118.418 6 -12470029.02649  21469008.37949
  20161520.250 7 -27111628.592 7 -18385473.41349  20161507.72349
  21609677.758 7 -15801299.876 7  -9999656.67948  21609666.52048
  22182024.539 6  -6492775.265 6  -4463256.24649  22182017.57849
  24001263.070 3   1658606.676 3  -2910640.37247  24001259.10247
 24 11 23  2 16 30.0000000  0 10G06G11G13G14G15G17G19G22G24G30      
  21532675.227 7 -18353578.011 7 -13252366.30349  21532667.79749
  24161902.883 4  -5635157.340 4  -3400113.82946  24161896.21546
  23276330.133 5     65399.665 5   1105033.54246  23276322.00046
  22061534.484 5 -11944293.499 5  -9607772.26746  22061525.76646
  24191014.797 2   3226428.316 2   -718556.92647  24191009.35947
  21481632.664 6 -15900828.154 6 -12418374.25649  21481622.94949
  20162802.508 7 -27104890.149 7 -18380222.63649  20162789.92249
  21614634.977 7 -15775249.444 7  -9979357.59748  21614624.14848
  22168946.188 6  -6561500.946 6  -4516808.62049  22168939.46149
  24021816.625 4   1766615.535 4  -2826477.65447  24021811.95347
 24 11 23  2 17  0.0000000  0 10G06G11G13G14G15G17G19G22G24G30      
  21518890.391 7 -18426008.434 7 -13308805.48549  21518883.25449
  24141293.164 4  -5743460.209 4  -3484505.50446  24141286.90646
  23293375.875 5    154973.633 5   1174831.45046  23293368.15246
  22071347.766 5 -11892725.280 5  -9567589.26746  22071338.87146
  24203970.570 2   3294519.322 2   -665499.01647  24203965.89847
  21494281.922 6 -15834358.378 6 -12366579.62049  21494271.79749
  20164161.258 7 -27097749.440 7 -18374658.40349  20164148.67249
  21619616.242 7 -15749071.391 7  -9958959.08148  21619605.64848
  22155950.969 6  -6629789.394 6  -4570020.30349  22155944.41849
  24042398.859 4   1874773.690 4  -2742198.63947  24042393.59847
 24 11 23  2 17 30.0000000  0 10G06G11G13G14G15G17G19G22G24G30      
  21505192.508 7 -18498000.911 7 -13364903.42149  21505184.49249
  24120691.820 5  -5851721.718 5  -3568865.00346  24120685.97346
  23310444.336 5    244664.525 5   1244720.42846  23310436.08646
  22081197.227 5 -11840973.769 5  -9527263.39646  22081186.22346
  24216962.930 1   3362798.015 1   -612294.85747  24216958.90247
  21506964.352 6 -15767711.224 6 -12314646.74149  21506953.46549
  20165596.508 7 -27090208.169 7 -18368782.04549  20165583.86349
  21624622.430 7 -15722765.486 7  -9938460.96048  21624611.83648
  22143039.508 6  -6697638.689 6  -4622889.78749  22143033.19149
  24063009.242 5   1983078.540 5  -2657805.29547  24063002.34047
 24 11 23  2 18  0.0000000  0 10G06G11G13G14G15G17G19G22G24G30      
  21491576.961 7 -18569552.257 7 -13420657.60749  21491568.59449
  24100098.023 4  -5959938.580 4  -3653189.72146  24100092.94146
  23327533.789 5    334469.347 5   1314698.19546  23327524.60246
  22091079.227 5 -11789038.188 5  -9486794.15846  22091068.98446
  24229992.188 3   3431261.855 3   -558946.48747  24229987.39847
  21519680.430 6 -15700888.254 6 -12262576.86349  21519669.54349
  20167107.648 7 -27082266.599 7 -18362593.77049  20167094.94549
  21629652.477 7 -15696330.774 7  -9917862.44448  21629641.76648
  22130212.352 6  -6765045.947 6  -4675414.83848  22130205.85948
  24083645.867 5   2091528.339 5  -2573298.99547  24083640.78547
 24 11 23  2 18 30.0000000  0 10G06G11G13G14G15G17G19G22G24G30      
  21478045.227 7 -18640657.603 7 -13476064.25949  21478038.44149
  24079513.641 3  -6068105.890 3  -3737475.76746  24079509.90646
  23344645.125 5    424387.545 5   1384764.27846  23344636.28946
  22100996.914 4 -11736916.059 4  -9446179.46746  22100987.60946
  24243055.578 3   3499909.513 3   -505454.84446  24243051.19946
  21532430.031 6 -15633889.310 6 -12210369.86749  21532419.26249
  20168694.992 7 -27073924.121 7 -18356093.09549  20168681.82049
  21634708.469 7 -15669764.608 7  -9897161.50748  21634697.28948
  22117469.938 5  -6832006.743 5  -4727591.99148  22117463.68048
  24104310.102 4   2200123.029 4  -2488679.78847  24104305.95747
 24 11 23  2 19  0.0000000  0 10G06G11G13G14G15G17G19G22G24G30      
  21464598.563 6 -18711317.814 6 -13531124.05449  21464591.71949
  24058940.523 4  -6176224.405 4  -3821723.81746  24058935.50046
  23361775.820 5    514412.338 5   1454913.41446  23361768.15646
  22110949.844 4 -11684610.648 4  -9405421.95446  22110941.65246
  24256153.195 2   3568734.750 2   -451824.84046  24256148.34846
  21545211.656 6 -15566719.916 6 -12158030.04749  21545201.35549
  20170358.078 7 -27065185.415 7 -18349283.66349  20170345.19949
  21639787.602 6 -15643070.151 6  -9876360.59648  21639777.18448
  22104812.844 5  -6898522.284 5  -4779422.19748  22104806.17648
  24125000.773 4   2308856.921 4  -2403952.08147  24124997.33247
 24 11 23  2 19 30.0000000  0 10G06G11G13G14G15G17G19G22G24G30      
  21451237.766 6 -18781528.299 6 -13585833.42649  21451231.33249
  24038376.758 4  -6284289.453 4  -3905930.17346  24038370.14846
  23378927.203 5    604542.338 5   1525144.55846  23378919.48046
  22120938.719 4 -11632119.690 4  -9364519.92146  22120930.41046
  24269284.469 3   3637736.374 3   -398057.37446  24269278.62146
  21558025.875 6 -15499380.248 6 -12105557.55349  21558016.04349
  20172096.352 7 -27056049.726 7 -18342164.89349  20172083.70749
  21644892.047 7 -15616244.660 7  -9855457.59448  21644881.86348
  22092241.055 6  -6964588.372 6  -4830902.17648  22092233.97748
  24145719.313 4   2417729.640 4  -2319116.22347  24145715.28547
 24 11 23  2 20  0.0000000  0 10G06G11G13G14G15G17G19G22G24G30      
  21437962.484 6 -18851288.260 6 -13640191.73549  21437956.63749
  24017823.500 4  -6392300.143 4  -3990094.12646  24017816.07046
  23396097.055 5    694772.882 5   1595454.02446  23396090.32846
  22130963.063 5 -11579444.696 5  -9323474.45746  22130953.93446
  24282446.672 3   3706909.448 3   -344156.30146  24282441.94146
  21570872.055 6 -15431874.240 6 -12052955.44149  21570861.93049
  20173909.359 7 -27046520.083 7 -18334739.15049  20173897.06649
  21650021.813 7 -15589289.714 7  -9834453.69248  21650011.10248
  22079754.211 5  -7030204.550 5  -4882031.57648  22079747.83648
  24166462.602 4   2526737.129 4  -2234175.34147  24166458.16447
 24 11 23  2 20 30.0000000  0 10G06G11G13G14G15G17G19G22G24G30      
  21424774.453 6 -18920593.365 6 -13694195.61749  21424768.31349
  23997280.758 4  -6500251.985 4  -4074212.14946  23997273.15246
  23413284.742 5    785102.255 5   1665840.53746  23413278.66046
  22141022.734 5 -11526583.689 5  -9282284.05946  22141012.25846
  24295642.320 2   3776252.512 2   -290122.79146  24295638.00046
  21583749.414 6 -15364201.680 6 -12000223.55849  21583739.52349
  20175798.297 7 -27036595.958 7 -18327006.03149  20175785.59449
  21655176.250 7 -15562203.243 7  -9813347.32148  21655165.42248
  22067354.258 5  -7095366.871 5  -4932807.31548  22067347.53148
  24187231.883 4   2635878.894 4  -2149129.83847  24187227.15247
 24 11 23  2 21  0.0000000  0 10G06G11G13G14G15G17G19G22G24G30      
  21411672.984 6 -18989440.995 6 -13747843.04349  21411666.78549
  23976751.297 4  -6608142.218 4  -4158282.22646  23976742.40246
  23430492.906 5    875527.524 5   1736301.80146  23430485.94546
  22151117.633 4 -11473536.410 4  -9240948.49447  22151107.44947
  24308869.273 2   3845762.083 2   -235959.49846  24308865.01246
  21596658.086 6 -15296365.167 6 -11947363.91449  21596648.13749
  20177761.141 7 -27026278.748 7 -18318966.61149  20177748.84849
  21660355.695 7 -15534984.664 7  -9792137.99448  21660344.86748
  22055041.477 5  -7160073.103 5  -4983227.66248  22055034.28148
  24208027.086 4   2745152.690 4  -2063981.46047  24208021.53147
 24 11 23  2 21 30.0000000  0 10G06G11G13G14G15G17G19G22G24G30      
  21398659.602 6 -19057828.455 6 -13801131.89449  21398652.58249
  23956231.805 5  -6715967.901 5  -4242301.99246  23956222.96946
  23447717.766 4    966045.651 4   1806835.34446  23447710.86346
  22161245.484 4 -11420302.303 4  -9199467.36846  22161237.70346
  24322128.750 2   3915435.793 2   -181668.36246  24322123.02046
  21609598.336 6 -15228366.300 6 -11894377.78149  21609587.97749
  20179799.313 7 -27015569.606 7 -18310621.78349  20179786.25849
  21665560.648 7 -15507633.227 7  -9770825.16248  21665549.35248
  22042814.648 5  -7224320.830 5  -5033290.72948  22042808.44948
  24228845.367 4   2854556.447 4  -1978731.79047  24228840.81347
 24 11 23  2 22  0.0000000  0 10G06G11G13G14G15G17G19G22G24G30      
  21385733.906 7 -19125753.419 7 -13854060.33449  21385726.35949
  23935724.734 5  -6823726.559 5  -4326269.54746  23935717.83246
  23464959.461 4   1056653.260 4   1877438.63546  23464952.73446
  22171413.422 5 -11366881.460 5  -9157840.73747  22171403.29747
  24335417.094 2   3985269.989 2   -127252.12246  24335412.18846
  21622568.789 6 -15160207.362 6 -11841266.89749  21622558.43049
  20181911.305 7 -27004470.174 7 -18301972.83649  20181898.89549
  21670790.547 7 -15480148.700 7  -9749408.60648  21670779.30948
  22030676.086 5  -7288108.147 5  -5082995.03748  22030669.65248
  24249688.406 3   2964087.565 3  -1893382.91847  24249683.14547
 24 11 23  2 22 30.0000000  0 10G06G11G13G14G15G17G19G22G24G30      
  21372896.758 7 -19193212.733 7 -13906625.93549  21372888.85949
  23915230.594 4  -6931414.881 4  -4410182.28146  23915225.15646
  23482219.375 5   1147347.721 5   1948109.59446  23482211.30146
  22181614.008 5 -11313273.012 5  -9116067.89246  22181604.05946
  24348737.383 3   4055261.982 3    -72712.95846  24348731.88746
  21635568.750 6 -15091889.774 6 -11788032.39649  21635558.44949
  20184098.031 7 -26992980.844 7 -18293020.06649  20184084.91849
  21676046.188 7 -15452530.200 7  -9727887.65648  21676035.12548
  22018626.188 6  -7351432.217 6  -5132338.39748  22018619.40248
  24270552.852 2   3073744.313 2  -1807936.10146  24270549.70346
 24 11 23  2 23  0.0000000  0 11G06G11G12G13G14G15G17G19G22G24G30   
  21360148.086 7 -19260206.663 7 -13958828.89549  21360140.89149
  23894751.313 4  -7039032.899 4  -4494040.25846  23894745.69946
  24275925.93011   -815808.47511   -925382.47456  24275916.62556
  23499492.531 4   1238123.423 4   2018843.82945  23499484.51645
  22191850.094 5 -11259479.435 5  -9074150.78947  22191840.90647
  24362085.016 3   4125406.040 3    -18055.26246  24362079.28546
  21648598.422 6 -15023418.505 6 -11734678.13749  21648587.88749
  20186357.719 7 -26981105.885 7 -18283766.81649  20186344.89849
  21681326.906 7 -15424779.759 7  -9706263.90548  21681316.31348
  22006663.430 5  -7414293.671 5  -5181321.26548  22006657.58248
  24291444.383 2   3183521.766 2  -1722395.24646  24291439.88746
 24 11 23  2 23 30.0000000  0 11G06G11G12G13G14G15G17G19G22G24G30   
  21347489.617 7 -19326726.005 7 -14010662.07449  21347483.24249
  23874289.195 5  -7146571.178 5  -4577836.10546  23874280.65246
  24260590.719 1   -896380.764 1   -988165.82745  24260584.75445
  23516781.227 3   1328983.739 3   2089644.06145  23516774.38345
  22202124.281 5 -11205493.779 5  -9032084.04147  22202114.91847
  24375460.961 2   4195705.771 2     36723.69946  24375456.11346
  21661657.945 6 -14954788.745 6 -11681200.37849  21661647.64549
  20188691.297 7 -26968839.879 7 -18274208.84349  20188679.12149
  21686633.734 7 -15396890.496 7  -9684531.97148  21686623.55148
  21994791.508 6  -7476683.632 6  -5229936.74248  21994785.19148
  24312358.297 2   3293424.365 2  -1636756.90146  24312353.74246
 24 11 23  2 24  0.0000000  0 11G06G11G12G13G14G15G17G19G22G24G30   
  21334920.813 6 -19392774.813 6 -14062128.57849  21334914.49649
  23853840.617 5  -7254033.609 5  -4661572.82146  23853832.01646
  24245257.47711                  -1050954.29755  24245251.57055
  23534086.313 4   1419919.257 4   2160502.84446  23534079.99646
  22212432.375 5 -11151322.320 5  -8989872.52447  22212423.53947
  24388867.344 2   4266151.634 2     91616.55446  24388862.32046
  21674746.648 7 -14886008.889 7 -11627605.65549  21674736.05549
  20191098.359 7 -26956190.589 7 -18264352.21449  20191086.12549
  21691966.383 7 -15368868.360 7  -9662696.51048  21691955.20348
  21983007.961 6  -7538606.505 6  -5278188.23649  21983001.93849
  24333295.852 3   3403443.260 3  -1551027.91746  24333290.12146
 24 11 23  2 24 30.0000000  0 11G06G11G12G13G14G15G17G19G22G24G30   
  21322442.742 6 -19458350.809 6 -14113226.67549  21322435.54749
  23833406.859 5  -7361417.497 5  -4745248.35946  23833398.02346
  24229923.53111                  -1113747.84055  24229916.45355
  23551404.367 4   1510926.011 4   2231417.16646  23551399.22746
  22222775.586 5 -11096965.004 5  -8947516.15547  22222766.57447
  24402300.164 4   4336740.244 4    146620.59047  24402294.19947
  21687863.141 6 -14817081.150 6 -11573895.70149  21687852.54749
  20193578.000 7 -26943159.767 7 -18254198.29249  20193565.47349
  21697323.711 6 -15340713.036 6  -9640757.25548  21697313.00048
  21971313.633 6  -7600060.369 6  -5326074.27949  21971307.19949
  24354254.094 3   3513575.870 3  -1465210.31546  24354247.89546
 24 11 23  2 25  0.0000000  0 11G06G11G12G13G14G15G17G19G22G24G30   
  21310055.188 7 -19523448.461 7 -14163952.03949  21310047.23049
  23812987.797 5  -7468717.095 5  -4828858.20846  23812978.84446
  24214588.10211                  -1176543.75655  24214580.78955
  23568736.391 4   1602004.464 4   2302387.34646  23568730.30946
  22233155.453 5 -11042418.536 5  -8905012.39746  22233146.26646
  24415759.914 4   4407471.315 4    201735.65247  24415754.89147
  21701008.055 6 -14748004.481 6 -11520069.68949  21700997.46149
  20196130.484 7 -26929745.813 7 -18243745.82449  20196118.36749
  21702707.820 6 -15312420.735 6  -9618711.27448  21702696.99248
  21959710.242 6  -7661039.952 6  -5373590.74649  21959703.10549
  24375233.977 2   3623823.140 2  -1379303.37446  24375227.07446
 24 11 23  2 25 30.0000000  0 11G06G11G12G13G14G15G17G19G22G24G30   
  21297758.414 6 -19588066.660 6 -14214303.78349  21297750.92649
  23792585.188 5  -7575930.850 5  -4912401.16646  23792576.58646
  24199250.26611  -1218725.96711  -1239342.80155  24199243.53955
  23586081.180 4   1693149.975 4   2373409.78846  23586074.16046
  22243570.641 4 -10987683.905 4  -8862361.99446  22243561.98046
  24429246.086 4   4478340.795 4    256958.54946  24429240.88346
  21714180.969 7 -14678782.086 7 -11466130.13549  21714169.49649
  20198755.664 7 -26915951.132 7 -18232996.69349  20198742.90249
  21708117.156 6 -15283992.430 6  -9596559.32248  21708106.44548
  21948196.078 6  -7721544.512 6  -5420737.07349  21948189.00049
  24396233.688 2   3734181.344 2  -1293309.99646  24396227.89846
 24 11 23  2 26  0.0000000  0 11G06G11G12G13G14G15G17G19G22G24G30   
  21285553.078 6 -19652200.668 6 -14264278.25649  21285546.52749
  23772198.797 5  -7683053.770 5  -4995873.40046  23772191.30946
  24183914.656 1  -1299319.697 1  -1302142.86745  24183906.87545
  23603438.961 4   1784361.822 4   2444483.91046  23603432.05946
  22254022.750 4 -10932758.589 4  -8819563.05546  22254013.32846
  24442758.086 3   4549347.744 3    312288.55846  24442753.06346
  21727380.930 7 -14609413.554 7 -11412076.69749  21727369.69149
  20201453.266 7 -26901774.752 7 -18221950.13149  20201440.68049
  21713553.578 7 -15255425.441 7  -9574299.30248  21713543.04348
  21936772.859 6  -7781569.674 6  -5467509.83649  21936766.48449
  24417255.648 2   3844650.572 2  -1207230.11346  24417249.80146
 24 11 23  2 26 30.0000000  0 11G06G11G12G13G14G15G17G19G22G24G30   
  21273440.719 6 -19715849.274 6 -14313874.49449  21273434.40249
  23751831.641 5  -7790084.298 5  -5079273.65246  23751823.03946
  24168576.695 1  -1379915.616 1  -1364944.64845  24168569.38345
  23620806.852 4   1875635.747 4   2515606.42946  23620801.29746
  22264510.203 4 -10877643.551 4  -8776616.25546  22264501.07446
  24456294.305 2   4620487.256 2    367721.99346  24456291.68446
  21740608.836 7 -14539902.346 7 -11357912.10949  21740598.35949
  20204223.141 7 -26887219.365 7 -18210608.24449  20204210.55549
  21719016.359 7 -15226720.398 7  -9551931.70248  21719005.29748
  21925442.203 6  -7841114.543 6  -5513908.35649  21925435.12549
  24438296.648 1   3955227.299 1  -1121066.41246  24438292.09446
 24 11 23  2 27  0.0000000  0 11G06G11G12G13G14G15G17G19G22G24G30   
  21261421.672 6 -19779011.353 6 -14363091.62149  21261414.82849
  23731481.492 4  -7897020.826 4  -5162600.63146  23731474.47346
  24153238.609 1  -1460514.796 1  -1427748.97445  24153231.29745
  23638188.844 5   1966967.719 5   2586774.12046  23638180.59446
  22275034.172 3 -10822339.803 3  -8733522.38546  22275025.27746
  24469857.297 3   4691755.655 3    423255.77646  24469853.27046
  21753862.609 7 -14470251.021 7 -11303638.33749  21753852.36749
  20207064.523 7 -26872287.701 7 -18198973.14149  20207052.17249
  21724504.680 6 -15197877.757 6  -9529456.87148  21724493.50048
  21914203.125 6  -7900178.245 6  -5559931.93549  21914195.52049
  24459360.523 2   4065907.995 2  -1034821.73046  24459353.44546
 24 11 23  2 27 30.0000000  0 11G06G11G12G13G14G15G17G19G22G24G30   
  21249496.539 6 -19841683.252 6 -14411926.77949  21249489.22749
  23711151.438 5  -8003859.316 5  -5245851.22846  23711143.94946
  24137902.24212  -1541115.47212  -1490554.50656  24137894.05156
  23655578.305 4   2058355.410 4   2657985.23446  23655570.81646
  22285596.000 4 -10766845.823 4  -8690280.27446  22285586.10946
  24483443.789 4   4763151.068 4    478888.49946  24483439.76246
  21767142.875 7 -14400460.888 7 -11249256.39949  21767133.27749
  20209977.508 7 -26856979.669 7 -18187044.77549  20209965.15649
  21730019.359 6 -15168895.890 6  -9506873.55048  21730008.70748
  21903055.969 6  -7958757.517 6  -5605578.03549  21903048.83249
  24480439.359 1   4176691.703 1   -948496.76945  24480434.98045
 24 11 23  2 28  0.0000000  0 11G06G11G12G13G14G15G17G19G22G24G30   
  21237663.078 6 -19903863.949 6 -14460379.18949  21237656.87949
  23690841.539 5  -8110598.333 5  -5329024.30146  23690833.40646
  24122564.383 1  -1621718.851 1  -1553362.12346  24122556.30946
  23672979.820 5   2149794.577 5   2729236.48746  23672971.68846
  22296192.242 5 -10711162.728 5  -8646890.79646  22296182.23446
  24497051.773 3   4834669.005 3    534616.67947  24497049.85547
  21780449.656 7 -14330534.860 7 -11194768.58149  21780439.12149
  20212961.727 7 -26841297.986 7 -18174825.24049  20212948.37949
  21735560.742 6 -15139775.715 6  -9484182.47148  21735549.91448
  21892000.523 6  -8016851.575 6  -5650846.03249  21891993.73849
  24501539.961 1   4287574.726 1   -862094.46445  24501535.28945
 24 11 23  2 28 30.0000000  0 11G06G11G12G13G14G15G17G19G22G24G30   
  21225924.305 6 -19965549.720 6 -14508445.93849  21225918.45749
  23670549.375 5  -8217233.736 5  -5412116.62646  23670540.71546
  24107224.563 1  -1702322.542 1  -1616169.94046  24107217.54346
  23690388.828 5   2241283.405 5   2800526.45646  23690381.39846
  22306824.273 5 -10655288.807 5  -8603352.63946  22306814.96946
  24510685.383 4   4906307.564 4    590438.93646  24510681.70746
  21793781.203 7 -14260473.797 7 -11140175.51949  21793770.84449
  20216016.891 7 -26825242.506 7 -18162314.43849  20216003.89549
  21741128.484 6 -15110515.308 6  -9461382.13548  21741118.00848
  21881038.898 6  -8074457.023 6  -5695733.28249  21881031.76249
  24522659.79711  -9780223.71011                
 24 11 23  2 29  0.0000000  0 11G06G11G12G13G14G15G17G19G22G24G30   
  21214281.703 6 -20026738.224 6 -14556125.21149  21214274.44949
  23650276.109 5  -8323762.692 5  -5495126.00346  23650268.15246
  24091886.773 2  -1782926.904 2  -1678978.31846  24091877.64546
  23707808.297 4   2332818.852 4   2871852.70946  23707800.63346
  22317492.742 5 -10599223.767 5  -8559665.61346  22317483.14546
  24524338.102 3   4978063.765 3    646352.84046  24524336.71146
  21807138.867 7 -14190279.388 7 -11085478.54449  21807129.03549
  20219142.602 7 -26808815.090 7 -18149513.81249  20219129.95749
  21746724.023 6 -15081114.103 6  -9438472.07848  21746712.72748
  21870169.953 6  -8131571.841 6  -5740238.22449  21870162.40649
  24543796.75811                                
 24 11 23  2 29 30.0000000  0 10G06G11G12G13G14G15G17G19G22G24      
  21202732.109 6 -20087428.578 6 -14603416.31849  21202725.03149
  23630024.898 5  -8430183.897 5  -5578051.38546  23630016.47346
  24076546.914 2  -1863532.424 2  -1741787.61546  24076539.07446
  23725233.938 4   2424396.792 4   2943212.09646  23725226.85946
  22328197.922 5 -10542968.902 5  -8515830.64746  22328187.73846
  24538016.586 2   5049933.268 2    702354.99646  24538012.55946
  21820521.586 7 -14119954.717 7 -11030680.07549  21820510.93449
  20222339.359 7 -26792018.381 7 -18136425.41649  20222326.65649
  21752345.563 7 -15051572.917 7  -9415452.95648  21752334.50048
  21859394.711 6  -8188195.451 6  -5784360.41549  21859387.63349
 24 11 23  2 30  0.0000000  0 10G06G11G12G13G14G15G17G19G22G24      
  21191278.211 7 -20147616.445 7 -14650315.87449  21191271.36749
  23609794.391 5  -8536492.466 5  -5660889.02046  23609786.66846
  24061206.914 1  -1944137.085 1  -1804596.20346  24061200.71546
  23742667.078 3   2516015.962 3   3014603.64345  23742661.34845
  22338939.492 5 -10486521.902 5  -8471845.99246  22338929.42646
  24551715.281 5   5121914.723 5    758444.36146  24551710.25846
  21833929.445 7 -14049499.847 7 -10975780.15549  21833917.79749
  20225605.602 7 -26774851.489 7 -18123048.57649  20225593.30949
  21757993.953 7 -15021889.242 7  -9392322.79848  21757983.00848
  21848713.586 6  -8244323.831 6  -5828096.70249  21848706.62549
 24 11 23  2 30 30.0000000  0 10G06G11G12G13G14G15G17G19G22G24      
  21179921.250 7 -20207301.048 7 -14696823.26949  21179913.70349
  23589586.336 5  -8642687.035 5  -5743637.85147  23589579.25847
  24045870.211 1  -2024741.877 1  -1867404.86246  24045861.66846
  23760109.563 4   2607671.897 4   3086023.82246  23760103.01246
  22349716.773 5 -10429883.976 5  -8427712.53346  22349707.87946
  24565432.367 5   5194003.478 5    814617.33446  24565427.75446
  21847360.094 7 -13978918.153 7 -10920781.41949  21847349.67649
  20228943.398 7 -26757317.496 7 -18109385.68749  20228929.17249
  21763669.828 7 -14992064.171 7  -9369082.46448  21763658.59048
  21838126.703 6  -8299956.412 6  -5871446.67349  21838119.97749
 24 11 23  2 31  0.0000000  0 10G06G11G12G13G14G15G17G19G22G24      
  21168659.813 7 -20266479.599 7 -14742936.35549  21168652.44149
  23569399.313 5  -8748764.358 5  -5826295.30846  23569393.05546
  24030531.188 2  -2105345.932 2  -1930212.96945  24030522.93845
  23777559.453 4   2699361.981 4   3157470.59245  23777549.79745
  22360531.227 5 -10373054.385 5  -8383429.70546  22360522.21546
  24579170.266 4   5266197.442 4    870872.25546  24579166.76646
  21860815.250 7 -13908211.025 7 -10865684.93149  21860804.83249
  20232348.914 7 -26739417.069 7 -18095437.26049  20232336.15249
  21769372.453 7 -14962096.457 7  -9345730.95748  21769361.09848
  21827635.477 6  -8355090.746 6  -5914408.40149  21827628.45749
 24 11 23  2 31 30.0000000  0 10G06G11G12G13G14G15G17G19G22G24      
  21157495.070 6 -20325148.810 6 -14788652.53949  21157488.28549
  23549236.172 5  -8854720.593 5  -5908858.39646  23549229.21146
  24015192.516 1  -2185947.514 1  -1993019.27246  24015183.91446
  23795012.883 4   2791084.332 4   3228942.51746  23795004.34046
  22371382.664 5 -10316031.793 5  -8338996.52246  22371374.18046
  24592928.258 5   5338494.222 5    927207.37446  24592923.29346
  21874294.703 7 -13837379.006 7 -10810491.12849  21874283.46549
  20235824.789 7 -26721150.688 7 -18081203.66349  20235812.32049
  21775102.336 6 -14931984.246 6  -9322266.86548  21775091.39148
  21817238.906 6  -8409723.786 6  -5956979.50849  21817231.82849
 24 11 23  2 32  0.0000000  0 10G06G11G12G13G14G15G17G19G22G24      
  21146428.148 6 -20383307.931 6 -14833971.26749  21146420.77749
  23529096.633 5  -8960554.376 5  -5991326.01546  23529089.32046
  23999856.016 2  -2266547.796 2  -2055824.43046  23999847.18046
  23812472.977 5   2882834.366 5   3300435.97346  23812463.78946
  22382269.242 5 -10258817.472 5  -8294413.92246  22382260.23046
  24606705.336 5   5410889.439 5    983619.16447  24606698.96147
  21887796.188 6 -13766425.592 6 -10755202.74349  21887785.35949
  20239370.008 7 -26702521.355 7 -18066687.25449  20239357.12949
  21780859.977 6 -14901728.982 6  -9298691.28948  21780849.09048
  21806938.344 6  -8463855.116 6  -5999159.67549  21806930.73849
 24 11 23  2 32 30.0000000  0 10G06G11G12G13G14G15G17G19G22G24      
  21135457.742 6 -20440953.945 6 -14878890.18849  21135450.72349
  23508980.102 5  -9066262.075 5  -6073695.43646  23508973.84446
  23984517.930 2  -2347145.314 2  -2118627.39846  23984510.26646
  23829936.383 4   2974609.910 4   3371949.34246  23829927.95746
  22393193.625 5 -10201410.469 5  -8249681.17146  22393184.67246
  24620498.320 4   5483380.901 4   1040106.00447  24620493.76647
  21901321.117 6 -13695352.040 6 -10699820.73149  21901310.64149
  20242983.578 7 -26683529.793 7 -18051888.60049  20242970.69949
  21786644.547 6 -14871328.965 6  -9275002.94448  21786633.54348
  21796733.773 6  -8517481.984 6  -6040946.74549  21796725.64149
 24 11 23  2 33  0.0000000  0 10G06G11G12G13G14G15G17G19G22G24      
  21124585.961 6 -20498084.600 6 -14923407.52449  21124579.41049
  23488888.313 5  -9171840.880 5  -6155964.42546  23488882.23046
  23969179.930 1  -2427740.101 1  -2181428.26646  23969172.61746
  23847404.367 4   3066408.129 4   3443480.36746  23847397.05546
  22404154.500 5 -10143810.419 5  -8204797.99947  22404145.37147
  24634312.070 4   5555965.410 4   1096665.25747  24634306.93047
  21914868.695 7 -13624159.831 7 -10644346.27049  21914857.69149
  20246666.133 7 -26664177.294 7 -18036808.68949  20246653.25449
  21792456.898 6 -14840783.683 6  -9251201.37848  21792445.89548
  21786624.414 6  -8570602.422 6  -6082339.19249  21786617.33649
 24 11 23  2 33 30.0000000  0 10G06G11G12G13G14G15G17G19G22G24      
  21113813.289 7 -20554698.282 7 -14967522.01549  21113805.74249
  23468821.883 4  -9277288.476 4  -6238131.17846  23468815.50846
  23953843.938 1  -2508331.613 1  -2244226.61646  23953836.09846
  23864875.727 3   3158225.253 3   3515026.13545  23864869.23445
  22415152.938 5 -10086017.543 5  -8159764.60347  22415142.75447
  24648141.477 5   5628639.443 5   1153294.33246  24648136.27346
  21928437.922 6 -13552851.282 6 -10588781.15649  21928427.27049
  20250417.477 7 -26644465.599 7 -18021448.89549  20250404.77349
  21798297.289 6 -14810092.973 6  -9227286.50648  21798286.28548
  21776612.555 6  -8623215.030 6  -6123335.93849  21776605.47749
 24 11 23  2 34  0.0000000  0 10G06G11G12G13G14G15G17G19G22G24      
  21103139.219 7 -20610792.397 7 -15011231.64649  21103131.08649
  23448782.281 5  -9382601.552 5  -6320193.08946  23448774.96946
  23938508.633 2  -2588919.485 2  -2307022.09846  23938500.32446
  23882351.469 3   3250059.099 3   3586584.89745  23882345.38745
  22426187.305 5 -10028031.195 5  -8114580.44046  22426177.41446
  24661987.664 5   5701400.355 5   1209991.12347  24661981.99247
  21942028.750 6 -13481427.888 6 -10533126.53648  21942018.91848
  20254236.156 7 -26624395.845 7 -18005810.09949  20254223.74649
  21804165.344 6 -14779255.807 6  -9203257.53448  21804154.16448
  21766697.742 6  -8675317.464 6  -6163935.15249  21766690.54749
 24 11 23  2 34 30.0000000  0 10G06G11G12G13G14G15G17G19G22G24      
  21092563.789 7 -20666365.353 7 -15054535.15649  21092555.77349
  23428767.125 4  -9487777.898 4  -6402148.45546  23428759.93046
  23923173.805 2  -2669503.712 2  -2369814.80046  23923165.67246
  23899830.375 4   3341905.887 4   3658153.78246  23899823.23846
  22437257.648 3  -9969851.823 3  -8069245.82146  22437248.22746
  24675849.352 5   5774244.783 5   1266752.94447  24675843.97347
  21955641.344 6 -13409892.007 6 -10477384.26549  21955631.74649
  20258123.531 7 -26603970.239 7 -17989894.01149  20258110.94549
  21810061.617 6 -14748272.398 6  -9179114.59148  21810050.20348
  21756880.102 6  -8726908.456 6  -6204135.85549  21756872.90649
 24 11 23  2 35  0.0000000  0 10G06G11G12G13G14G15G17G19G22G24      
  21082088.297 7 -20721413.502 7 -15097429.75949  21082080.80949
  23408778.461 4  -9592813.172 4  -6483993.95246  23408771.79346
  23907840.930 3  -2750082.140 3  -2432603.00746  23907831.15646
  23917308.648 3   3433764.168 3   3729731.63846  23917303.32846
  22448366.188 2  -9911477.579 2  -8023759.35746  22448356.64846
  24689726.867 4   5847170.998 4   1323578.45946  24689720.84446
  21969275.883 6 -13338243.849 6 -10421554.52448  21969265.87548
  20262077.859 7 -26583188.437 7 -17973700.37149  20262064.92249
  21815985.633 6 -14717140.390 6  -9154855.86548  21815974.92248
  21747160.625 6  -8777984.575 6  -6243935.36949  21747153.54749
 24 11 23  2 35 30.0000000  0 10G06G11G12G13G14G15G17G19G22G24      
  21071712.523 7 -20775938.179 7 -15139916.45849  21071705.32849
  23388817.750 4  -9697707.919 4  -6565729.91946  23388810.49646
  23892507.570 4  -2830657.756 4  -2495389.04946  23892498.67646
  23934791.359 4   3525627.426 4   3801313.35646  23934783.75446
  22459510.891 1  -9852911.620 1  -7978123.53146  22459501.76246
  24703618.234 4   5920172.799 4   1380462.94046  24703613.21146
  21982930.102 6 -13266488.435 6 -10365641.20348  21982920.21148
  20266098.797 7 -26562055.432 7 -17957233.07349  20266086.79749
  21821937.758 6 -14685862.761 6  -9130483.67348  21821926.63748
  21737539.180 6  -8828547.461 6  -6283334.96049  21737531.28149
 24 11 23  2 36  0.0000000  0 10G06G11G12G13G14G15G17G19G22G24      
  21061437.602 7 -20829933.477 7 -15181990.66249  21061430.40649
  23368885.672 5  -9802455.513 5  -6647351.22746  23368876.25046
  23877175.008 3  -2911226.192 3  -2558169.48946  23877167.57846
  23952275.664 4   3617496.810 4   3872899.80046  23952265.83246
  22470692.97711                 -17753135.20955  22470684.78555
  24717523.055 3   5993250.705 3   1437406.72946  24717520.14146
  21996605.242 6 -13194624.075 6 -10309642.97949  21996595.64549
  20270188.148 7 -26540568.849 7 -17940490.27249  20270175.44549
  21827918.070 6 -14654434.941 6  -9105994.41848  21827907.12548
  21728016.125 6  -8878591.393 6  -6322330.18049  21728008.57849
 24 11 23  2 36 30.0000000  0 10G06G11G12G13G14G15G17G19G22G24      
  21051265.789 7 -20883388.020 7 -15223643.49449  21051258.47749
  23348982.914 5  -9907043.847 5  -6728848.44046  23348973.72746
  23861846.438 1  -2991777.555 1  -2620936.62446  23861838.42246
  23969758.281 3   3709378.539 3   3944495.88546  23969750.73446
  22481915.83611 -22338543.22311 -17707186.89255  22481906.18055
  24731444.406 2   6066410.894 2   1494414.64846  24731442.48846
  22010303.539 6 -13122642.979 6 -10253553.78649  22010293.18049
  20274346.117 7 -26518720.624 7 -17923465.65749  20274332.53549
  21833928.828 7 -14622847.103 7  -9081380.49848  21833918.35248
  21718593.680 6  -8928105.254 6  -6360912.35749  21718586.19149
 24 11 23  2 37  0.0000000  0 10G06G11G12G13G14G15G17G19G22G24      
  21041191.805 7 -20936323.224 7 -15264891.64449  21041184.78549
  23329107.125 5 -10011493.534 5  -6810237.62046  23329098.58246
  23846515.898 2  -3072334.717 2  -2683708.26846  23846508.52746
  23987238.352 2   3801246.001 2   4016080.89545  23987233.91445
  22493170.984 2 -22279394.263 2 -17661096.66545  22493161.09445
  24745378.594 3   6139627.098 3   1551466.17946  24745374.97746
  22024018.547 6 -13050570.372 6 -10197393.28249  22024007.89549
  20278567.031 7 -26496535.700 7 -17906178.68549  20278553.68449
  21839966.000 6 -14591122.172 6  -9056659.76448  21839955.11348
  21709267.852 6  -8977110.710 6  -6399098.38749  21709260.53949
 24 11 23  2 37 30.0000000  0 10G06G11G12G13G14G15G17G19G22G24      
  21031220.336 7 -20988724.271 7 -15305723.55549  21031212.84849
  23309260.648 5 -10115788.919 5  -6891506.57246  23309252.63346
  23831187.883 2  -3152884.603 2  -2746474.22846  23831180.27746
  24004717.547 1   3893109.555 1   4087662.84645  24004714.45745
  22504463.469 2 -22220050.196 2 -17614854.55945  22504452.99245
  24759324.594 5   6212909.324 5   1608569.16746  24759320.44946
  22037753.461 6 -12978395.122 6 -10141152.79049  22037742.28149
  20282854.977 7 -26474003.295 7 -17888620.93949  20282841.80549
  21846031.477 6 -14559246.908 6  -9031821.86948  21846020.29748
  21700042.773 6  -9025593.191 6  -6436876.89049  21700034.87549
 24 11 23  2 38  0.0000000  0 10G06G11G12G13G14G15G17G19G22G24      
  21021350.734 7 -21040590.636 7 -15346138.84449  21021343.30549
  23289443.867 5 -10219928.622 5  -6972654.23447  23289435.79347
  23815863.523 3  -3233428.046 3  -2809235.22146  23815852.93046
  24022197.05511  -3892135.47111  -1978761.86155  24022193.61355
  22515792.922 4 -22160512.397 4 -17568461.36945  22515782.68045
  24773280.938 4   6286252.926 4   1665719.94346  24773277.32046
  22051506.656 6 -12906120.813 6 -10084835.10349  22051495.82849
  20287208.492 7 -26451125.763 7 -17870794.27349  20287195.43849
  21852125.484 7 -14527221.806 7  -9006867.23448  21852114.71548
  21690915.992 6  -9073552.394 6  -6474247.64049  21690908.15249
 24 11 23  2 38 30.0000000  0 10G06G11G12G13G14G15G17G19G22G24      
  21011583.430 7 -21091918.513 7 -15386134.52449  21011575.94149
  23269656.594 5 -10323908.012 5  -7053676.98946  23269648.98846
  23800536.727 3  -3313962.609 3  -2871989.28046  23800527.36346
  24039677.71113  -3800290.22313  -1907194.18955  24039671.62955
  22527158.672 3 -22100778.687 3 -17521915.59345  22527149.77745
  24787247.992 3   6359656.583 3   1722917.57346  24787245.84046
  22065278.477 6 -12833746.897 6 -10028439.82449  22065268.05949
  20291627.281 7 -26427902.742 7 -17852698.38149  20291614.93049
  21858249.305 7 -14495044.652 7  -8981794.11148  21858237.83248
  21681889.398 6  -9120984.698 6  -6511207.81449  21681882.61349
 24 11 23  2 39  0.0000000  0 10G06G11G12G13G14G15G17G19G22G24      
  21001918.859 7 -21142705.445 7 -15425708.69949  21001911.54749
  23249900.664 5 -10427723.715 5  -7134572.20947  23249892.82447
  23785211.180 2  -3394487.438 2  -2934735.72646  23785203.80946
  24057154.633 4  -3708457.178 4  -1835636.05545  24057146.09045
  22538562.563 2 -22040848.431 2 -17475216.59845  22538555.30945
  24801227.680 2   6433117.752 2   1780160.00946  24801225.46946
  22079069.242 6 -12761274.645 6  -9971967.91149  22079058.82449
  20296112.531 7 -26404335.307 7 -17834334.12549  20296099.53549
  21864401.688 6 -14462714.257 6  -8956601.56948  21864390.15648
  21672963.711 6  -9167887.937 6  -6547755.73649  21672956.86749
 24 11 23  2 39 30.0000000  0 10G06G11G12G13G14G15G17G19G22G24      
  20992357.391 7 -21192951.442 7 -15464861.35749  20992349.72749
  23230176.281 5 -10531374.873 5  -7215339.20846  23230168.67646
  23769890.008 2  -3475003.566 2  -2997475.42846  23769881.75846
  24074626.875 4  -3616640.877 4  -1764090.96646  24074617.98046
  22550005.492 2 -21980723.387 2 -17428365.81245  22549997.30145
  24815216.367 3   6506631.751 3   1837443.65846  24815214.62546
  22092878.453 6 -12688707.697 6  -9915422.22749  22092867.91849
  20300662.039 7 -26380426.961 7 -17815704.23549  20300648.98449
  21870582.430 6 -14430232.090 6  -8931290.76348  21870571.07448
  21664138.711 6  -9214262.306 6  -6583891.55249  21664132.21949
 24 11 23  2 40  0.0000000  0 10G06G11G12G13G14G15G17G19G22G24      
  20982899.102 7 -21242654.847 7 -15503591.22049  20982891.84849
  23210484.602 5 -10634858.849 5  -7295975.95546  23210475.88346
  23754571.844 4  -3555510.993 4  -3060208.37646  23754561.89546
  24092094.086 4  -3524844.445 4  -1692561.29646  24092086.83246
  22561484.359 2 -21920403.486 2 -17381363.28945  22561476.52045
  24829216.516 4   6580195.319 4   1894765.87246  24829212.78146
  22106705.008 6 -12616048.156 6  -9858804.39548  22106694.12148
  20305276.000 7 -26356179.503 7 -17796810.08449  20305262.88749
  21876792.133 7 -14397597.675 7  -8905861.33848  21876781.48048
  21655415.320 6  -9260106.318 6  -6619614.09949  21655408.06649
 24 11 23  2 40 30.0000000  0 10G06G11G12G13G14G15G17G19G22G24      
  20973544.688 7 -21291813.701 7 -15541896.75549  20973536.61349
  23190825.102 6 -10738172.802 6  -7376480.22147  23190815.91447
  23739253.008 4  -3636008.938 4  -3122933.90347  23739243.70347
  24109558.375 4  -3433071.052 4  -1621049.61546  24109551.23846
  22573000.797 1 -21859888.561 1 -17334208.75545  22572991.78545
  24843225.070 3   6653805.462 3   1952124.27046  24843219.28146
  22120548.945 6 -12543297.568 6  -9802115.59449  22120538.05949
  20309954.313 7 -26331594.139 7 -17777652.63349  20309941.37549
  21883031.438 7 -14364810.212 7  -8880312.65548  21883020.43448
  21646793.570 6  -9305418.275 6  -6654922.05349  21646785.32049
 24 11 23  2 41  0.0000000  0 10G06G11G12G13G14G15G17G19G22G24      
  20964293.867 7 -21340423.401 7 -15579774.39149  20964286.73049
  23171199.672 6 -10841311.181 6  -7456847.65947  23171188.84447
  23723937.375 4  -3716494.107 4  -3185649.49247  23723927.54347
  24127018.195 4  -3341320.734 4  -1549555.91845  24127011.41045
  22584551.188 1 -21799175.727 1 -17286900.12245  22584544.87145
  24857239.734 1   6727462.056 1   2009519.00446  24857236.82046
  22134409.906 6 -12470454.902 6  -9745355.05249  22134400.19149
  20314697.242 7 -26306669.604 7 -17758230.90449  20314684.83249
  21889300.508 6 -14331866.544 6  -8854642.24148  21889289.15248
  21638273.000 6  -9350193.851 6  -6689812.04749  21638264.57449
 24 11 23  2 41 30.0000000  0 10G06G11G12G13G14G15G17G19G22G24      
  20955148.328 6 -21388483.111 6 -15617223.44649  20955140.72349
  23151606.320 6 -10944272.094 6  -7537076.81147  23151595.72747
  23708623.109 3  -3796966.904 3  -3248355.44846  23708613.57046
  24144471.922 3  -3249597.637 3  -1478083.44246  24144465.02046
  22596142.09411 -21738265.68111 -17239437.66155  22596135.89555
  24871264.938 2   6801161.086 2   2066946.79346  24871261.26246
  22148289.055 6 -12397522.794 6  -9688524.83349  22148278.63749
  20319504.000 7 -26281408.467 7 -17738546.87849  20319491.82449
  21895599.203 6 -14298767.054 6  -8828850.41348  21895587.84848
  21629853.555 6  -9394432.340 6  -6724283.53249  21629846.35949
 24 11 23  2 42  0.0000000  0 10G06G11G12G13G14G15G17G19G22G24      
  20946107.406 7 -21435992.497 7 -15654243.69849  20946099.74249
  23132046.234 6 -11047054.226 6  -7617166.64247  23132036.87147
  23693310.492 3  -3877428.064 3  -3311052.27746  23693302.35946
  24161919.664 3  -3157905.599 3  -1406635.12945  24161913.81645
  22607771.07811 -21677159.81911                
  24885295.211 1   6874897.966 1   2124403.99846  24885291.24246
  22162183.648 6 -12324504.429 6  -9631627.38249  22162173.87549
  20324375.047 7 -26255813.791 7 -17718602.96049  20324362.52049
  21901926.953 6 -14265512.623 6  -8802937.82948  21901916.12548
  21621538.047 6  -9438133.580 6  -6758336.38649  21621529.68049
 24 11 23  2 42 30.0000000  0 10G06G11G12G13G14G15G17G19G22G24      
  20937172.320 7 -21482947.269 7 -15690831.76249  20937164.71549
  23112521.703 5 -11149652.235 5  -7697113.02647  23112513.80547
  23678003.711 4  -3957874.480 4  -3373737.63346  23677993.58646
  24179362.508 4  -3066245.191 4  -1335211.44846  24179356.71946
  22619437.29711                                
  24899333.328 1   6948672.240 1   2181890.32146  24899331.29346
  22176095.906 6 -12251398.917 6  -9574662.03549  22176085.37149
  20329309.656 7 -26229884.468 7 -17698398.27549  20329296.25049
  21908285.344 6 -14232100.120 6  -8776902.09648  21908274.34048
  21613325.219 6  -9481293.563 6  -6791967.49449  21613317.96549
 24 11 23  2 43  0.0000000  0  9G06G11G12G13G14G17G19G22G24         
  20928342.727 7 -21529349.565 7 -15726989.33449  20928334.94549
  23093031.648 5 -11252067.195 5  -7776916.78146  23093024.98046
  23662696.359 4  -4038309.760 4  -3436414.37546  23662687.34846
  24196796.594 3  -2974623.257 3  -1263817.84945  24196791.15645
  22631139.03111 -21554356.26411                
  22190022.938 6 -12178211.886 6  -9517633.16549  22190011.52349
  20334306.016 7 -26203626.295 7 -17677937.33349  20334292.78549
  21914673.227 7 -14198532.743 7  -8750745.66748  21914662.04748
  21605214.813 6  -9523914.580 6  -6825178.61049  21605206.73849
 24 11 23  2 43 30.0000000  0 10G06G11G12G13G14G15G17G19G22G24      
  20919617.688 7 -21575197.933 7 -15762715.27549  20919610.14149
  23073577.813 4 -11354296.600 4  -7856575.97147  23073570.79347
  23647392.633 3  -4118733.506 3  -3499082.12246  23647383.21146
  24214225.695 5  -2883042.980 5  -1192456.65346  24214217.50446
  22642879.82011                                
  24927430.03911   5520886.97511   1060242.99356  24927426.59856
  22203964.820 6 -12104945.009 6  -9460542.06949  22203953.99249
  20339364.930 7 -26177040.533 7 -17657221.13049  20339352.28549
  21921090.578 6 -14164810.187 6  -8724468.31548  21921078.87148
  21597206.539 6  -9565995.391 6  -6857968.79549  21597198.87549
 24 11 23  2 44  0.0000000  0 10G06G11G12G13G14G15G17G19G22G24      
  20910999.766 7 -21620485.470 7 -15798004.21149  20910991.86749
  23054162.070 5 -11456332.445 5  -7936084.29447  23054153.87947
  23632091.766 4  -4199139.932 4  -3561736.36946  23632083.22346
  24231645.484 3  -2791502.013 3  -1121126.05945  24231637.82045
  22654658.00011 -21430768.61511                
  24941485.547 2   5594748.844 2   1117797.58146  24941482.39846
  22217923.320 6 -12031594.980 6  -9403386.18849  22217912.08249
  20344487.383 7 -26150123.784 7 -17636247.00649  20344474.09449
  21927537.820 6 -14130926.819 6  -8698065.66548  21927527.22748
  21589302.797 6  -9607529.257 6  -6890332.79149  21589295.60249
 24 11 23  2 44 30.0000000  0 10G06G11G12G13G14G15G17G19G22G24      
  20902487.977 6 -21665214.558 6 -15832857.97849  20902480.54749
  23034782.609 5 -11558175.953 5  -8015442.73547  23034774.30147
  23616792.688 3  -4279531.593 3  -3624379.05547  23616785.14147
  24249055.852 3  -2700007.159 3  -1049831.42745  24249048.83245
  22666474.18011 -21368678.55911                
  24955546.828 3   5668633.056 3   1175369.60146  24955541.80546
  22231895.680 6 -11958167.475 6  -9346169.93049  22231884.91049
  20349671.156 7 -26122881.594 7 -17615019.28549  20349658.39549
  21934015.477 6 -14096885.999 6  -8671540.32148  21934004.70748
  21581502.891 6  -9648518.722 6  -6922272.57049  21581495.40249
 24 11 23  2 45  0.0000000  0  9G06G11G12G13G15G17G19G22G24         
  20894082.891 7 -21709380.756 7 -15867273.12749  20894075.98849
  23015441.539 6 -11659821.579 6  -8094646.97347  23015430.47747
  23601498.141 3  -4359906.598 3  -3687008.80247  23601490.18447
  24266457.211 3  -2608558.406 3   -978572.75145  24266451.18845
  24969610.547 1   5742539.737 1   1232959.11845  24969605.16845
  22245883.156 6 -11884661.106 6  -9288892.22249  22245872.62149
  20354916.609 7 -26095313.057 7 -17593537.26749  20354904.43449
  21940523.984 6 -14062684.315 6  -8644889.64048  21940513.44948
  21573807.305 6  -9688959.570 6  -6953784.86149  21573799.81649
 24 11 23  2 45 30.0000000  0  8G06G11G12G13G17G19G22G24            
  20885785.664 7 -21752981.498 7 -15901247.66049  20885778.99649
  22996137.211 6 -11761265.646 6  -8173694.12947  22996126.91047
  23586207.742 4  -4440262.727 4  -3749623.81247  23586198.73047
  24283849.469 2  -2517157.766 2   -907351.50545  24283844.62145
  22259885.672 6 -11811076.710 6  -9231553.70949  22259875.72349
  20360225.414 7 -26067418.313 7 -17571801.06249  20360212.53549
  21947062.742 6 -14028320.479 6  -8618112.57848  21947051.73848
  21566216.086 6  -9728849.402 6  -6984867.79749  21566209.41849
 24 11 23  2 46  0.0000000  0  9G06G11G12G13G15G17G19G22G24         
  20877594.758 7 -21796023.778 7 -15934787.03549  20877586.85949
  22976869.438 6 -11862513.869 6  -8252588.71847  22976860.19147
  23570918.609 4  -4520607.812 4  -3812230.20847  23570909.18847
  24301232.648 3  -2425816.758 3   -836176.75445  24301226.09845
  24997746.28911   5890404.21011   1326434.56256  24997743.31656
  22273901.711 6 -11737424.470 6  -9174162.32949  22273891.00049
  20365593.305 7 -26039207.469 7 -17549818.55549  20365580.77749
  21953631.844 6 -13993802.138 6  -8591215.13948  21953620.72348
  21558729.586 7  -9768195.394 7  -7015526.95949  21558721.51249
 24 11 23  2 46 30.0000000  0  9G06G11G12G13G15G17G19G22G24         
  20869512.805 7 -21838496.860 7 -15967882.89149  20869505.96149
  22957640.188 5 -11963554.296 5  -8331321.38547  22957633.34447
  23555632.094 4  -4600931.977 4  -3874820.36547  23555622.55547
  24318602.773 2  -2334529.178 2   -765043.65945  24318597.86745
  25011819.680 3   5964354.906 3   1384058.40046  25011815.12546
  22287931.383 6 -11663696.828 6  -9116712.19049  22287920.78949
  20371023.141 7 -26010673.343 7 -17527584.12749  20371010.78949
  21960231.320 6 -13959119.498 6  -8564189.68948  21960220.78548
  21551346.797 6  -9806986.951 6  -7045754.10149  21551339.71949
 24 11 23  2 47  0.0000000  0  9G06G11G12G13G15G17G19G22G24         
  20861538.180 7 -21880402.528 7 -16000536.60449  20861531.74649
  22938451.664 5 -12064387.473 5  -8409892.56147  22938445.64147
  23540350.477 4  -4681238.091 4  -3937396.43647  23540341.17247
  24335963.188 2  -2243300.912 2   -693956.69045  24335958.51645
  25025894.078 3   6038314.455 3   1441689.13646  25025890.16846
  22301975.016 6 -11589899.014 6  -9059207.36449  22301964.12949
  20376514.172 7 -25981820.552 7 -17505101.40248  20376500.88348
  21966862.109 6 -13924275.658 6  -8537038.61048  21966851.10548
  21544071.039 6  -9845225.999 6  -7075550.72149  21544063.37549
 24 11 23  2 47 30.0000000  0  9G06G11G12G13G15G17G19G22G24         
  20853672.891 7 -21921738.288 7 -16032746.22249  20853665.40249
  22919303.773 5 -12165009.733 5  -8488299.41147  22919296.81347
  23525072.930 5  -4761524.573 5  -3999957.20247  23525063.39147
  24353313.570 3  -2152133.879 3   -622917.55245  24353307.54745
  25039968.813 2   6112280.873 2   1499325.23546  25039965.95746
  22316031.391 6 -11516031.424 6  -9001648.18249  22316020.97349
  20382064.703 7 -25952649.712 7 -17482370.83748  20382051.82448
  21973523.656 6 -13889269.245 6  -8509760.84348  21973512.77048
  21536900.297 6  -9882910.272 6  -7104915.03249  21536891.93049
 24 11 23  2 48  0.0000000  0  9G06G11G12G13G15G17G19G22G24         
  20845916.344 7 -21962500.194 7 -16064508.69549  20845907.97749
  22900197.805 6 -12265415.804 6  -8566537.78047  22900189.55547
  23509799.344 4  -4841788.120 4  -4062500.10047  23509789.92247
  24370650.141 2  -2061028.532 2   -551926.37745  24370643.82445
  25054042.656 1   6186253.191 1   1556965.95846  25054043.31646
  22330100.945 6 -11442093.211 6  -8944033.96449  22330090.46949
  20387676.383 7 -25923160.124 7 -17459391.91148  20387663.44548
  21980216.797 6 -13854096.870 6  -8482353.75848  21980205.96948
  21529834.820 6  -9920035.973 6  -7133844.09949  21529827.27349
 24 11 23  2 48 30.0000000  0  9G06G11G12G13G15G17G19G22G24         
  20838267.594 6 -22002695.641 6 -16095829.75549  20838259.16849
  22881131.250 6 -12365611.809 6  -8644612.46647  22881123.29347
  23494528.102 4  -4922036.698 4  -4125031.31847  23494519.26647
  24387971.594 1  -1969996.633 1   -480992.45745  24387966.03945
  25068123.16413   6260220.41213   1614602.69156  25068116.96556
  22344182.414 6 -11368094.877 6  -8886372.90749  22344172.28949
  20393346.938 7 -25893361.923 7 -17436172.48648  20393333.76648
  21986939.938 6 -13818766.839 6  -8454823.81948  21986928.81648
  21522874.773 6  -9956610.600 6  -7162343.75449  21522866.93449
 24 11 23  2 49  0.0000000  0  9G06G11G12G13G15G17G19G22G24         
  20830727.773 7 -22042315.031 7 -16126701.93649  20830720.22749
  22862106.711 6 -12465586.781 6  -8722514.89147  22862097.40647
  23479261.563 4  -5002262.227 4  -4187544.59647  23479252.55147
  24405281.719 2  -1879032.791 2   -410111.62745  24405276.45745
  25082195.969 3   6334187.159 3   1672238.98746  25082190.18046
  22358277.180 6 -11294029.639 6  -8828659.72449  22358266.35249
  20399077.422 7 -25863248.646 7 -17412707.55848  20399064.36748
  21993694.047 6 -13783270.454 6  -8427164.27448  21993683.16048
  21516021.273 6  -9992624.722 6  -7190406.65549  21516013.72749
 24 11 23  2 49 30.0000000  0  9G06G11G12G13G15G17G19G22G24         
  20823297.156 7 -22081359.114 7 -16157125.85149  20823290.37149
  22843124.367 6 -12565340.220 6  -8800244.70547  22843114.82847
  23463998.398 4  -5082465.859 4  -4250040.80946  23463988.85946
  24422579.836 3  -1788141.857 3   -339287.64345  24422573.16845
  25096269.641 2   6408148.263 2   1729870.92146  25096264.85246
  22372382.813 6 -11219901.441 6  -8770897.46649  22372372.10249
  20404866.336 7 -25832824.133 7 -17389000.12048  20404853.98448
  22000480.922 6 -13747609.184 6  -8399376.23248  22000469.44948
  21509274.555 6 -10028079.271 6  -7218033.52049  21509266.94949
 24 11 23  2 50  0.0000000  0 10G06G11G12G13G14G15G17G19G22G24      
  20815978.094 7 -22119824.709 7 -16187098.98649  20815970.72349
  22824183.789 5 -12664867.341 5  -8877798.15347  22824175.42247
  23448742.352 5  -5162644.760 5  -4312517.75047  23448731.23047
  24439859.813 3  -1697324.687 3   -268521.11345  24439854.96545
  22798929.91411    284870.28611                
  25110346.422 4   6482103.126 4   1787497.99046  25110338.40646
  22386500.719 6 -11145709.860 6  -8713085.81549  22386490.18449
  20410715.438 7 -25802087.885 7 -17365049.77048  20410702.50048
  22007298.234 6 -13711780.495 6  -8371457.76248  22007287.69948
  21502634.813 6 -10062971.035 6  -7245221.85549  21502626.73849
 24 11 23  2 50 30.0000000  0 10G06G11G12G13G14G15G17G19G22G24      
  20808767.773 7 -22157714.357 7 -16216623.34849  20808760.10949
  22805286.352 5 -12764169.610 5  -8955176.44247  22805278.80547
  23433487.750 5  -5242802.413 5  -4374978.09147  23433478.62147
  24457127.484 3  -1606588.274 3   -197817.45945  24457122.28145
  22811197.500 2    349338.516 2                
  25124411.789 2   6556044.494 2   1845114.59447  25124410.28147
  22400630.125 6 -11071460.652 6  -8655229.25849  22400619.59049
  20416622.500 7 -25771045.776 7 -17340861.08148  20416609.85548
  22014147.586 6 -13675788.446 6  -8343411.96448  22014136.81648
  21496101.625 6 -10097302.966 6  -7271973.96449  21496093.78549
 24 11 23  2 51  0.0000000  0 10G06G11G12G13G14G15G17G19G22G24      
  20801667.797 7 -22195023.058 7 -16245695.01949  20801660.42649
  22786433.891 5 -12863240.547 5  -9032374.44547  22786427.04747
  23418239.477 5  -5322934.482 5  -4437418.47747  23418230.05547
  24474377.664 2  -1515931.557 2   -127175.87545  24474373.40245
  22823503.508 2    414007.023 2 -16955479.66355  22823492.97355
  25138484.078 4   6629973.330 4   1902721.45747  25138479.23047
  22414770.594 6 -10997151.512 6  -8597326.01449  22414760.00049
  20422588.250 7 -25739695.313 7 -17316432.12648  20422575.60548
  22021028.289 6 -13639628.320 6  -8315235.20948  22021017.63748
  21489676.000 6 -10131070.144 6  -7298285.99949  21489668.04349
 24 11 23  2 51 30.0000000  0 10G06G11G12G13G14G15G17G19G22G24      
  20794678.984 7 -22231751.817 7 -16274314.78649  20794671.26249
  22767626.344 5 -12962079.610 5  -9109391.79447  22767619.26647
  23402996.000 5  -5403042.605 5  -4499840.25347  23402984.52747
  24491614.078 3  -1425359.930 3    -56600.63645  24491609.17245
  22835846.094 1    478873.587 1 -16904934.34045  22835838.19545
  25152548.336 2   6703884.311 2   1960314.36846  25152544.13346
  22428921.461 6 -10922786.141 6  -8539378.93149  22428911.51249
  20428612.242 7 -25708040.783 7 -17291766.24348  20428599.36348
  22027940.875 6 -13603301.455 6  -8286928.54648  22027930.04748
  21483357.063 6 -10164273.620 6  -7324158.78349  21483349.45749
 24 11 23  2 52  0.0000000  0 10G06G11G12G13G14G15G17G19G22G24      
  20787800.688 7 -22267897.789 7 -16302480.43049  20787792.55549
  22748864.406 6 -13060682.607 6  -9186225.18547  22748855.33647
  23387755.039 4  -5483124.659 4  -4562241.67147  23387746.20347
  24508833.891 3  -1334874.322 3     13907.60545  24508828.86745
  22848229.164 2    543939.878 2 -16854233.32445  22848220.15245
  25166607.023 1   6777776.080 1   2017892.33246  25166603.69946
  22443083.797 6 -10848364.650 6  -8481388.12849  22443073.67249
  20434693.539 7 -25676082.274 7 -17266863.48748  20434680.71948
  22034885.781 6 -13566806.533 6  -8258490.93548  22034874.60248
  21477146.750 6 -10196910.725 6  -7349590.24449  21477139.43849
 24 11 23  2 52 30.0000000  0 10G06G11G12G13G14G15G17G19G22G24      
  20781033.094 7 -22303460.052 7 -16330191.22749  20781025.31349
  22730146.852 6 -13159047.111 6  -9262872.70447  22730136.72747
  23372520.578 4  -5563179.976 4  -4624622.18747  23372512.38747
  24526037.531 4  -1244477.756 4     84346.37345  24526030.62945
  22860648.578 3    609205.550 3 -16803376.92546  22860639.62546
  25180663.648 2   6851645.348 2   2075452.71846  25180660.61746
  22457256.086 6 -10773888.997 6  -8423355.13749  22457245.78549
  20440832.367 7 -25643821.739 7 -17241725.36548  20440819.37148
  22041862.531 6 -13530143.132 6  -8229922.02148  22041851.70348
  21471044.063 6 -10228980.646 6  -7374579.73849  21471036.45749
 24 11 23  2 53  0.0000000  0 10G06G11G12G13G14G15G17G19G22G24      
  20774376.719 7 -22338438.017 7 -16357446.73449  20774369.34849
  22711474.070 6 -13257170.988 6  -9339332.75347  22711462.77347
  23357292.984 5  -5643208.428 5  -4686981.80347  23357283.03547
  24543221.586 3  -1154173.903 3    154712.97145  24543214.97745
  22873105.453 3    674669.980 3 -16752365.68146  22873096.85246
  25194714.828 2   6925488.718 2   2132992.94946  25194712.20746
  22471437.984 6 -10699361.240 6  -8365281.55948  22471427.97748
  20447028.367 6 -25611261.024 6 -17216353.34648  20447015.78148
  22048872.313 7 -13493310.941 7  -8201221.59648  22048860.54748
  21465049.156 6 -10260482.924 6  -7399126.92149  21465041.49249
 24 11 23  2 53 30.0000000  0 10G06G11G12G13G14G15G17G19G22G24      
  20767832.484 7 -22372829.743 7 -16384245.44449  20767824.58649
  22692847.391 6 -13355050.856 6  -9415602.62347  22692836.27047
  23342068.820 4  -5723208.716 4  -4749319.51247  23342058.75447
  24560385.883 1  -1063964.545 1    225005.88145  24560381.27045
  22885599.930 2    740333.919 2 -16701198.91446  22885592.38346
  25208765.000 4   6999303.968 4   2190511.29746  25208760.15246
  22485629.992 6 -10624782.034 6  -8307167.87648  22485619.63348
  20453281.156 6 -25578401.383 6 -17190748.40649  20453268.98049
  22055913.031 7 -13456309.042 7  -8172388.94248  22055901.44148
  21459162.789 6 -10291415.781 6  -7423230.38649  21459154.94949
 24 11 23  2 54  0.0000000  0 10G06G11G12G13G14G15G17G19G22G24      
  20761400.383 7 -22406632.567 7 -16410585.25549  20761392.25049
  22674268.063 6 -13452682.416 6  -9491679.03547  22674257.52747
  23326849.148 4  -5803178.835 4  -4811633.72547  23326840.95747
  24577533.102 2   -973851.269 2    295223.94145  24577529.30945
  22898133.844 3    806198.862 3 -16649875.59546  22898125.71146
  25222805.789 5   7073089.992 5   2248006.83047  25222802.34847
  22499832.180 6 -10550151.640 6  -8249014.30448  22499820.94148
  20459591.133 7 -25545242.655 7 -17164910.41848  20459578.95748
  22062986.430 7 -13419135.151 7  -8143422.24347  22062975.07447
  21453385.727 6 -10321776.618 6  -7446888.15149  21453377.59449
 24 11 23  2 54 30.0000000  0 10G06G11G12G13G14G15G17G19G22G24      
  20755079.445 7 -22439847.300 7 -16436466.80449  20755071.95749
  22655735.578 6 -13550064.927 6  -9567561.38847  22655727.15247
  23311637.688 4  -5883119.804 4  -4873925.23847  23311628.73447
  24594659.539 1   -883838.389 1                
  22910706.688 2    872262.975 2 -16598397.01746  22910696.97346
  25236836.898 3   7146841.748 3   2305475.73947  25236836.97347
  22514042.648 6 -10475473.213 6  -8190823.30748  22514032.28948
  20465957.219 7 -25511788.726 7 -17138842.38749  20465944.51649
  22070093.578 7 -13381790.773 7  -8114322.71248  22070082.28148
  21447716.742 6 -10351566.344 6  -7470100.87349  21447708.31649
 24 11 23  2 55  0.0000000  0 10G06G11G12G13G14G15G17G19G22G24      
  20748871.180 7 -22472472.477 7 -16461888.98249  20748863.28149
  22637251.695 6 -13647195.394 6  -9643247.37047  22637245.26247
  23296432.438 4  -5963030.529 4  -4936193.16447  23296421.49247
  24611770.68812   -793928.32312                
  22923316.797 2    938526.421 2 -16546763.12745  22923307.02345
  25250869.039 4   7220556.671 4   2362915.87446  25250863.42646
  22528262.125 6 -10400748.276 6  -8132596.04748  22528251.82448
  20472379.914 7 -25478040.620 7 -17112545.13748  20472366.80148
  22077232.320 7 -13344274.929 7  -8085089.56048  22077220.96548
  21442156.875 6 -10380783.686 6  -7492867.58349  21442148.74249
 24 11 23  2 55 30.0000000  0 10G06G11G12G13G14G15G17G19G22G24      
  20742775.492 7 -22504507.154 7 -16486851.00449  20742767.24249
  22618817.813 6 -13744071.205 6  -9718734.93747  22618810.79347
  23281231.656 5  -6042910.286 5  -4998436.94547  23281221.00447
  24628859.461 1   -704124.270 1                
  22935964.539 2   1004989.165 2 -16494973.89345  22935954.35545
  25264887.18813   7294231.53113   2420324.76156  25264882.80956
  22542489.883 6 -10325978.108 6  -8074333.56048  22542479.58248
  20478857.063 7 -25444000.139 7 -17086020.05449  20478844.41849
  22084404.516 7 -13306587.378 7  -8055722.62248  22084392.16448
  21436705.836 6 -10409427.716 6  -7515187.56649  21436698.11349
 24 11 23  2 56  0.0000000  0 10G06G11G12G13G14G15G17G19G22G24      
  20736791.352 7 -22535950.822 7 -16511352.51149  20736783.04349
  22600432.773 6 -13840690.315 6  -9794022.46247  22600424.40647
  23266036.867 5  -6122758.712 5  -5060656.33347  23266026.44947
  24645931.563 3   -614429.444 3                
  22948649.102 1   1071650.581 1 -16443029.96845  22948641.32045
  25278896.484 1   7367863.174 1   2477700.02146  25278895.15246
  22556727.242 6 -10251164.822 6  -8016037.46848  22556715.88748
  20485390.383 6 -25409669.457 6 -17059268.85548  20485377.15248
  22091608.641 6 -13268728.037 6  -8026221.81448  22091596.87548
  21431364.039 6 -10437498.150 6  -7537060.59449  21431356.60949
 24 11 23  2 56 30.0000000  0 10G06G11G12G13G14G15G17G19G22G24      
  20730920.242 7 -22566801.508 7 -16535391.94149  20730912.52049
  22582096.266 6 -13937049.056 6  -9869107.09047  22582087.25447
  23250848.313 5  -6202574.316 5  -5122850.17947  23250838.07047
  24662977.844 3   -524844.875 3                
  22961371.602 1   1138511.492 1                
  25292902.102 3   7441449.522 3   2535040.00746  25292897.13746
  22570971.570 6 -10176308.874 6  -7957708.16348  22570960.74248
  20491978.227 7 -25375049.259 7 -17032292.05648  20491965.11348
  22098845.523 6 -13230695.389 6  -7996585.96048  22098834.34448
  21426131.805 6 -10464992.955 6  -7558485.07649  21426124.78549
 24 11 23  2 57  0.0000000  0 10G06G11G12G13G14G15G17G19G22G24      
  20725163.039 7 -22597057.240 7 -16558967.78449  20725155.43449
  22563808.977 6 -14033143.764 6  -9943985.98247  22563800.37547
  23235665.227 4  -6282355.474 4  -5185017.19947  23235655.68847
  24680004.797 3   -435373.054 3                
  22974133.047 1   1205573.096 1                
  25306897.086 4   7514988.977 4   2592343.39346  25306891.59046
  22585224.891 6 -10101410.928 6  -7899346.10648  22585213.18448
  20498620.844 7 -25340140.202 7 -17005090.16148  20498607.84848
  22106116.258 6 -13192487.923 6  -7966813.88247  22106105.13747
  21421010.141 6 -10491910.356 6  -7579459.63849  21421002.00849
 24 11 23  2 57 30.0000000  0 10G06G11G12G13G14G15G17G19G22G24      
  20719518.875 7 -22626718.321 7 -16582080.25849  20719511.03549
  22545572.859 6 -14128972.997 6 -10018658.01347  22545563.90647
  23220490.602 4  -6362102.671 4  -5247157.74047  23220479.71547
  24697006.195 1   -346017.690 1                
  22986933.445 2   1272833.925 2                
  25320881.648 4   7588477.361 4   2649607.01247  25320877.15247
  22599484.688 6 -10026473.478 6  -7840953.27348  22599473.68448
  20505318.695 7 -25304945.007 7 -16977665.30748  20505305.17248
  22113419.727 6 -13154106.094 6  -7936905.95047  22113408.84047
  21415997.688 6 -10518250.719 6  -7599984.55549  21415989.90649
 24 11 23  2 58  0.0000000  0 10G06G11G12G13G14G15G17G19G22G24      
  20713987.766 7 -22655782.380 7 -16604727.53249  20713980.51249
  22527388.641 6 -14224532.701 6 -10093120.03047  22527380.15647
  23205321.008 4  -6441813.608 4  -5309270.00647  23205311.17647
  24713985.906 1   -256780.360 1                
  22999770.125 2   1340295.311 2                
  25334853.109 2   7661913.076 2   2706829.61047  25334851.48447
  22613752.898 6  -9951496.570 6  -7782529.67748  22613741.66048
  20512070.164 7 -25269464.106 7 -16950017.83548  20512057.16848
  22120757.484 6 -13115548.530 6  -7906861.07147  22120745.95347
  21411094.836 6 -10544011.752 6  -7620058.04449  21411086.99649
 24 11 23  2 58 30.0000000  0 10G06G11G12G13G14G15G17G19G22G24      
  20708571.359 7 -22684248.592 7 -16626908.94049  20708563.52049
  22509256.656 6 -14319820.322 6 -10167370.03447  22509247.46947
  23190160.859 5  -6521487.174 5  -5371353.17647  23190150.44147
  24730945.164 1   -167663.615 1                
  23012644.852 1   1407957.170 1                
  25348816.164 2   7735293.459 2   2764009.12347  25348815.94547
  22628027.219 6  -9876481.966 6  -7724076.71648  22628016.33248
  20518875.867 7 -25233699.104 7 -16922148.97848  20518862.81348
  22128128.000 6 -13076814.437 6  -7876678.64447  22128116.70347
  21406303.594 6 -10569192.781 6  -7639679.57449  21406295.10949
 24 11 23  2 59  0.0000000  0 10G06G11G12G13G14G15G17G19G22G24      
  20703267.969 7 -22712117.368 7 -16648624.81449  20703259.77749
  22491176.469 6 -14414834.519 6 -10241406.98347  22491166.22747
  23175006.055 4  -6601124.433 4  -5433408.06547  23174996.34047
  24747877.89111    -78671.61611                
  23025558.430 1   1475818.141 1                
  25362772.070 4   7808614.025 4   2821141.96546  25362767.80946
  22642307.836 6  -9801432.378 6  -7665596.48148  22642297.77048
  20525735.188 7 -25197652.938 7 -16894061.03448  20525722.25048
  22135532.625 6 -13037904.701 6  -7846359.34147  22135521.68047
  21401621.602 6 -10593794.198 6  -7658849.46449  21401613.70349
 24 11 23  2 59 30.0000000  0 10G06G11G12G13G14G15G17G19G22G24      
  20698079.031 7 -22739385.709 7 -16669872.81149  20698070.78149
  22473148.875 6 -14509570.491 6 -10315227.13447  22473137.81347
  23159857.703 4  -6680722.591 4  -5495432.45347  23159848.63347
  24764791.766 1     10195.759 1                
  23038510.109 1   1543880.309 1                
  25376714.992 4   7881874.148 4   2878227.64846  25376707.27046
  22656596.820 6  -9726346.797 6  -7607088.20548  22656586.22748
  20532648.063 6 -25161325.201 6 -16865753.66848  20532635.12548
  22142971.172 6 -12998816.538 6  -7815900.99847  22142959.81647
  21397051.008 6 -10617813.188 6  -7677565.48549  21397043.05149
 24 11 23  3  0  0.0000000  0 10G06G11G12G13G14G15G17G19G22G24      
  20693003.031 7 -22766055.812 7 -16690654.65549  20692995.48449
  22455174.008 6 -14604028.640 6 -10388830.77247  22455163.06347
  23144718.313 4  -6760283.399 4  -5557427.76947  23144708.94947
  24781678.672 1     98932.263 1                
  23051499.13311   1612140.60111                
  25390641.336 2   7955068.211 2   2935261.87146  25390635.95746
  22670890.422 6  -9651229.657 6  -7548555.36648  22670879.82848
  20539613.547 6 -25124720.484 6 -16837230.47748  20539600.90248
  22150442.617 6 -12959552.371 6  -7785305.53347  22150430.91047
  21392590.664 6 -10641251.961 6  -7695829.40549  21392582.76649
 24 11 23  3  0 30.0000000  0 10G06G11G12G13G14G15G17G19G22G24      
  20688042.203 6 -22792125.219 6 -16710968.42249  20688034.59849
  22437252.289 6 -14698204.682 6 -10462214.62247  22437242.39847
  23129586.695 5  -6839804.217 5  -5619391.94547  23129576.74647
  24798537.828 1    187536.827 1                
  23064527.70311   1680600.37611                
  25404556.078 3   8028195.054 3   2992243.79346  25404552.63746
  22685191.219 6  -9576080.984 6  -7489997.94248  22685180.21548
  20546631.961 6 -25087838.827 6 -16808491.49648  20546618.96548
  22157948.016 6 -12920110.211 6  -7754571.32647  22157936.13347
  21388241.086 6 -10664108.197 6  -7713639.40349  21388233.36349
 24 11 23  3  1  0.0000000  0 10G06G11G12G13G14G15G17G19G22G24      
  20683196.391 7 -22817593.332 7 -16730813.65649  20683188.55149
  22419385.008 6 -14792096.184 6 -10535376.75247  22419375.00047
  23114460.336 4  -6919284.717 4  -5681324.68547  23114451.38347
  24815373.33611    276006.92811                
  23077595.78911   1749259.60811                
  25418459.141 3   8101251.463 3   3049170.88246  25418455.34846
  22699497.102 6  -9500902.116 6  -7431416.96948  22699486.68448
  20553702.750 6 -25050681.878 6 -16779537.99948  20553689.93048
  22165486.609 6 -12880489.679 6  -7723698.16047  22165476.13347
  21384002.539 6 -10686381.307 6  -7730995.00949  21383995.05149
 24 11 23  3  1 30.0000000  0 10G06G11G12G13G14G15G17G19G22G24      
  20678464.469 7 -22842457.882 7 -16750188.58149  20678456.74649
  22401572.445 6 -14885698.908 6 -10608313.85647  22401563.66847
  23099344.875 5  -6998722.388 5  -5743224.04547  23099334.28147
  24832181.99211    364341.40511                
  23090698.50011                                
  25432347.734 4   8174236.418 4   3106042.17846  25432343.64846
  22713809.695 6  -9425692.933 6  -7372812.38848  22713798.28148
  20560825.734 6 -25013249.731 6 -16750370.06748  20560813.38348
  22173061.836 6 -12840688.828 6  -7692684.49747  22173049.89547
  21379875.766 6 -10708069.112 6  -7747894.54749  21379867.75049
 24 11 23  3  2  0.0000000  0 10G06G11G12G13G14G15G17G19G22G24      
  20673847.766 7 -22866719.864 7 -16769093.98649  20673839.98449
  22383816.070 6 -14979012.118 6 -10681025.36047  22383806.23847
  23084235.797 5  -7078118.331 5  -5805090.91047  23084225.43847
  24848963.24211    452535.70411                
  23103842.07011   1887178.63211                
  25446221.148 3   8247145.476 3   3162854.33846  25446218.76246
  22728125.891 6  -9350456.893 6  -7314186.86748  22728114.94548
  20568000.609 6 -24975545.884 6 -16720990.42848  20567987.67248
  22180669.227 6 -12800708.910 6  -7661531.27647  22180657.52047
  21375859.500 6 -10729172.704 6  -7764338.86049  21375851.83649
 24 11 23  3  2 30.0000000  0  9G06G11G12G13G15G17G19G22G24         
  20669346.531 7 -22890374.363 7 -16787526.01349  20669338.16449
  22366115.891 6 -15072028.892 6 -10753505.85247  22366105.18047
  23069136.273 5  -7157467.192 5  -5866921.09847  23069125.73847
  24865722.33611    540591.69511                
  25460079.453 2   8319979.745 2   3219608.31946  25460079.46946
  22742447.992 6  -9275190.693 6  -7255537.83048  22742437.98448
  20575227.641 7 -24937567.877 7 -16691397.15348  20575214.87948
  22188312.453 6 -12760544.930 6  -7630234.63347  22188300.74647
  21371956.227 6 -10749687.204 6  -7780324.14549  21371948.15249
 24 11 23  3  3  0.0000000  0  9G06G11G12G13G15G17G19G22G24         
  20664959.734 7 -22913425.249 7 -16805487.69349  20664952.12949
  22348470.688 6 -15164751.162 6 -10825756.86847  22348460.62147
  23054044.039 5  -7236772.745 5  -5928717.52947  23054034.67647
  24882448.859 1    628502.072 1                
  25473926.852 3   8392732.235 3   3276298.55746  25473923.58646
  22756775.680 6  -9199900.306 6  -7196869.95348  22756765.37948
  20582505.641 6 -24899321.941 6 -16661595.10048  20582492.52748
  22195989.594 6 -12720201.013 6  -7598797.80347  22195978.53147
  21368163.195 6 -10769616.583 6  -7795853.47849  21368156.05949
 24 11 23  3  3 30.0000000  0  9G06G11G12G13G15G17G19G22G24         
  20660688.219 7 -22935872.395 7 -16822978.92649  20660680.08649
  22330883.039 6 -15257176.864 6 -10897776.77747  22330873.14847
  23038961.031 4  -7316034.796 4  -5990480.03347  23038951.66847
  24899153.109 2    716263.494 2                
  25487752.906 1   8465399.521 1   3332922.43346  25487752.27746
  22771107.875 6  -9124587.776 6  -7138184.86248  22771096.63748
  20589834.188 6 -24860809.882 6 -16631585.69048  20589821.25048
  22203700.391 5 -12679677.212 5  -7567220.80747  22203689.62147
  21364482.414 6 -10788960.715 6  -7810926.78649  21364474.63349
 24 11 23  3  4  0.0000000  0  9G06G11G12G13G15G17G19G22G24         
  20656532.875 7 -22957709.273 7 -16839994.63649  20656524.62549
  22313353.461 6 -15349297.403 6 -10969558.92847  22313343.62947
  23023888.742 5  -7395246.117 5  -6052203.00147  23023878.20747
  24915825.742 2    803879.872 2                
  25501563.66411                   3389482.25156  25501563.32856
  22785443.953 5  -9049248.572 5  -7079478.99348  22785433.00848
  20597214.648 7 -24822027.663 7 -16601365.74648  20597201.30148
  22211447.047 6 -12638967.125 6  -7535498.63147  22211435.69147
  21360913.734 6 -10807713.167 6  -7825539.04049  21360905.89549
 24 11 23  3  4 30.0000000  0  8G06G11G12G13G17G19G22G24            
  20652492.352 7 -22978940.733 7 -16856538.59049  20652484.80549
  22295880.055 6 -15441115.840 6 -11041105.67447  22295871.57047
  23008822.570 4  -7474411.855 4  -6113890.44747  23008813.32447
  24932466.68811                                
  22799784.422 5  -8973889.187 5  -7020757.40448  22799773.00848
  20604644.000 7 -24782981.901 7 -16570940.45848  20604631.59048
  22219229.211 6 -12598075.695 6  -7503635.15647  22219217.50447
  21357456.805 6 -10825878.827 6  -7839694.06849  21357448.96549
 24 11 23  3  5  0.0000000  0  8G06G11G12G13G17G19G22G24            
  20648567.508 7 -22999566.979 7 -16872610.94349  20648559.90249
  22278465.188 6 -15532630.181 6 -11112415.46547  22278455.94147
  22993767.289 4  -7553531.392 4  -6175541.94947  22993756.87147
  24949082.06311    978648.83411                
  22814127.969 5  -8898511.560 5  -6962021.59448  22814117.37548
  20612123.789 7 -24743675.441 7 -16540312.02048  20612111.32048
  22227045.492 6 -12557003.051 6  -7471630.49047  22227033.72747
  21354111.664 6 -10843457.922 6  -7853392.01649  21354103.41449
 24 11 23  3  5 30.0000000  0  9G06G11G12G13G15G17G19G22G24         
  20644757.141 7 -23019590.439 7 -16888213.60049  20644748.94949
  22261107.961 6 -15623840.837 6 -11183488.61747  22261099.41847
  22978720.289 5  -7632606.817 5  -6237159.07847  22978709.34447
  24965664.891 1   1065792.542 1                
  25542898.32811    867436.26011   3461376.00056  25542895.76656
  22828473.867 5  -8823119.991 5  -6903274.91948  22828464.32848
  20619652.570 6 -24704112.734 6 -16509483.90448  20619639.22348
  22234894.969 6 -12515751.815 6  -7439486.62847  22234882.79347
  21350877.258 6 -10860452.968 6  -7866634.87249  21350869.47749
 24 11 23  3  6  0.0000000  0  9G06G11G12G13G15G17G19G22G24         
  20641063.578 7 -23038998.725 7 -16903336.89949  20641055.85549
  22243812.180 6 -15714733.471 6 -11254313.92047  22243802.23047
  22963683.922 5  -7711625.358 5  -6298731.88048  22963672.62548
  24982219.05511                                
  25556640.391 1    939647.791 1   3517644.65246  25556636.94946
  22842824.945 5  -8747704.083 5  -6844509.26548  22842815.46548
  20627231.914 7 -24664283.552 7 -16478448.15748  20627218.85948
  22242781.516 6 -12474309.316 6  -7407193.72047  22242769.10547
  21347757.102 6 -10876851.627 6  -7879413.01249  21347749.02749
 24 11 23  3  6 30.0000000  0  8G06G11G12G15G17G19G22G24            
  20637486.109 6 -23057797.890 6 -16917985.54549  20637478.50449
  22226575.781 6 -15805311.935 6 -11324894.44147  22226565.42247
  22948656.133 5  -7790592.717 5  -6360264.80748  22948645.77348
  25570362.92212   -563659.84112   2346236.04056  25570358.83656
  22857180.242 5  -8672271.567 5  -6785730.66748  22857169.35548
  20634860.352 7 -24624195.978 7 -16447211.06848  20634847.23848
  22250702.820 6 -12432681.809 6  -7374756.68547  22250691.34847
  21344749.250 6 -10892659.950 6  -7891731.13349  21344740.94149
 24 11 23  3  7  0.0000000  0  9G06G11G12G14G15G17G19G22G24         
  20634023.281 7 -23075994.588 7 -16932164.74049  20634015.32449
  22209397.117 6 -15895580.862 6 -11395233.74447  22209387.28547
  22933635.969 4  -7869515.246 4  -6421762.81147  22933626.66447
  23237345.00811   -634728.17111                
  25584063.96911   -491656.87311   2402342.20656  25584060.00056
  22871536.539 5  -8596831.415 5  -6726946.12648  22871524.83248
  20642536.031 7 -24583858.684 7 -16415779.38548  20642523.38748
  22258657.891 6 -12390875.939 6  -7342180.66046  22258645.89146
  21341851.625 6 -10907884.678 6  -7903594.52349  21341843.49249
 24 11 23  3  7 30.0000000  0  9G06G11G12G14G15G17G19G22G24         
  20630680.844 7 -23093559.200 7 -16945851.40749  20630673.12149
  22192284.297 6 -15985508.464 6 -11465307.10547  22192274.69947
  22918633.789 5  -7948362.110 5  -6483201.84348  22918622.90248
  23250904.04711                                
  25597745.42211                   2458383.77455  25597746.37555
  22885899.344 5  -8521354.765 5  -6668133.15148  22885887.52048
  20650265.313 7 -24543244.081 7 -16384131.62449  20650252.14149
  22266652.828 5 -12348862.040 5  -7309442.54546  22266641.00446
  21339071.164 6 -10922496.193 6  -7914980.08649  21339063.03149
 24 11 23  3  8  0.0000000  0  7G06G11G12G17G19G22G24               
  20627451.859 7 -23110527.342 7 -16959073.29849  20627444.19549
  22175230.680 6 -16075128.255 6 -11535140.60447  22175220.61347
  22903637.484 5  -8027169.073 5  -6544609.78248  22903627.18448
  22900261.195 5  -8445878.973 5  -6609320.83748  22900250.36748
  20658038.758 6 -24502389.921 6 -16352297.18848  20658026.34848
  22274680.602 6 -12306675.323 6  -7276569.78646  22274668.42646
  21336400.117 6 -10936530.172 6  -7925915.62349  21336393.15649
 24 11 23  3  8 30.0000000  0  9G06G11G12G13G15G17G19G22G24         
  20624335.797 7 -23126901.929 7 -16971832.67249  20624328.25049
  22158235.672 6 -16164441.003 6 -11604734.83947  22158224.72747
  22888647.727 5  -8105937.720 5  -6605987.86348  22888637.95348
  25064521.07811      9788.53111                
  25625052.75813   -630349.26513   2503378.10156  25625047.49656
  22914623.805 5  -8370408.927 5  -6550512.97948  22914611.86348
  20665858.047 7 -24461300.975 7 -16320279.80548  20665844.99248
  22282740.383 5 -12264318.797 5  -7243564.69046  22282728.96946
  21333839.703 7 -10949989.530 7  -7936403.41249  21333831.10249
 24 11 23  3  9  0.0000000  0  9G06G11G12G13G15G17G19G22G24         
  20621341.398 7 -23142639.170 7 -16984095.42349  20621333.09049
  22141306.781 6 -16253400.680 6 -11674053.96747  22141296.71547
  22873674.164 5  -8184624.130 5  -6667301.87248  22873663.04348
  25080880.14111                                
  25638672.805 1   -558764.503 1   2559158.32945  25638670.65245
  22928991.930 5  -8294902.262 5  -6491676.58748  22928980.80948
  20673730.031 7 -24419935.396 7 -16288046.86648  20673716.27348
  22290841.664 6 -12221748.539 6  -7210393.06046  22290830.36746
  21331397.609 6 -10962830.527 6  -7946409.34449  21331387.77749
 24 11 23  3  9 30.0000000  0  9G06G11G12G13G15G17G19G22G24         
  20618464.023 7 -23157763.901 7 -16995880.88849  20618454.95349
  22124441.797 6 -16342029.973 6 -11743115.65747  22124431.32047
  22858711.469 5  -8263252.603 5  -6728570.73648  22858699.99648
  25097208.20311                                
  25652272.64811                   2614849.30855  25652270.20355
  22943361.188 5  -8219385.561 5  -6432832.38548  22943351.00448
  20681648.930 7 -24378319.937 7 -16255619.19948  20681635.69948
  22298978.492 5 -12178989.121 5  -7177074.01946  22298966.72746
  21329066.055 6 -10975078.005 6  -7955952.80649  21329057.51249
 24 11 23  3 10  0.0000000  0 10G06G11G12G13G14G15G17G19G22G24      
  20615699.336 7 -23172289.678 7 -17007199.64049  20615691.26249
  22107636.188 6 -16430340.189 6 -11811928.71147  22107625.88747
  22843757.969 5  -8341835.850 5  -6789804.34248  22843746.67248
  25113504.41411    267219.10611                
  23319266.90611   -563412.54811                
  25665847.41411                   2670438.17655  25665846.78555
  22957730.969 5  -8143873.923 5  -6373992.12648  22957720.25848
  20689612.867 7 -24336470.041 7 -16223008.86948  20689599.75448
  22307149.172 5 -12136053.948 5  -7143618.04946  22307136.41046
  21326845.578 7 -10986745.561 7  -7965044.37549  21326837.27049
 24 11 23  3 10 30.0000000  0 11G06G11G12G13G14G15G17G19G20G22G24   
  20613052.305 7 -23186197.218 7 -17018036.64749  20613044.05549
  22090895.367 6 -16518309.830 6 -11880476.39147  22090885.47747
  22828816.508 6  -8420353.412 6  -6850986.77548  22828805.50448
  25129763.90611    352666.81611                
  23333054.08611   -490966.03211                
  25679401.08611   -344730.54211   2725937.96155  25679400.69155
  22972103.266 5  -8068349.363 5  -6315141.81048  22972092.37948
  20697624.352 7 -24294368.301 7 -16190202.28348  20697611.29748
  25253216.14812   -749560.13012                
  22315355.992 5 -12092923.608 5  -7110009.97646  22315343.87546
  21324739.039 7 -10997813.965 7  -7973669.07949  21324730.14549
 24 11 23  3 11  0.0000000  0 10G06G11G12G13G15G17G19G20G22G24      
  20610521.375 7 -23199497.787 7 -17028400.68949  20610512.94949
  22074217.875 6 -16605947.863 6 -11948765.66847  22074208.57047
  22813885.484 6  -8498816.206 6  -6912126.56148  22813875.06648
  25145991.19511    437924.83711                
  25692931.07811                                
  22986474.172 5  -7992824.234 5  -6256291.05448  22986463.93048
  20705682.063 7 -24252027.798 7 -16157209.66048  20705668.83248
  25237547.734 1   -831892.567 1                
  22323598.453 6 -12049609.145 6  -7076258.43647  22323587.03947
  21322744.453 7 -11008294.430 7  -7981835.64449  21322736.02749
 24 11 23  3 11 30.0000000  0 10G06G11G12G13G15G17G19G20G22G24      
  20608107.867 7 -23212180.817 7 -17038283.51649  20608099.85249
  22057606.641 6 -16693241.480 6 -12016786.58247  22057597.27747
  22798966.430 6  -8577212.881 6  -6973214.77748  22798956.24648
  25162181.28911    523001.56111                
  25706441.59411   -202658.87111                
  23000848.859 5  -7917289.679 5  -6197432.93748  23000837.79748
  20713785.406 6 -24209440.150 6 -16124024.46048  20713772.99648
  25221843.719 1   -914422.079 1                
  22331877.859 6 -12006099.526 6  -7042354.80747  22331866.15247
  21320863.539 6 -11018176.473 6  -7989535.90649  21320855.34849
 24 11 23  3 12  0.0000000  0  9G06G11G12G13G17G19G20G22G24         
  20605811.563 7 -23224248.257 7 -17047686.67949  20605803.13749
  22041061.672 6 -16780190.341 6 -12084538.84848  22041051.66448
  22784060.641 5  -8655544.334 5  -7034252.19248  22784049.98848
  25178331.06311                                
  23015223.320 5  -7841749.077 5  -6138570.11948  23015212.90248
  20721935.813 6 -24166608.482 6 -16090649.12348  20721923.28548
  25206099.492 1   -997148.831 1                
  22340194.633 6 -11962396.339 6  -7008300.36547  22340183.45347
  21319096.688 6 -11027462.035 6  -7996771.36749  21319088.67249
 24 11 23  3 12 30.0000000  0  8G06G11G12G17G19G20G22G24            
  20603632.523 7 -23235701.161 7 -17056610.97649  20603623.62949
  22024581.828 6 -16866793.147 6 -12152021.47348  22024571.70348
  22769166.719 5  -8733810.529 5  -7095238.76848  22769156.24248
  23029598.430 5  -7766204.477 5  -6079704.18048  23029588.24648
  20730132.438 6 -24123535.883 6 -16057086.05248  20730119.09048
  25190319.781 1  -1080071.872 1                
  22348547.969 6 -11918500.623 6  -6974095.88447  22348536.43847
  21317443.328 7 -11036152.124 7  -8003542.83749  21317434.90249
 24 11 23  3 13  0.0000000  0  8G06G11G12G17G19G20G22G24            
  20601569.852 7 -23246538.700 7 -17065055.77249  20601561.71949
  22008167.789 6 -16953046.731 6 -12219231.96148  22008157.60548
  22754285.836 6  -8812009.995 6  -7156173.30848  22754275.47748
  23043974.758 5  -7690656.574 5  -6020835.67147  23043964.16447
  20738374.633 7 -24080222.731 7 -16023335.53148  20738361.52048
  25174500.961 1  -1163188.479 1                
  22356937.461 6 -11874410.914 6  -6939740.26247  22356925.63747
  21315903.398 6 -11044246.008 6  -8009849.71649  21315894.91449
 24 11 23  3 13 30.0000000  0  8G06G11G12G17G19G20G22G24            
  20599623.781 7 -23256763.973 7 -17073023.47849  20599615.82449
  21991819.406 6 -17038951.905 6 -12286170.97647  21991810.45347
  22739417.266 6  -8890144.784 6  -7217057.44548  22739407.02348
  23058351.602 5  -7615109.693 5  -5961967.96147  23058340.18847
  20746661.695 6 -24036674.625 6 -15989401.92348  20746648.23048
  25158649.055 2  -1246499.637 2                
  22365364.094 5 -11830129.789 5  -6905235.49947  22365352.56347
  21314475.633 7 -11051746.755 7  -8015694.41949  21314467.44149
 24 11 23  3 14  0.0000000  0  8G06G11G12G17G19G20G22G24            
  20597795.063 7 -23266374.080 7 -17080511.84249  20597787.28149
  21975538.789 6 -17124503.339 6 -12352834.36447  21975530.65647
  22724561.570 6  -8968210.998 6  -7277888.18948  22724551.32848
  23072726.859 4  -7539561.819 4  -5903099.48047  23072716.50047
  20754993.617 7 -23992889.901 7 -15955283.93548  20754980.27048
  25142757.836 2  -1330000.297 2                
  22373826.539 5 -11785654.343 5  -6870579.28546  22373816.18046
  21313161.953 7 -11058651.496 7  -8021074.69449  21313152.88349
 24 11 23  3 14 30.0000000  0  8G06G11G12G17G19G20G22G24            
  20596083.797 7 -23275369.031 7 -17087520.86349  20596075.78149
  21959327.234 6 -17209698.672 6 -12419220.26447  21959318.98447
  22709718.891 6  -9046207.086 6  -7338664.28948  22709708.88348
  23087103.859 5  -7464014.237 5  -5844231.21847  23087092.62147
  20763370.656 7 -23948869.989 7 -15920982.67748  20763356.95748
  25126832.242 1  -1413688.292 1                
  22382327.234 5 -11740984.205 5  -6835771.36847  22382317.22747
  21311960.492 7 -11064960.202 7  -8025990.54049  21311952.77049
 24 11 23  3 15  0.0000000  0  8G06G11G12G17G19G20G22G24            
  20594488.484 7 -23283749.684 7 -17094051.20149  20594480.46949
  21943184.516 6 -17294536.335 6 -12485327.44647  21943174.09847
  22694890.430 6  -9124133.684 6  -7399386.18948  22694879.36748
  23101479.445 4  -7388469.185 4  -5785364.95547  23101468.91047
  20771791.383 7 -23904617.528 7 -15886500.21748  20771778.03548
  25110869.781 1  -1497562.652 1                
  22390864.508 5 -11696119.499 5  -6800811.83346  22390854.09046
  21310873.648 7 -11070673.771 7  -8030442.63349  21310865.39849
 24 11 23  3 15 30.0000000  0  8G06G11G12G17G19G20G22G24            
  20593010.344 7 -23291516.428 7 -17100103.17149  20593002.73849
  21927108.578 6 -17379014.326 6 -12551154.37347  21927098.33647
  22680075.445 6  -9201989.649 6  -7460053.06648  22680064.09048
  23115853.734 4  -7312928.133 4  -5726501.78247  23115843.55147
  20780256.359 7 -23860134.427 7 -15851838.03748  20780243.07048
  25094874.68011  -1581621.29311                
  22399440.242 6 -11651060.316 6  -6765700.76346  22399428.24246
  21309899.477 7 -11075792.566 7  -8034431.26849  21309891.05149
 24 11 23  3 16  0.0000000  0 10G06G11G12G13G14G17G19G20G22G24      
  20591649.977 7 -23298666.758 7 -17105674.81249  20591641.49249
  21911102.758 6 -17463127.665 6 -12616697.15748  21911092.51648
  22665273.516 6  -9279771.291 6  -7520662.05348  22665262.86348
  25306221.33611   -228427.27111                
  23487185.71911   -309696.86211                
  23130228.977 4  -7237389.308 4  -5667640.34547  23130218.26647
  20788765.484 7 -23815419.725 7 -15816995.38648  20788751.66848
  25078843.109 1  -1665859.681 1                
  22408051.250 6 -11605803.455 6  -6730435.66047  22408041.06647
  21309038.953 6 -11080314.124 6  -8037954.53149  21309030.76249
 24 11 23  3 16 30.0000000  0 10G06G11G12G13G14G17G19G20G22G24      
  20590406.570 7 -23305202.043 7 -17110767.21449  20590398.14549
  21895165.406 6 -17546875.230 6 -12681954.93048  21895155.57448
  22650486.258 6  -9357478.876 6  -7581213.32248  22650475.31348
  25322035.742 1   -145332.218 1                
  23501423.406 2   -234878.611 2                
  23144601.820 4  -7161854.971 4  -5608782.41347  23144591.81347
  20797317.523 7 -23770476.096 7 -15781974.34548  20797304.58648
  25062777.945 1  -1750276.602 1                
  22416701.313 6 -11560350.087 6  -6695017.43947  22416690.13347
  21308291.805 7 -11084239.766 7  -8041013.43849  21308283.67249
 24 11 23  3 17  0.0000000  0 10G06G11G12G13G14G17G19G20G22G24      
  20589279.273 7 -23311124.985 7 -17115382.46349  20589271.14149
  21879298.375 6 -17630257.314 6 -12746927.90548  21879288.83648
  22635713.242 6  -9435113.918 6  -7641708.09448  22635701.35948
  25337807.938 2    -62450.153 2                
  23515697.57811   -159866.37211                
  23158974.484 4  -7086328.997 4  -5549930.99747  23158964.06647
  20805912.625 7 -23725307.732 7 -15746778.19748  20805899.04348
  25046678.547 1  -1834872.632 1                
  22425388.359 6 -11514702.161 6  -6659447.63247  22425376.71147
  21307658.281 6 -11087572.217 6  -8043610.13349  21307649.85549
 24 11 23  3 17 30.0000000  0 10G06G11G12G13G14G17G19G20G22G24      
  20588269.195 7 -23316432.762 7 -17119518.35649  20588261.00449
  21863501.797 6 -17713268.513 6 -12811611.89448  21863492.43448
  22620954.133 6  -9512671.516 6  -7702142.49748  22620942.71948
  25353541.164 2     20219.028 2                
  23530010.97711                                
  23173345.469 5  -7010809.664 5  -5491084.75347  23173335.10947
  20814550.313 7 -23679913.296 7 -15711405.88848  20814537.78548
  25030546.422 1  -1919642.694 1                
  22434111.703 6 -11468856.296 6  -6623723.56546  22434100.23046
  21307137.219 6 -11090308.596 6  -8045742.33949  21307128.96949
 24 11 23  3 18  0.0000000  0 10G06G11G12G13G14G17G19G20G22G24      
  20587375.789 7 -23321126.151 7 -17123175.51549  20587367.53949
  21847776.078 6 -17795907.153 6 -12876005.57248  21847766.36348
  22606209.438 6  -9590152.527 6  -7762517.23248  22606199.13748
  25369229.688 1    102672.561 1                
  23544360.57011                                
  23187715.578 5  -6935298.696 5  -5432245.02947  23187704.22347
  20823231.820 7 -23634295.210 7 -15675859.31048  20823218.35548
  25014382.133 1  -2004585.166 1                
  22442873.305 5 -11422812.562 5  -6587845.34346  22442862.71146
  21306730.250 7 -11092449.728 7  -8047410.72649  21306721.23849
 24 11 23  3 18 30.0000000  0  9G06G11G12G13G17G19G20G22G24         
  20586599.453 7 -23325205.161 7 -17126353.92749  20586591.20349
  21832122.000 6 -17878170.688 6 -12940106.97548  21832111.87548
  22591480.906 6  -9667554.852 6  -7822830.62348  22591469.78548
  25384881.438 3    184908.344 3                
  23202083.242 5  -6859796.823 5  -5373412.38547  23202071.35947
  20831955.039 7 -23588454.605 7 -15640139.34848  20831941.92648
  24998185.93011  -2089697.46211                
  22451673.141 5 -11376570.606 5  -6551812.62746  22451662.43046
  21306435.500 6 -11093995.631 6  -8048615.29949  21306427.07449
 24 11 23  3 19  0.0000000  0  9G06G11G12G13G17G19G20G22G24         
  20585939.289 6 -23328673.624 6 -17129056.59249  20585931.44949
  21816539.344 6 -17960060.377 6 -13003917.03448  21816528.51648
  22576765.375 6  -9744881.142 6  -7883084.80648  22576755.01648
  25400488.172 3    266920.376 3                
  23216447.938 5  -6784308.424 5  -5314590.24847  23216436.34847
  20840719.773 7 -23542396.541 7 -15604249.92148  20840706.54348
  24981958.273 1  -2174981.037 1                
  22460510.344 5 -11330133.515 5  -6515627.85246  22460498.40246
  21306254.195 6 -11094950.051 6  -8049358.96949  21306245.59449
 24 11 23  3 19 30.0000000  0  9G06G11G12G13G17G19G20G22G24         
  20585396.727 7 -23331525.640 7 -17131278.91149  20585388.47749
  21801028.961 6 -18041567.831 6 -13067429.25748  21801017.78148
  22562066.250 6  -9822123.838 6  -7943273.85648  22562056.06648
  25416054.242 3    348712.527 3                
  23230810.727 5  -6708828.653 5  -5255774.81547  23230799.37147
  20849526.141 7 -23496116.277 7 -15568187.36548  20849513.26248
  24965701.133 1  -2260427.337 1                
  22469385.117 5 -11283494.689 5  -6479285.94146  22469373.99646
  21306185.945 6 -11095307.111 6  -8049637.16449  21306178.04749
 24 11 23  3 20  0.0000000  0 10G06G11G12G13G14G17G19G20G22G24      
  20584969.922 7 -23333767.451 7 -17133025.74549  20584961.84849
  21785590.359 6 -18122696.666 6 -13130646.45248  21785579.70748
  22547383.453 6  -9899287.997 6  -8003401.69148  22547371.74648
  25431574.188 2    430276.624 2                
  23602123.33611   -188430.74911                
  23245171.227 5  -6633364.368 5  -5196971.49547  23245159.69547
  20858374.297 7 -23449621.625 7 -15531957.73848  20858360.89148
  24949410.656 1  -2346040.220 1                
  22478296.828 3 -11236659.693 3  -6442791.11946  22478286.93846
  21306230.273 6 -11095073.060 6  -8049454.75249  21306222.49249
 24 11 23  3 20 30.0000000  0 10G06G11G12G13G14G17G19G20G22G24      
  20584661.102 7 -23335392.109 7 -17134291.68149  20584653.08649
  21770225.852 6 -18203437.301 6 -13193561.16448  21770214.84848
  22532714.625 6  -9976364.885 6  -8063461.53048  22532704.14848
  25447054.375 2    511617.559 2                
  23616658.83611   -112052.50911                
  23259528.883 4  -6557909.527 4  -5138175.49547  23259518.40647
  20867263.789 7 -23402906.854 7 -15495556.60048  20867249.85548
  24933088.031 1  -2431810.716 1                
  22487248.352 4 -11189620.895 4  -6406137.52846  22487237.52346
  21306388.734 6 -11094240.880 6  -8048806.27149  21306381.12949
 24 11 23  3 21  0.0000000  0  9G06G11G12G13G17G19G20G22G24         
  20584469.031 7 -23336401.768 7 -17135078.40149  20584460.43049
  21754935.352 6 -18283789.296 6 -13256173.05448  21754924.64148
  22518064.797 5 -10053354.953 5  -8123453.73548  22518054.02748
  25462489.969 1    592731.393 1                
  23273885.664 4  -6482466.905 4  -5079389.04047  23273874.95347
  20876194.047 7 -23355975.193 7 -15458986.45748  20876181.28548
  24916737.820 2  -2517737.802 2                
  22496238.016 5 -11142379.355 5  -6369325.93646  22496227.07046
  21306660.563 6 -11092812.739 6  -8047693.39849  21306652.31349
 24 11 23  3 21 30.0000000  0  9G06G11G12G13G17G19G20G22G24         
  20584392.969 7 -23336800.995 7 -17135389.46249  20584384.83649
  21739718.602 6 -18363754.459 6 -13318483.50448  21739708.06648
  22503430.086 6 -10130261.373 6  -8183380.71448  22503419.49248
  25477881.672 1    673611.999 1                
  23288238.961 5  -6407041.346 5  -5020615.86447  23288227.95747
  20885164.531 7 -23308832.138 7 -15422251.58848  20885151.59448
  24900354.555 1  -2603823.435 1                
  22505266.766 5 -11094939.500 5  -6332359.78246  22505254.23846
  21307045.211 6 -11090793.201 6  -8046119.71049  21307036.43449
 24 11 23  3 22  0.0000000  0  9G06G11G12G13G17G19G20G22G24         
  20584433.734 7 -23336586.344 7 -17135222.17749  20584425.71949
  21724576.172 6 -18443327.046 6 -13380488.04948  21724566.28148
  22488812.102 6 -10207079.416 6  -8243238.85148  22488801.56648
  25493229.273 1    754260.515 1                
  23302589.852 5  -6331630.530 5  -4961854.18947  23302578.26247
  20894176.578 7 -23261475.975 7 -15385350.66948  20894163.81648
  24883941.531 1  -2690061.772 1                
  22514333.297 5 -11047296.826 5  -6295235.62246  22514320.53546
  21307542.523 6 -11088178.789 6  -8044082.46949  21307534.09849
 24 11 23  3 22 30.0000000  0  9G06G11G12G13G17G19G20G22G24         
  20584591.250 7 -23335759.092 7 -17134577.52449  20584582.70749
  21709508.898 6 -18522505.434 6 -13442185.43648  21709499.47748
  22474211.594 6 -10283808.806 6  -8303027.90048  22474199.65248
  25508530.836 1    834673.898 1                
  23316936.359 5  -6256235.984 5  -4903105.15347  23316925.53147
  20903229.008 7 -23213908.738 7 -15348285.26948  20903215.01648
  24867503.00811  -2776451.10511                
  22523437.078 5 -10999451.932 5  -6257953.88546  22523425.48846
  21308152.977 6 -11084970.722 6  -8041582.65249  21308144.49249
 24 11 23  3 23  0.0000000  0  9G06G11G12G13G17G19G20G22G24         
  20584865.297 7 -23334319.938 7 -17133456.06649  20584856.75449
  21694516.617 6 -18601287.693 6 -13503574.13648  21694507.02048
  22459626.969 6 -10360448.408 6  -8362747.00848  22459615.55548
  25523790.477 1    914849.777 1                
  23331280.578 4  -6180859.036 4  -4844369.86747  23331269.63347
  20912320.641 7 -23166132.326 7 -15311056.89248  20912307.00048
  24851034.734 1  -2862989.302 1                
  22532580.281 5 -10951404.501 5  -6220514.32546  22532568.86746
  21308876.383 7 -11081169.698 7  -8038620.80849  21308867.72349
 24 11 23  3 23 30.0000000  0  9G06G11G12G13G17G19G20G22G24         
  20585255.711 7 -23332265.132 7 -17131854.89149  20585247.93049
  21679601.547 6 -18679667.351 6 -13564649.13448  21679591.48048
  22445061.836 6 -10436992.496 6  -8422391.70348  22445049.77748
  25539000.47711                                
  23345621.328 4  -6105496.270 4  -4785645.63647  23345610.50047
  20921451.844 6 -23118144.061 6 -15273663.41148  20921438.96548
  24834539.82811  -2949669.99811                
  22541762.656 5 -10903149.974 5  -6182913.39146  22541750.89146
  21309712.266 7 -11076771.939 7  -8035193.96649  21309704.77749
 24 11 23  3 24  0.0000000  0  8G06G11G12G17G19G20G22G24            
  20585762.383 6 -23329602.083 6 -17129779.75549  20585754.36749
  21664761.789 6 -18757649.125 6 -13625414.10448  21664751.89848
  22430511.430 6 -10513447.171 6  -8481966.70248  22430500.60248
  23359957.867 4  -6030155.641 4  -4726938.64447  23359946.39547
  20930622.359 7 -23069951.980 7 -15236111.12148  20930609.42248
  24818017.40611  -3036497.86411                
  22550983.359 5 -10854694.744 5  -6145156.06246  22550971.53546
  21310662.297 6 -11071784.813 6  -8031307.88549  21310654.04749
 24 11 23  3 24 30.0000000  0  8G06G11G12G17G19G20G22G24            
  20586386.602 7 -23326323.201 7 -17127224.74849  20586378.23449
  21650000.461 6 -18835222.730 6 -13685861.01248  21649990.33648
  22415981.070 6 -10589802.625 6  -8541464.38548  22415970.41848
  23374291.852 5  -5954830.229 5  -4668243.51048  23374280.43848
  20939833.000 6 -23021549.858 6 -15198395.15548  20939820.23848
  24801467.99211                                
  22560244.156 5 -10806030.674 5  -6107236.02246  22560232.62546
  21311724.438 6 -11066200.764 6  -8026956.65249  21311716.65649
 24 11 23  3 25  0.0000000  0  8G06G11G12G17G19G20G22G24            
  20587125.148 7 -23322442.631 7 -17124200.89949  20587116.78149
  21635314.078 6 -18912399.573 6 -13745998.74348  21635304.24648
  22401468.703 6 -10666070.848 6  -8600894.08548  22401457.52348
  23388620.320 5  -5879534.242 5  -4609571.29747  23388609.72747
  20949081.227 6 -22972952.513 6 -15160527.06348  20949068.05548
  24784890.28111  -3210574.08611                
  22569540.766 4 -10757170.828 4  -6069163.40246  22569530.17246
  21312898.000 7 -11060033.871 7  -8022151.25449  21312889.92649
 24 11 23  3 25 30.0000000  0  7G06G11G12G17G19G22G24               
  20587981.063 7 -23317945.170 7 -17120696.35649  20587972.63749
  21620707.016 6 -18989161.634 6 -13805813.29148  21620696.48048
  22386974.688 6 -10742235.668 6  -8660243.22749  22386963.97749
  23402946.422 5  -5804252.761 5  -4550910.38447  23402935.53547
  20958368.328 6 -22924145.870 6 -15122495.88448  20958355.15648
  22578879.242 5 -10708098.998 5  -6030925.64446  22578868.06346
  21314185.266 6 -11053268.841 6  -8016879.77049  21314177.07449
 24 11 23  3 26  0.0000000  0  7G06G11G12G17G19G22G24               
  20588951.922 7 -23312842.962 7 -17116720.58749  20588943.49649
  21606177.086 7 -19065518.384 7 -13865311.99148  21606166.43448
  22372499.219 6 -10818307.181 6  -8719519.66349  22372487.68849
  23417265.961 5  -5728998.225 5  -4492270.49247  23417256.01247
  20967693.438 6 -22875142.952 6 -15084311.76948  20967680.50048
  22588255.297 4 -10658826.353 4  -5992531.36246  22588244.46946
  21315584.008 6 -11045917.856 6  -8011151.71649  21315575.64149
 24 11 23  3 26 30.0000000  0  7G06G11G12G17G19G22G24               
  20590038.781 6 -23307131.557 6 -17112270.11249  20590030.47349
  21591725.586 7 -19141462.563 7 -13924489.22848  21591714.40648
  22358041.961 7 -10894278.794 7  -8778718.25549  22358031.13349
  23431581.398 4  -5653766.572 4  -4433648.42847  23431571.74247
  20977056.516 6 -22825939.993 6 -15045971.79548  20977043.34448
  22597671.336 4 -10609347.437 4  -5953976.36546  22597659.68846
  21317095.648 6 -11037976.416 6  -8004963.57049  21317086.87149
 24 11 23  3 27  0.0000000  0  7G06G11G12G17G19G22G24               
  20591241.711 7 -23300810.730 7 -17107344.75749  20591232.87549
  21577351.945 6 -19216991.136 6 -13983342.58848  21577341.58648
  22343603.789 6 -10970148.156 6  -8837837.17448  22343593.43048
  23445894.508 4  -5578557.822 4  -4375044.22247  23445883.32847
  20986457.063 6 -22776537.619 6 -15007476.43348  20986443.89148
  22607126.047 5 -10559661.111 5  -5915259.77346  22607114.86746
  21318718.930 7 -11029444.246 7  -7998315.11049  21318710.79749
 24 11 23  3 27 30.0000000  0  7G06G11G12G17G19G22G24               
  20592560.336 7 -23293881.551 7 -17101945.37349  20592551.85249
  21563058.227 6 -19292102.397 6 -14041870.78248  21563047.92648
  22329186.305 6 -11045914.628 6  -8896875.92348  22329174.89148
  23460201.047 5  -5503373.126 5  -4316458.76447  23460189.86747
  20995895.945 7 -22726937.758 7 -14968827.17948  20995882.71548
  22616620.578 5 -10509767.425 5  -5876381.56946  22616609.34046
  21320454.063 6 -11020322.412 6  -7991207.16449  21320446.51649
 24 11 23  3 28  0.0000000  0  7G06G11G12G17G19G22G24               
  20593994.375 7 -23286345.267 7 -17096072.91749  20593985.77349
  21548845.258 6 -19366794.755 6 -14100072.57248  21548834.95748
  22314787.625 6 -11121576.764 6  -8955833.38148  22314777.09048
  23474503.430 4  -5428213.914 4  -4257893.12847  23474492.42647
  21005371.820 7 -22677142.333 7 -14930025.53248  21005359.17648
  22626154.930 5 -10459666.735 5  -5837342.09446  22626143.10546
  21322302.563 7 -11010612.129 7  -7983640.68549  21322294.25449
 24 11 23  3 28 30.0000000  0  8G06G11G12G17G19G20G22G24            
  20595542.219 7 -23278208.332 7 -17089732.41849  20595533.91049
  21534710.883 6 -19441071.849 6 -14157950.78148  21534700.52348
  22300408.523 6 -11197139.600 6  -9014713.45048  22300398.45748
  23488801.289 5  -5353086.781 5  -4199352.51247  23488789.28947
  21014883.469 7 -22627158.562 7 -14891077.10848  21014870.29748
  24668153.55511   -255017.67411                
  22635726.344 5 -10409364.082 5  -5798145.21746  22635715.98446
  21324261.180 7 -11000319.781 7  -7975620.65649  21324253.04749
 24 11 23  3 29  0.0000000  0  8G06G11G12G17G19G20G22G24            
  20597206.898 7 -23269460.717 7 -17082916.06949  20597199.11749
  21520657.773 6 -19514920.778 6 -14215495.36648  21520646.88748
  22286051.203 6 -11272591.247 6  -9073506.87749  22286040.43449
  23503092.297 5  -5277982.089 5  -4140829.35447  23503081.05947
  21024433.227 6 -22576977.107 6 -14851974.66948  21024419.46948
  24651381.27311   -343150.61711                
  22645339.492 5 -10358848.622 5  -5758782.55246  22645328.48846
  21326332.789 7 -10989435.319 7  -7967139.24149  21326323.95349
 24 11 23  3 29 30.0000000  0  8G06G11G12G17G19G20G22G24            
  20598986.898 7 -23260107.880 7 -17075628.12549  20598978.82449
  21506686.844 6 -19588344.227 6 -14272708.40248  21506676.01648
  22271713.961 6 -11347934.718 6  -9132216.01549  22271702.43049
  23517378.500 4  -5202905.001 4  -4082327.68647  23517367.14547
  21034017.867 6 -22526604.221 6 -14812723.06148  21034005.04748
  24634589.945 1   -431400.646 1                
  22654991.844 5 -10308124.733 5  -5719257.43246  22654980.48846
  21328515.422 6 -10977964.177 6  -7958200.66949  21328506.70349
 24 11 23  3 30  0.0000000  0  8G06G11G12G17G19G20G22G24            
  20600880.867 7 -23250153.873 7 -17067871.74049  20600872.38349
  21492794.414 6 -19661343.314 6 -14329590.76748  21492783.41048
  22257396.367 6 -11423171.813 6  -9190842.26149  22257384.66049
  23531660.078 5  -5127859.674 5  -4023850.79947  23531647.43447
  21043639.391 6 -22476044.385 6 -14773325.77648  21043625.86748
  24617773.33611   -519768.12211                
  22664683.547 6 -10257194.979 6  -5679571.91746  22664672.19146
  21330809.672 6 -10965910.292 6  -7948808.01149  21330800.89549
 24 11 23  3 30 30.0000000  0  8G06G11G12G17G19G20G22G24            
  20602890.039 7 -23239596.037 7 -17059644.82749  20602881.67249
  21478984.219 6 -19733912.519 6 -14386138.14748  21478974.79748
  22243100.766 6 -11498297.758 6  -9249381.90649  22243089.17649
  23545934.852 4  -5052843.095 4  -3965396.32247  23545922.96947
  21053296.727 6 -22425295.427 6 -14733781.12948  21053283.37948
  24600937.578 1   -608247.113 1                
  22674415.109 6 -10206055.712 6  -5639723.15346  22674402.93446
  21333214.727 7 -10953271.102 7  -7938959.27049  21333205.71549
 24 11 23  3 31  0.0000000  0  8G06G11G12G17G19G20G22G24            
  20605013.992 7 -23228434.558 7 -17050947.54949  20605005.21549
  21465257.453 6 -19806049.107 6 -14442348.42348  21465246.33248
  22228826.039 6 -11573310.083 6  -9307833.02149  22228814.68449
  23560203.453 3  -4977855.854 3  -3906964.71147  23560192.80147
  21062989.297 6 -22374358.298 6 -14694089.84648  21062976.00848
  24584077.945 1   -696834.047 1                
  22684185.688 5 -10154706.287 5  -5599710.60946  22684175.27046
  21335730.617 6 -10940046.632 6  -7928654.47849  21335721.78149
 24 11 23  3 31 30.0000000  0  8G06G11G12G17G19G20G22G24            
  20607252.984 7 -23216669.293 7 -17041779.79849  20607244.61749
  21451613.266 6 -19877750.077 6 -14498219.27348  21451602.37948
  22214573.188 6 -11648207.044 6  -9366194.21749  22214562.12549
  23574466.750 2  -4902897.759 2  -3848555.79647  23574456.85947
  21072718.492 6 -22323233.363 6 -14654252.23448  21072704.61748
  24567202.789 2   -785526.412 2                
  22693997.352 5 -10103145.247 5  -5559533.14946  22693986.87546
  21338358.820 7 -10926236.777 7  -7917893.53949  21338349.98449
 24 11 23  3 32  0.0000000  0  8G06G11G12G17G19G20G22G24            
  20609605.992 7 -23204303.586 7 -17032144.15249  20609597.50849
  21438051.703 6 -19949015.801 6 -14553750.96648  21438041.34448
  22200342.977 7 -11722989.179 7  -9424465.94449  22200331.73849
  23588725.469 3  -4827971.703 3  -3790171.85847  23588714.52347
  21082481.633 6 -22271924.677 6 -14614271.42348  21082468.63748
  24550303.625 2   -874323.772 2                
  22703849.492 5 -10051374.338 5  -5519192.21346  22703838.37146
  21341096.859 6 -10911844.810 6  -7906679.00749  21341088.55149
 24 11 23  3 32 30.0000000  0  8G06G11G12G17G19G20G22G24            
  20612073.086 7 -23191338.112 7 -17022041.16649  20612064.77749
  21424573.469 6 -20019844.127 6 -14608941.83548  21424563.40248
  22186134.453 6 -11797654.371 6  -9482646.55049  22186123.44949
  23602978.625 4  -4753078.343 4  -3731813.38947  23602966.97747
  21092280.359 6 -22220433.075 6 -14574148.08448  21092267.48048
  24533383.844 1   -963223.513 1                
  22713741.180 5  -9999393.033 5  -5478687.30746  22713730.23446
  21343946.758 7 -10896871.328 7  -7895011.33849  21343938.44949
 24 11 23  3 33  0.0000000  0  8G06G11G12G17G19G20G22G24            
  20614654.680 7 -23177772.480 7 -17011470.52049  20614646.07849
  21411179.703 6 -20090231.719 6 -14663789.27448  21411169.28548
  22171948.164 6 -11872201.022 6  -9540734.78849  22171936.98449
  23617224.438 3  -4678216.978 3  -3673479.85646  23617213.19946
  21102113.898 6 -22168758.624 6 -14533882.26448  21102101.25448
  24516447.60911  -1052221.66311                
  22723674.008 5  -9947199.977 5  -5438017.37046  22723661.94946
  21346906.688 7 -10881316.006 7  -7882890.27849  21346898.37949
 24 11 23  3 33 30.0000000  0  8G06G11G12G17G19G20G22G24            
  20617349.734 7 -23163610.189 7 -17000434.95049  20617340.84049
  21397869.672 6 -20160179.084 6 -14718293.67348  21397858.25848
  22157785.531 6 -11946629.678 6  -9598731.07149  22157774.00049
  23631463.258 2  -4603390.847 2  -3615173.75646  23631451.43446
  21111980.789 6 -22116905.466 6 -14493477.18848  21111967.91048
  24499495.227 1  -1141317.973 1                
  22733645.672 5  -9894797.234 5  -5397184.06546  22733633.37946
  21349976.758 7 -10865182.223 7  -7870318.47949  21349968.33249
 24 11 23  3 34  0.0000000  0  8G06G11G12G17G19G20G22G24            
  20620158.516 7 -23148849.372 7 -16988932.97549  20620149.91449
  21384643.328 6 -20229681.415 6 -14772451.29148  21384632.67648
  22143645.188 6 -12020936.038 6  -9656632.08149  22143634.59449
  23645694.641 1  -4528598.147 1  -3556893.70246  23645682.81646
  21121882.539 6 -22064871.981 6 -14452931.60548  21121869.83648
  24482521.547 1  -1230507.482 1                
  22743658.414 5  -9842181.995 5  -5356185.16146  22743646.64846
  21353157.922 6 -10848468.066 6  -7857294.45349  21353148.55949
 24 11 23  3 34 30.0000000  0  8G06G11G12G17G19G20G22G24            
  20623081.008 7 -23133491.798 7 -16976966.01049  20623072.64149
  21371502.289 6 -20298737.518 6 -14826261.19248  21371491.28548
  22129529.109 6 -12095119.196 6  -9714437.07449  22129517.93049
  23659921.656 1  -4453840.027 1  -3498640.56846  23659908.71946
  21131818.375 6 -22012660.361 6 -14412247.21948  21131805.02748
  24465532.094 1  -1319787.806 1                
  22753710.172 5  -9789354.567 5  -5315020.96046  22753698.99246
  21356448.461 6 -10831175.306 6  -7843819.57149  21356439.56649
 24 11 23  3 35  0.0000000  0  8G06G11G12G17G19G20G22G24            
  20626117.133 7 -23117539.046 7 -16964535.27249  20626108.23849
  21358446.242 6 -20367346.016 6 -14879722.31648  21358435.88348
  22115436.203 6 -12169178.636 6  -9772145.64849  22115424.08649
  23674139.77311 -15407058.01611 -12033615.66155  23674128.88755
  21141787.055 6 -21960272.179 6 -14371425.23648  21141773.88348
  24448525.984 2  -1409157.606 2                
  22763803.672 5  -9736314.936 5  -5273691.37546  22763792.60946
  21359848.578 6 -10813305.465 6  -7829895.00549  21359840.27049
 24 11 23  3 35 30.0000000  0  8G06G11G12G17G19G20G22G24            
  20629265.773 7 -23100991.817 7 -16951641.30649  20629256.64549
  21345476.352 6 -20435504.587 6 -14932832.83848  21345465.69948
  22101366.188 6 -12243112.039 6  -9829756.01549  22101355.18449
  23688351.95311                 -11975419.09255  23688341.06655
  21151789.836 6 -21907708.699 6 -14330466.67448  21151776.72348
  24431503.188 2  -1498613.922 2                
  22773937.672 6  -9683062.304 6  -5232195.84546  22773926.49246
  21363358.672 6 -10794859.147 6  -7815521.23549  21363350.24649
 24 11 23  3 36  0.0000000  0  7G06G11G12G19G20G22G24               
  20632527.008 7 -23083852.155 7 -16938285.71249  20632519.05149
  21332591.609 6 -20503212.343 6 -14985592.10248  21332581.36748
  22087321.828 6 -12316918.275 6  -9887267.29149  22087310.00449
  21161824.789 6 -21854972.067 6 -14289373.18648  21161811.14848
  24414463.633 3  -1588154.686 3                
  22784111.766 6  -9629597.833 6  -5190535.25946  22784099.41446
  21366978.023 6 -10775838.411 6  -7800699.87249  21366970.18449
 24 11 23  3 36 30.0000000  0  7G06G11G12G19G20G22G24               
  20635900.898 7 -23066120.008 7 -16924468.43849  20635892.88349
  21319793.406 6 -20570466.195 6 -15037997.67148  21319783.51648
  22073301.227 6 -12390596.335 6  -9944678.70149  22073289.28549
  21171894.078 6 -21802062.431 6 -14248144.88148  21171880.20348
  24397410.570 4  -1677776.092 4                
  22794325.945 5  -9575920.009 5  -5148708.38546  22794314.53146
  21370706.813 6 -10756243.143 6  -7785430.82549  21370699.09049
 24 11 23  3 37  0.0000000  0  8G06G11G12G17G19G20G22G24            
  20639388.094 7 -23047795.368 7 -16910189.47449  20639379.78549
  21307082.891 7 -20637263.142 7 -15090047.20248  21307072.64848
  22059305.680 6 -12464143.054 6 -10001987.78049  22059294.38349
  23730945.28111 -15108535.27911 -11869075.50456  23730934.57056
  21181994.234 6 -21748980.271 6 -14206782.14848  21181981.47348
  24380340.906 4  -1767475.115 4                
  22804580.961 4  -9522026.936 4  -5106713.78545  22804569.66445
  21374545.453 6 -10736073.293 6  -7769714.03749  21374537.49649
 24 11 23  3 37 30.0000000  0  8G06G11G12G17G19G20G22G24            
  20642986.813 6 -23028882.959 6 -16895452.49949  20642978.62149
  21294458.180 6 -20703604.881 6 -15141742.03748  21294447.64548
  22045334.727 6 -12537560.066 6 -10059195.78349  22045323.66449
  23745130.758 2 -15034003.004 2 -11810998.38846  23745117.99646
  21192128.242 6 -21695730.164 6 -14165288.55948  21192114.83648
  24363257.398 5  -1857252.405 5                
  22814876.797 3  -9467922.404 3  -5064554.37245  22814865.91045
  21378492.555 6 -10715333.549 6  -7753553.18349  21378483.71949
 24 11 23  3 38  0.0000000  0  8G06G11G12G17G19G20G22G24            
  20646698.633 7 -23009381.397 7 -16880256.45149  20646689.56349
  21281921.484 6 -20769487.033 6 -15193078.75048  21281911.06648
  22031388.805 6 -12610843.057 6 -10116299.35149  22031377.50849
  23759305.234 1 -14959509.797 1 -11752951.75146  23759293.29346
  21202293.297 6 -21642310.928 6 -14123663.17548  21202279.48048
  24346159.773 5  -1947102.537 5                
  22825213.148 3  -9413603.559 3  -5022228.01945  22825202.61345
  21382547.766 6 -10694022.495 6  -7736947.15549  21382538.93049
 24 11 23  3 38 30.0000000  0  8G06G11G12G17G19G20G22G24            
  20650521.242 6 -22989291.171 6 -16864601.71449  20650512.52349
  21269471.336 6 -20834907.044 6 -15244055.34848  21269462.03148
  22017469.414 6 -12683989.880 6 -10173296.79749  22017458.00049
  23773473.648 2 -14885056.070 2 -11694935.87046  23773461.59046
  21212490.711 6 -21588723.465 6 -14081906.68748  21212477.24648
  24329046.680 4  -2037022.657 4    196162.11955  24329037.14155
  22835591.656 3  -9359069.210 3  -4979733.72445  22835581.06345
  21386711.367 6 -10672140.699 6  -7719896.39649  21386702.64849
 24 11 23  3 39  0.0000000  0  8G06G11G12G17G19G20G22G24            
  20654456.273 7 -22968611.825 7 -16848487.90849  20654447.67249
  21257111.141 6 -20899861.417 6 -15294669.11448  21257101.42648
  22003576.281 6 -12756997.665 6 -10230185.90349  22003565.74649
  23787633.898 2 -14810640.439 2 -11636949.65846  23787623.07046
  21222719.391 6 -21534967.023 6 -14040018.54048  21222706.10248
  24311920.313 2  -2127008.212 2    126043.72645  24311913.41045
  22846010.602 3  -9304317.406 3  -4937070.03445  22845999.42245
  21390983.859 6 -10649687.424 6  -7702400.33649  21390975.02349
 24 11 23  3 39 30.0000000  0  8G06G11G12G17G19G20G22G24            
  20658503.336 7 -22947347.083 7 -16831917.96149  20658494.44149
  21244839.563 6 -20964350.822 6 -15344920.56948  21244829.43848
  21989710.531 6 -12829867.288 6 -10286967.37349  21989698.88349
  23801786.813 2 -14736265.813 2 -11578995.39546  23801775.75046
  21232981.156 6 -21481045.363 6 -13998001.66048  21232967.51648
  24294786.188 2  -2217058.811 2     55874.55545  24294778.46545
  22856470.820 4  -9249350.630 4  -4894238.75246  22856458.76246
  21395364.109 6 -10626666.464 6  -7684461.91749  21395355.39149
 24 11 23  3 40  0.0000000  0  8G06G11G12G17G19G20G22G24            
  20662660.984 7 -22925497.468 7 -16814892.26849  20662652.14849
  21232656.883 6 -21028372.737 6 -15394807.73748  21232646.52348
  21975871.555 7 -12902595.740 7 -10343638.85349  21975858.73449
  23815931.688 2 -14661932.294 2 -11521073.15046  23815920.68446
  21243273.797 6 -21426959.206 6 -13955856.57848  21243259.98048
  24277637.430 3  -2307171.498 3    -14342.90445  24277630.70345
  22866970.875 3  -9194167.891 3  -4851239.24146  22866959.81346
  21399853.086 6 -10603078.243 6  -7666081.47849  21399844.54349
 24 11 23  3 40 30.0000000  0  8G06G11G12G17G19G20G22G24            
  20666929.391 7 -22903067.375 7 -16797414.25249  20666920.67249
  21220562.969 6 -21091928.523 6 -15444331.68448  21220552.08248
  21962057.781 7 -12975184.738 7 -10400201.67149  21962045.78149
  23830069.063 2 -14587643.738 2 -11463185.98046  23830057.00446
  21253596.281 6 -21372712.910 6 -13913586.72148  21253582.93448
  24260478.383 3  -2397346.656 3    -84609.08345  24260470.42645
  22877513.930 4  -9138771.819 4  -4808073.46746  22877501.93046
  21404449.109 6 -10578927.186 6  -7647262.46349  21404440.74249
 24 11 23  3 41  0.0000000  0  8G06G11G12G17G19G20G22G24            
  20671307.969 7 -22880055.206 7 -16779482.67849  20671299.71949
  21208558.297 6 -21155013.466 6 -15493488.76248  21208547.35248
  21948270.766 7 -13047630.898 7 -10456653.15449  21948259.05949
  23844196.867 2 -14513397.414 2 -11405331.72246  23844185.74646
  21263949.688 6 -21318304.652 6 -13871190.67748  21263936.57448
  24243307.805 4  -2487578.773 4   -154919.62145  24243299.49645
  22888095.727 5  -9083159.448 5  -4764739.20146  22888083.66846
  21409151.984 6 -10554211.647 6  -7628003.58849  21409143.85249
 24 11 23  3 41 30.0000000  0  8G06G11G12G17G19G20G22G24            
  20675797.820 7 -22856462.044 7 -16761098.37149  20675789.04349
  21196642.984 6 -21217625.589 6 -15542277.39048  21196632.39148
  21934512.094 6 -13119931.573 6 -10512991.28949  21934501.44149
  23858318.227 2 -14439193.976 2 -11347510.83546  23858305.64146
  21274333.531 6 -21263735.696 6 -13828669.40748  21274320.82848
  24226126.852 4  -2577864.814 4   -225272.17245  24226117.31345
  22898719.555 5  -9027330.224 5  -4721235.94346  22898708.19946
  21413963.008 6 -10528932.622 6  -7608305.63349  21413954.46549
 24 11 23  3 42  0.0000000  0  8G06G11G12G17G19G20G22G24            
  20680397.742 7 -22832290.498 7 -16742263.38449  20680389.02349
  21184818.922 6 -21279764.483 6 -15590697.27348  21184808.03548
  21920781.719 6 -13192086.452 6 -10569215.84248  21920770.30548
  23872430.367 3 -14365034.860 3 -11289724.53746  23872417.95746
  21284748.039 6 -21209008.462 6 -13786024.80448  21284734.39848
  24208936.617 4  -2668203.228 4   -295665.52745  24208926.25845
  22909384.680 5  -8971285.107 5  -4677564.47846  22909373.09046
  21418879.977 6 -10503092.760 6  -7588170.65449  21418871.55149
 24 11 23  3 42 30.0000000  0  8G06G11G12G17G19G20G22G24            
  20685107.266 6 -22807539.584 6 -16722976.94249  20685098.89849
  21173085.313 6 -21341426.048 6 -15638745.20848  21173073.89848
  21907080.281 6 -13264091.566 6 -10625323.69748  21907068.16448
  23886533.008 1 -14290918.626 1 -11231971.65146  23886522.12146
  21295193.180 7 -21154121.601 7 -13743255.82048  21295179.12948
  24191734.750 2  -2758589.141 2   -366095.91945  24191725.85545
  22920091.188 5  -8915021.662 5  -4633722.85546  22920079.59846
  21423903.484 6 -10476691.006 6  -7567597.84149  21423895.41049
 24 11 23  3 43  0.0000000  0  8G06G11G12G17G19G20G22G24            
  20689926.711 7 -22782211.943 7 -16703241.10749  20689918.93049
  21161441.898 6 -21402609.856 6 -15686420.86748  21161431.07048
  21893406.406 6 -13335946.292 6 -10681314.33248  21893394.52348
  23900628.578 2 -14216847.157 2 -11174253.56345  23900617.75045
  21305667.258 6 -21099077.713 6 -13700364.46348  21305653.32448
  24174526.859 2  -2849021.156 2   -436562.26945  24174517.78945
  22930839.039 5  -8858540.799 5  -4589711.77646  22930827.15646
  21429034.273 6 -10449729.948 6  -7546589.21849  21429025.78949
 24 11 23  3 43 30.0000000  0  8G06G11G12G17G19G20G22G24            
  20694855.648 7 -22756310.654 7 -16683058.26549  20694847.34049
  21149890.086 6 -21463315.862 6 -15733724.20748  21149879.25848
  21879761.367 6 -13407650.654 6 -10737187.79848  21879749.42648
  23914715.453 1 -14142822.281 1 -11116571.86645  23914704.80145
  21316171.117 6 -21043879.661 6 -13657352.98148  21316157.53548
  24157308.727 1  -2939498.193 1   -507063.67845  24157301.18045
  22941628.156 5  -8801844.021 5  -4545532.49046  22941616.39146
  21434270.984 6 -10422212.643 6  -7525147.15349  21434262.50049
 24 11 23  3 44  0.0000000  0  8G06G11G12G17G19G20G22G24            
  20699893.813 7 -22729837.112 7 -16662429.51749  20699885.09449
  21138429.703 6 -21523542.378 6 -15780653.93748  21138418.52348
  21866145.406 6 -13479203.327 6 -10792943.07848  21866133.58248
  23928793.086 1 -14068844.468 1 -11058926.85645  23928783.13745
  21326704.352 7 -20988528.715 7 -13614222.36648  21326690.94548
  24140084.813 2  -3030017.759 2   -577598.23946  24140076.27046
  22952457.883 4  -8744931.291 4  -4501184.90046  22952446.58646
  21439612.297 6 -10394140.419 6  -7503272.68249  21439604.16449
 24 11 23  3 44 30.0000000  0  8G06G11G12G17G19G20G22G24            
  20705040.500 7 -22702790.777 7 -16641354.44149  20705031.60549
  21127060.625 6 -21583285.776 6 -15827207.20048  21127049.50448
  21852559.797 6 -13550600.471 6 -10848577.20149  21852547.68049
  23942861.031 1 -13994912.202 1 -11001317.36745  23942852.95745
  21337266.359 6 -20933024.080 6 -13570971.98348  21337252.48448
  24122852.891 2  -3120574.597 2   -648161.85245  24122843.76245
  22963329.383 4  -8687800.021 4  -4456667.06046  22963317.96946
  21445060.648 6 -10365512.713 6  -7480965.37749  21445051.98849
 24 11 23  3 45  0.0000000  0  8G06G11G12G17G19G20G22G24            
  20710295.961 7 -22675173.171 7 -16619834.20449  20710286.71549
  21115783.828 6 -21642544.485 6 -15873382.78548  21115773.23448
  21839002.180 6 -13621840.637 6 -10904088.97949  21838990.59049
  23956920.391 1 -13921026.609 1 -10943744.11445  23956913.07845
  21347858.063 6 -20877366.878 6 -13527602.72248  21347843.25048
  24105615.289 3  -3211166.449 3   -718752.72845  24105604.52045
  22974242.609 4  -8630450.223 4  -4411978.91846  22974231.95746
  21450613.813 6 -10336331.033 6  -7458226.39449  21450605.21149
