     2.11           OBSERVATION DATA    M (MIXED)           RINEX VERSION / TYPE
teqc  2019Feb25                         20241124 01:19:22UTCPGM / RUN BY / DATE
OSX ker:10.11.6|Core i5|gcc 4.3 -m64|OSX ker:10.10+|=+      COMMENT
ssrcrin-13.7.0x                         23-NOV-24 18:02     COMMENT
(000000000000583293750002) Septentrio proprietary           COMMENT
CAR1                                                        MARKER NAME
Unknown                                                     MARKER NUMBER
Unknown             Unknown                                 OBSERVER / AGENCY
3234315             SEPT POLARX5        5.4.0               REC # / TYPE / VERS
Unknown             Unknown                                 ANT # / TYPE
 -2455406.0740 -4767117.2987  3441919.0652                  APPROX POSITION XYZ
        0.0000        0.0000        0.0000                  ANTENNA: DELTA H/E/N
     1     1                                                WAVELENGTH FACT L1/2
    14    C1    L1    L2    P2    P1    C2    C5    L5    C6# / TYPES OF OBSERV
          L6    C7    L7    C8    L8                        # / TYPES OF OBSERV
    30.0000                                                 INTERVAL
For GPS, L2 corresponds to the L2P carrier phase.           COMMENT
For GLONASS, L2 corresponds to the L2CA carrier phase.      COMMENT
Forced Modulo Decimation to 30 seconds                      COMMENT
  2024    11    23    18     3    0.0000000     GPS         TIME OF FIRST OBS
    18                                                      LEAP SECONDS
                                                            END OF HEADER
 24 11 23 18  3  0.0000000  0 24G02G03G04G31S31S35G09E29E30G26R10G16
                                G06E02E07E08E26E27S33R07R08R09R11G07
  24766688.223 6 130149821.993 6 101415488.544 2  24766698.139 2  24766688.022 2


  20132379.417 8 105796367.467 8  82438756.956 8  20132386.343 8  20132379.203 8
  20132386.904 7  20132380.218 5  79003785.104 5

  21231996.569 7 111574896.038 7  86941504.149 5  21232002.869 5  21231996.109 5
  21232003.266 7

  22521999.020 7 118353899.016 7  92223846.468 6  22522005.516 6  22521998.470 6
  22522006.199 6

  37076510.095 7 194838383.328 7


  37126353.872 7 195100309.387 7


  22967677.327 7 120695959.914 7  94048838.406 6  22967687.137 6  22967676.818 6
  22967687.697 6

  25887872.064 7 136041687.438 7

  25887878.840 7 104239759.504 7
  24973747.551 7 131237929.392 7
                                                  24973747.122 5 106524289.115 5
  24973754.354 7 100558959.781 7
  21729513.833 7 114189365.101 7  88978763.197 7  21729523.048 7  21729513.140 7
  21729522.980 7

  19739889.325 7 105224720.726 7


  21410985.354 7 112515486.762 7  87674429.085 5  21410990.349 5  21410984.465 5


  24910346.027 5 130904755.112 5 102003755.907 4  24910359.177 4  24910345.965 4
  24910359.866 5

  26938524.355 6 141562899.855 6

  26938535.023 6 108470315.546 6
  23970421.340 8 125965414.625 8
                  23970424.721 5  94065094.795 5  23970420.624 6 102244650.310 6
  23970427.917 8  96518980.439 8
  26354784.597 6 138495327.882 6

  26354792.719 6 106119828.974 6
  26007389.657 6 136669753.213 6

  26007396.792 6 104721010.787 6
  26148587.383 6 137411755.690 6

  26148597.154 7 105289566.184 7
  37209026.943 7 195534761.266 7


  19949370.588 8 106790540.827 8  83059357.399 7
  19949381.828 7

  21537380.280 6 115331688.237 6  89702478.777 6
  21537391.965 6

  19904448.399 8 106288640.887 8  82668988.015 8
  19904459.153 8

  23352116.714 6 124786634.811 6  97056345.442 5
  23352133.012 5

  24206554.848 6 127206305.493 6  99121836.942 4  24206564.717 4  24206554.513 4
  24206564.546 5

 24 11 23 18  3 30.0000000  0 24G02G03G04G31S31S35G09E29E30G26R10G16
                                G06E02E07E08E26E27S33R07R08R09R11G07
  24781711.666 5 130228767.773 5 101477004.425 2  24781720.854 2  24781711.421 2


  20134915.251 8 105809693.036 8  82449140.493 8  20134921.851 8  20134915.037 8
  20134922.806 7  20134916.229 5  79013736.003 5

  21224690.236 7 111536499.849 7  86911585.030 5  21224696.174 5  21224689.780 5
  21224696.412 7

  22539413.949 7 118445414.837 7  92295157.359 6  22539420.616 6  22539413.404 6
  22539421.099 6

  37076670.451 7 194839213.998 7


  37126499.848 7 195101073.299 7


  22954305.616 6 120625691.798 6  93994084.130 6  22954314.883 6  22954305.089 6
  22954314.929 6

  25879144.802 6 135995826.574 6

  25879151.736 7 104204619.406 7
  24968804.547 7 131211954.093 7
                                                  24968804.145 5 106503205.329 5
  24968811.271 7 100539056.704 7
  21735994.077 7 114223419.385 7  89005298.923 7  21736003.653 7  21735993.362 7
  21736004.033 7

  19728808.734 7 105165655.428 7


  21401410.516 7 112465172.067 7  87635222.915 5  21401415.894 5  21401409.609 5


  24904722.172 5 130875205.820 5 101980730.495 4  24904736.343 4  24904722.061 4
  24904737.104 5

  26947886.935 6 141612100.268 6

  26947897.602 6 108508014.395 6
  23970394.716 8 125965274.007 8
                  23970398.081 5  94064989.767 5  23970393.943 6 102244536.180 6
  23970401.142 8  96518872.683 8
  26363173.068 6 138539409.559 6

  26363181.463 6 106153605.720 6
  26019335.352 6 136732527.348 6

  26019342.401 7 104769110.354 7
  26132565.482 6 137327560.841 6

  26132575.301 7 105225053.393 7
  37209183.878 7 195535589.910 7


  19947609.434 8 106781117.378 8  83052028.071 7
  19947621.801 7

  21522287.644 6 115250871.765 6  89639621.539 6
  21522300.700 6

  19914027.881 8 106339794.554 8  82708774.185 8
  19914038.334 8

  23327805.710 6 124656733.274 6  96955311.167 5
  23327825.262 5

  24192603.016 6 127132989.842 6  99064708.077 4  24192612.990 4  24192602.288 4
  24192613.317 5

 24 11 23 18  4  0.0000000  0 24G02G03G04G31S31S35G09E29E30G26R10G16
                                G06E02E07E08E26E27S33R07R08R09R11G07
  24796548.186 6 130306733.254 6 101537756.412 1  24796557.433 1  24796547.815 1


  20137387.760 8 105822685.871 8  82459264.753 8  20137394.650 8  20137387.546 8
  20137395.256 7  20137388.543 5  79023438.412 5

  21217235.374 7 111497324.545 7  86881058.812 5  21217241.447 5  21217234.914 5
  21217241.774 7

  22556681.666 7 118536156.272 7  92365864.828 6  22556688.225 6  22556681.134 6
  22556688.576 6

  37076652.319 7 194839136.349 7


  37126472.168 7 195100929.528 7


  22940767.896 6 120554548.714 6  93938648.050 5  22940775.932 5  22940767.396 5
  22940776.562 5

  25870245.489 7 135949059.636 7

  25870252.425 7 104168785.041 7
  24963764.670 7 131185469.389 7
                                                  24963764.180 5 106481708.045 5
  24963771.485 7 100518763.285 7
  21742413.385 7 114257152.871 7  89031584.677 7  21742422.860 7  21742412.666 7
  21742422.829 7

  19717690.754 7 105106388.699 7


  21391768.832 7 112414504.546 7  87595741.822 5  21391774.611 5  21391767.911 5


  24899022.366 5 130845252.105 5 101957389.931 3  24899035.669 3  24899022.344 3
  24899037.136 5

  26957142.053 6 141660736.084 6

  26957152.830 6 108545280.632 6
  23970208.513 8 125964295.554 8
                  23970211.500 4  94064259.105 4  23970207.446 6 102243741.956 6
  23970214.922 8  96518122.939 8
  26371400.156 6 138582640.625 6

  26371408.281 6 106186730.751 6
  26031154.515 7 136794635.925 7

  26031161.483 7 104816699.942 7
  26116393.287 6 137242574.646 6

  26116402.747 7 105159934.216 7
  37209170.325 7 195535509.451 7


  19945744.708 8 106771132.371 8  83044261.964 7
  19945756.371 7

  21507035.329 6 115169193.170 6  89576093.803 6
  21507046.549 6

  19923561.989 8 106390705.367 8  82748371.482 8
  19923572.211 8

  23303355.981 6 124526067.107 6  96853682.191 5
  23303370.970 5

  24178517.420 6 127058968.338 6  99007029.191 4  24178526.735 4  24178516.651 4
  24178527.940 5

 24 11 23 18  4 30.0000000  0 28G02G03G04G31S31S35G09E29E30R06G26R10
                                G16G06E02E13E07E08E26E27S33R07R08E33
                                R23R09R11G07
  24811374.083 6 130384640.026 6 101598462.669 1  24811382.718 1  24811373.583 1


  20139972.784 8 105836270.255 8  82469849.950 8  20139979.664 8  20139972.565 8
  20139980.187 7  20139973.117 5  79033582.557 5

  21209808.306 7 111458294.763 7  86850645.994 5  21209814.690 5  21209807.846 5
  21209814.640 7

  22573977.110 7 118627045.227 7  92436687.254 6  22573983.790 6  22573976.578 6
  22573984.374 6

  37076639.673 7 194839073.146 7


  37126447.445 7 195100800.353 7


  22927238.529 6 120483455.136 6  93883250.565 5  22927246.989 5  22927238.011 5
  22927247.237 6

  25861349.337 7 135902310.580 7

  25861356.416 7 104132964.385 7
  24958803.766 7 131159400.159 7
                                                  24958803.212 5 106460547.971 5
  24958810.487 7 100498788.218 7
  22096672.029 5 117912077.930 5


  21748947.120 7 114291488.418 7  89058339.561 7  21748956.710 7  21748946.401 7
  21748957.278 7

  19706711.000 7 105047860.216 7


  21382236.110 7 112364410.714 7  87556707.749 5  21382241.979 5  21382235.180 5


  24893420.723 5 130815818.478 5 101934454.663 3  24893434.394 3  24893420.679 3
  24893436.061 5

  26966465.497 6 141709730.115 6

  26966476.402 6 108582821.329 6
  27942828.010 6 146840551.876 6

  27942844.100 5 112514253.856 5
  23970038.615 8 125963403.645 8
                  23970041.732 5  94063593.069 5  23970037.720 6 102243018.005 6
  23970045.226 8  96517439.506 8
  26379640.352 6 138625945.574 6

  26379648.926 6 106219912.342 6
  26043022.291 7 136857000.892 7

  26043029.322 7 104864485.970 7
  26100246.348 6 137157723.057 6

  26100256.061 7 105094918.164 7
  37209159.946 7 195535444.906 7


  19943951.030 8 106761529.173 8  83036792.826 7
  19943962.311 7

  21491797.095 7 115087596.338 7  89512629.612 6
  21491810.373 6

  26680970.641 6 140209446.589 6

  26680977.994 6 107433241.451 6
  23737842.541 5 126981464.592 5


  19933225.548 8 106442309.498 8  82788508.036 8
  19933236.033 8

  23278935.667 6 124395579.349 6  96752191.951 5
  23278952.607 5

  24164472.624 6 126985165.382 6  98949520.587 4  24164482.335 4  24164471.851 4
  24164483.843 5

 24 11 23 18  5  0.0000000  0 28G02G03G04G31S31S35G09E29E30R06G26R10
                                G16G06E02E13E07E08E26E27S33R07R08E33
                                R23R09R11G07
  24826186.149 5 130462479.180 5 101659116.275 2  24826195.357 2  24826185.532 2


  20142669.147 8 105850439.804 8  82480891.118 8  20142675.931 8  20142668.928 8
  20142676.493 7  20142670.105 5  79044163.670 5

  21202407.565 7 111419404.697 7  86820342.042 5  21202414.061 5  21202407.109 5
  21202413.888 7

  22591299.150 7 118718072.976 7  92507617.835 6  22591305.801 6  22591298.632 6
  22591306.438 6

  37076630.305 7 194839019.183 7


  37126424.380 7 195100680.008 7


  22913718.376 6 120412405.131 6  93827887.025 5  22913726.886 5  22913717.876 5
  22913727.785 6

  25852455.342 7 135855572.908 7

  25852462.194 7 104097152.447 7
  24953920.790 7 131133740.791 7
                                                  24953920.806 5 106439720.581 5
  24953927.688 7 100479127.172 7
  22109555.605 5 117980833.525 5


  21755594.600 7 114326418.418 7  89085557.656 7  21755603.791 7  21755593.881 7
  21755603.821 7

  19695869.119 7 104990064.753 7


  21372811.980 7 112314886.569 7  87518117.578 5  21372817.413 5  21372811.041 5


  24887916.606 5 130786899.049 5 101911920.045 3  24887931.016 3  24887916.419 3
  24887932.435 5

  26975855.607 6 141759074.614 6

  26975866.457 6 108620630.550 6
  27959210.988 5 146926643.298 5

  27959227.251 5 112580219.725 5
  23969884.363 8 125962592.165 8
                  23969887.587 5  94062987.060 5  23969883.739 6 102242359.307 6
  23969890.847 8  96516817.704 8
  26387893.957 6 138669318.350 6

  26387902.517 6 106253145.921 6
  26054937.386 7 136919613.720 7

  26054944.257 7 104912461.945 7
  26084124.191 6 137073001.556 6

  26084134.106 7 105030001.794 7
  37209147.287 7 195535388.360 7


  19942227.861 8 106752303.374 8  83029617.204 7
  19942238.984 7

  21476574.816 7 115006076.839 7  89449225.622 6
  21476586.410 6

  26681040.751 6 140209813.360 6

  26681048.166 6 107433522.449 6
  23751340.240 5 127053648.861 5


  19943017.129 8 106494597.424 8  82829176.428 8
  19943027.963 8

  23254547.618 6 124265267.073 6  96650838.078 5
  23254567.287 5

  24150469.250 6 126911575.073 6  98892177.677 4  24150478.769 4  24150468.414 4
  24150480.688 5

 24 11 23 18  5 30.0000000  0 29G02G03G04G31S31S35G09E29E30R06G26R10
                                G16G06E02E13R22E07E08E26E27S33R07R08
                                E33R23R09R11G07
  24840984.925 6 130540248.492 6 101719715.434 2  24840994.616 2  24840984.134 2


  20145477.070 8 105865195.155 8  82492388.754 8  20145483.985 8  20145476.851 8
  20145484.440 7  20145477.553 5  79055182.222 5

  21195034.026 7 111380655.400 7  86790147.779 5  21195040.016 5  21195033.566 5
  21195040.292 7

  22608647.399 7 118809237.714 7  92578655.163 6  22608654.091 6  22608646.890 6
  22608654.836 6

  37076618.956 7 194838973.018 7


  37126402.693 7 195100568.560 7


  22900206.855 6 120341399.664 6  93772558.188 5  22900215.391 5  22900206.355 5
  22900215.418 6

  25843563.718 7 135808847.004 7

  25843570.652 7 104061349.535 7
  24949116.081 7 131108492.504 7
                                                  24949116.340 5 106419226.880 5
  24949123.024 7 100459781.115 7
  22122507.677 5 118049939.779 5


  21762354.404 7 114361942.099 7  89113238.351 7  21762363.672 7  21762353.680 7
  21762364.082 7

  19685164.207 7 104933005.461 7


  21363496.769 7 112265934.944 7  87479973.523 5  21363501.874 5  21363495.813 5


  24882512.819 5 130758494.663 5 101889786.765 3  24882525.633 3  24882512.587 3
  24882526.929 5

  26985312.325 6 141808768.716 6

  26985323.236 6 108658707.642 6
  27975574.517 5 147012634.787 5

  27975591.193 5 112646109.006 5
  24573842.645 5 131176857.052 5


  23969745.369 8 125961861.892 8
                  23969748.656 5  94062441.729 5  23969744.581 6 102241766.517 6
  23969751.946 8  96516258.125 8
  26396160.813 6 138712759.802 6

  26396169.315 6 106286432.145 6
  26066899.059 6 136982472.814 6

  26066906.185 7 104960626.593 7
  26068027.308 6 136988412.513 6

  26068037.287 7 104965186.896 7
  37209138.545 7 195535340.759 7


  19940575.050 8 106743457.527 8  83022737.125 7
  19940586.533 7

  21461366.802 7 114924636.969 7  89385883.574 6
  21461377.879 6

  26681193.039 6 140210612.897 6

  26681200.330 6 107434135.064 6
  23764906.525 5 127126233.421 5


  19952936.280 8 106547566.534 8  82870374.627 8
  19952947.437 8

  23230195.234 6 124135134.353 6  96549623.801 5
  23230214.530 5

  24136505.788 6 126838198.225 6  98835001.078 4  24136515.716 4  24136505.024 4
  24136515.818 5

 24 11 23 18  6  0.0000000  0 29G02G03G04G31S31S35G09E29E30R06G26R10
                                G16G06E02E13R22E07E08E26E27S33R07R08
                                E33R23R09R11G07
  24855769.864 5 130617943.564 5 101780256.699 1  24855779.844 1  24855769.051 1


  20148396.085 8 105880534.987 8  82504341.825 8  20148402.891 8  20148395.866 8
  20148403.410 7  20148397.287 5  79066637.261 5

  21187686.663 7 111342046.106 7  86760062.613 5  21187692.965 5  21187686.207 5
  21187693.252 7

  22626020.970 7 118900535.901 7  92649796.484 6  22626027.820 6  22626020.456 6
  22626028.342 6

  37076613.398 7 194838936.085 7


  37126383.706 7 195100465.240 7


  22886702.379 6 120270437.720 6  93717263.254 5  22886711.811 5  22886701.847 5
  22886712.350 6

  25834673.998 7 135762131.418 7

  25834680.995 7 104025554.546 7
  24944389.607 7 131083654.703 7
                                                  24944389.441 5 106399066.327 5
  24944396.613 7 100440749.563 7
  22135523.973 5 118119395.255 5


  21769226.827 7 114398056.811 7  89141379.591 7  21769236.145 7  21769226.108 7
  21769236.481 7

  19674598.792 7 104876682.124 7


  21354290.488 7 112217556.600 7  87442276.173 5  21354295.765 5  21354289.527 5


  24877205.795 5 130730604.404 5 101868054.112 3  24877217.795 3  24877205.527 3
  24877219.324 5

  26994834.855 6 141858809.724 6

  26994845.806 6 108697050.537 6
  27991918.484 5 147098523.047 5

  27991935.526 5 112711919.173 5
  24592206.947 5 131274859.668 5 102102730.060 4
  24592227.230 4

  23969621.670 8 125961211.771 8
                  23969625.034 5  94061956.179 5  23969620.633 6 102241238.791 6
  23969628.366 8  96515759.953 8
  26404440.507 6 138756268.950 6

  26404449.078 6 106319770.215 6
  26078907.146 6 137045574.634 6

  26078914.207 7 105008977.226 7
  26051955.723 6 136903956.425 6

  26051965.737 7 104900473.863 7
  37209131.784 7 195535300.878 7


  19938994.114 8 106734992.167 8  83016152.978 7
  19939005.178 7

  21446171.390 7 114843277.352 7  89322603.921 6
  21446184.918 6

  26681427.068 6 140211843.404 6

  26681434.885 6 107435077.895 6
  23778548.761 5 127199212.700 5


  19962982.574 8 106601212.630 8  82912099.364 8
  19962993.757 8

  23205878.397 6 124005182.876 6  96448550.460 5
  23205895.061 5

  24122583.199 6 126765033.837 6  98777990.041 4  24122593.002 4  24122582.582 4
  24122593.485 5

 24 11 23 18  6 30.0000000  0 30G02G21G03G04G31S31S35G09E29E30R06G26
                                R10G16G06E02E13R22E07E08E26E27S33R07
                                R08E33R23R09R11G07
  24870539.068 5 130695557.317 5 101840734.660 1  24870549.399 1  24870538.232 1


  25677966.078 5


  20151425.564 8 105896454.397 8  82516746.518 8  20151432.173 8  20151425.350 8
  20151432.914 7  20151426.381 5  79078525.084 5

  21180365.626 7 111303572.477 7  86730083.161 5  21180371.801 5  21180365.166 5
  21180371.679 7

  22643418.593 7 118991960.368 7  92721036.202 6  22643425.629 6  22643418.079 6
  22643425.913 6

  37076603.274 7 194838900.801 7


  37126364.304 7 195100364.554 7


  22873206.428 6 120199514.888 6  93661998.774 5  22873215.546 5  22873205.892 5
  22873215.637 6

  25825785.170 7 135715421.106 7

  25825792.144 7 103989763.589 7
  24939740.507 7 131059223.166 7
                                                  24939740.346 5 106379235.545 5
  24939747.438 7 100422029.306 7
  22148603.441 5 118189194.683 5


  21776210.459 7 114434756.312 7  89169976.515 7  21776219.903 7  21776209.744 7
  21776220.299 7

  19664170.059 7 104821091.891 7


  21345193.126 7 112169749.082 7  87405023.617 5  21345198.285 5  21345192.156 5


  24871994.765 6 130703223.653 6 101846718.452 4  24872007.443 4  24871994.546 4
  24872009.254 5

  27004422.383 6 141909191.315 6

  27004433.334 6 108735654.394 6
  28008241.625 5 147184301.216 5

  28008258.970 5 112777645.034 5
  24610549.315 5 131372763.153 5 102178876.697 4
  24610568.816 4

  23969512.356 8 125960637.193 8
                  23969515.702 5  94061527.097 5  23969511.649 6 102240772.393 6
  23969518.997 8  96515319.657 8
  26412732.185 6 138799841.257 6

  26412740.286 6 106353156.694 6
  26090959.835 6 137108912.156 6

  26090967.152 7 105057508.476 7
  26035909.114 6 136819630.240 6

  26035918.697 7 104835860.375 7
  37209128.757 7 195535263.168 7


  19937482.887 8 106726904.405 8  83009862.502 7
  19937494.238 7

  21430993.961 7 114761995.194 7  89259384.524 6
  21431005.455 6

  26681742.314 6 140213499.503 6

  26681749.869 6 107436346.858 6
  23792263.832 5 127272577.274 5


  19973154.396 8 106655527.704 8  82954344.410 8
  19973165.360 8

  23181592.907 6 123875411.390 6  96347617.078 5
  23181610.685 5

  24108700.171 6 126692077.592 6  98721141.199 4  24108709.777 4  24108699.621 4
  24108710.303 5

 24 11 23 18  7  0.0000000  0 29G02G03G04G31S31S35G09E29E30R06G26R10
                                G16G06E02E13R22E07E08E26E27S33R07R08
                                E33R23R09R11G07
  24885293.833 5 130773092.075 5 101901151.021 1  24885303.566 1  24885292.975 1


  20154566.039 8 105912958.623 8  82529606.909 8  20154572.961 8  20154565.820 8
  20154573.686 7  20154567.560 5  79090849.585 5

  21173071.276 7 111265240.370 7  86700213.981 5  21173077.217 5  21173070.816 5
  21173077.550 7

  22660840.931 7 119083514.018 7  92792376.570 6  22660847.876 6  22660840.408 6
  22660848.347 6

  37076600.846 7 194838872.804 7


  37126347.276 7 195100271.687 7


  22859718.828 6 120128636.858 6  93606769.218 6  22859728.010 6  22859718.296 6
  22859728.716 6

  25816898.475 6 135668721.198 6

  25816905.601 7 103953980.596 7
  24935169.745 7 131035203.822 7
                                                  24935169.775 5 106359739.312 5
  24935176.625 7 100403624.874 7
  22161749.238 5 118259343.414 5


  21783306.397 7 114472044.487 7  89199032.140 7  21783315.572 7  21783305.687 7
  21783315.629 7

  19653879.783 7 104766241.789 7


  21336205.382 7 112122519.779 7  87368221.620 5  21336211.003 5  21336204.403 5


  24866881.937 5 130676358.096 5 101825784.259 4  24866894.652 4  24866881.759 4
  24866895.201 5

  27014075.276 6 141959917.316 6

  27014086.288 6 108774522.128 6
  28024545.274 5 147269972.575 5

  28024562.114 5 112843289.099 5
  24628871.220 5 131470568.534 5
  24628887.903 4

  23969418.500 8 125960143.659 8
                  23969421.645 5  94061158.470 5  23969417.752 6 102240371.774 6
  23969424.981 8  96514941.455 8
  26421036.842 6 138843482.317 6

  26421045.179 6 106386595.847 6
  26103058.129 6 137172488.452 6

  26103065.461 7 105106222.682 7
  26019888.112 6 136735441.050 6

  26019898.019 7 104771351.840 7
  37209119.943 7 195535233.514 7


  19936043.402 8 106719201.109 8  83003871.054 7
  19936054.967 7

  21415830.714 7 114680797.780 7  89196231.051 6
  21415843.368 6

  26682139.176 6 140215586.014 6

  26682146.961 6 107437945.574 6
  23806050.020 5 127346328.411 5


  19983452.138 8 106710513.727 8  82997111.298 8
  19983462.509 8

  23157342.857 6 123745828.503 6  96246830.496 6
  23157361.764 6

  24094856.744 6 126619334.750 6  98664458.657 4  24094866.885 4  24094856.208 4
  24094866.886 5

 24 11 23 18  7 30.0000000  0 29G02G03G04G31S31S35G09E29E30R06G26R10
                                G16G06E02E13R22E07E08E26E27S33R07R08
                                E33R23R09R11G07
  24900032.616 5 130850546.442 5 101961504.699 1  24900042.736 1  24900031.847 1


  20157818.304 8 105930048.866 8  82542923.937 8  20157825.100 8  20157818.085 8
  20157825.838 7  20157819.207 5  79103611.736 5

  21165804.122 7 111227051.635 7  86670456.521 5  21165810.267 5  21165803.657 5
  21165810.290 7

  22678287.334 7 119175195.766 7  92863816.760 6  22678294.309 6  22678286.811 6
  22678294.813 6

  37076600.417 7 194838854.274 7


  37126331.053 7 195100187.356 7


  22846239.233 6 120057805.298 6  93551575.850 6  22846249.395 6  22846238.679 6
  22846249.728 6

  25808013.842 7 135622032.854 7

  25808020.941 7 103918206.472 7
  24930677.855 7 131011598.614 7
                                                  24930678.080 5 106340579.225 5
  24930684.811 7 100385537.749 7
  22174961.319 5 118329842.197 5


  21790514.031 7 114509921.244 7  89228546.410 7  21790523.456 7  21790513.325 7
  21790523.869 7

  19643729.427 7 104712134.656 7


  21327328.821 7 112075872.198 7  87331872.911 5  21327334.327 5  21327327.838 5


  24861868.146 6 130650009.259 6 101805252.663 4  24861880.041 4  24861867.968 4
  24861881.647 5

  27023793.799 6 142010987.586 6

  27023804.964 6 108813653.624 6
  28040826.987 5 147355536.526 5

  28040844.010 5 112908850.796 5
  24647175.235 5 131568273.418 5
  24647191.922 4

  23969340.187 8 125959732.753 8
                  23969343.403 5  94060851.603 5  23969339.508 6 102240038.202 6
  23969346.795 8  96514626.561 8
  26429354.747 6 138887193.732 6

  26429363.569 6 106420088.890 6
  26115201.322 6 137236302.612 6

  26115209.081 7 105155119.142 7
  26003893.936 6 136651391.930 6

  26003903.721 7 104706950.649 7
  37209113.616 7 195535212.297 7


  19934677.615 8 106711885.623 8  82998181.250 7
  19934688.722 7

  21400684.070 7 114599688.590 7  89133146.162 6
  21400695.968 6

  26682618.232 6 140218103.660 6

  26682626.242 6 107439874.668 6
  23819910.846 5 127420462.801 5


  19993874.034 8 106766168.974 8  83040398.681 8
  19993884.933 8

  23133129.612 6 123616439.044 6  96146194.307 6
  23133148.028 6

  24081055.365 6 126546806.960 6  98607943.691 4  24081065.079 4  24081054.802 4
  24081065.316 5

 24 11 23 18  8  0.0000000  0 29G02G03G04G31S31S35G09E29E30R06G26R10
                                G16G06E02E13R22E07E08E26E27S33R07R08
                                E33R23R09R11G07
  24914754.991 5 130927910.569 5 102021788.158 1  24914765.124 1  24914754.196 1


  20161180.707 8 105947717.866 8  82556691.942 8  20161187.466 8  20161180.488 8
  20161188.458 7  20161181.474 5  79116806.059 5

  21158563.060 7 111188999.659 7  86640805.630 5  21158569.364 5  21158562.595 5
  21158569.440 7

  22695756.416 7 119266996.332 7  92935349.520 6  22695763.593 6  22695755.902 6
  22695764.038 6

  37076592.440 7 194838836.834 7


  37126315.125 7 195100105.035 7


  22832768.306 6 119987013.447 6  93496413.420 6  22832778.543 6  22832767.739 6
  22832778.661 6

  25799130.144 7 135575348.745 7

  25799137.219 7 103882435.586 7
  24926263.592 7 130988400.990 7
                                                  24926263.750 5 106321749.955 5
  24926270.522 7 100367762.920 7
  22188237.007 5 118400683.642 5


  21797832.347 7 114548377.957 7  89258512.599 7  21797841.548 7  21797831.632 7
  21797841.900 7

  19633717.282 7 104658765.210 7


  21318561.761 7 112029801.446 7  87295973.662 5  21318567.125 5  21318560.773 5


  24856951.195 6 130624170.182 6 101785118.331 4  24856964.301 4  24856950.994 4
  24856964.884 5

  27033576.379 6 142062393.562 6

  27033587.516 6 108853042.372 6
  28057088.083 5 147440983.853 5

  28057104.992 5 112974323.173 5
  24665455.640 4
  24665469.817 4

  23969276.521 8 125959397.565 8
                  23969279.830 5  94060601.262 5  23969275.658 6 102239766.097 6
  23969283.029 8  96514369.679 8
  26437684.901 6 138930968.625 6

  26437693.971 6 106453630.578 6
  26127388.379 6 137300345.291 6

  26127396.241 7 105204190.702 7
  25987925.828 6 136567477.567 6

  25987935.438 7 104642652.711 7
  37209113.808 7 195535193.217 7


  19933381.916 8 106704952.476 8  82992788.797 7
  19933393.387 7

  21385552.881 7 114518662.472 7  89070125.914 7
  21385564.900 7

  26683177.946 6 140221044.757 6

  26683186.152 6 107442128.215 6
  23833839.180 5 127494968.871 5


  20004419.811 8 106822482.922 8  83084198.389 8
  20004430.666 8

  23108951.424 6 123487238.539 6  96045705.164 6
  23108968.928 6

  24067293.076 6 126474487.264 6  98551590.856 4  24067302.691 4  24067292.473 4
  24067302.570 5

 24 11 23 18  8 30.0000000  0 29G02G03G04G31S31S35G09E29E30R06G26R10
                                G16G06E02E13R22E07E08E26E27S33R07R08
                                E33R23R09R11G07
  24929460.947 5 131005189.699 5 102082005.312 1  24929471.209 1  24929459.821 1


  20164654.566 8 105965973.028 8  82570916.689 8  20164661.532 8  20164654.347 8
  20164661.927 7  20164655.432 5  79130438.082 5

  21151349.613 7 111151092.523 7  86611267.613 6  21151355.961 6  21151349.148 6
  21151355.778 7

  22713248.956 7 119358920.754 7  93006978.811 6  22713256.245 6  22713248.442 6
  22713256.525 6

  37076593.799 7 194838828.470 7


  37126302.037 7 195100031.975 7


  22819306.166 7 119916269.314 7  93441288.162 6  22819316.245 6  22819305.612 6
  22819315.489 6

  25790248.387 7 135528676.279 7

  25790255.683 7 103846673.613 7
  24921928.330 7 130965619.109 7
                                                  24921928.567 5 106303258.150 5
  24921935.247 7 100350306.636 7
  22201578.875 5 118471875.398 5


  21805261.861 7 114587420.719 7  89288935.462 7  21805271.275 7  21805261.151 7
  21805271.313 6

  19623846.221 7 104606142.192 7


  21309906.434 7 111984317.063 7  87260531.331 5  21309911.603 5  21309905.437 5


  24852133.498 5 130598848.705 5 101765387.327 4  24852146.190 4  24852133.279 4
  24852145.882 5

  27043423.690 6 142114141.257 6

  27043434.591 6 108892692.956 6
  28073326.469 5 147526320.229 5

  28073343.954 5 113039710.498 5
  24683717.187 4
  24683740.107 4

  23969228.576 8 125959145.879 8
                  23969232.225 5  94060413.267 5  23969227.960 6 102239561.761 6
  23969235.272 8  96514176.788 8
  26446028.504 5 138974814.895 5

  26446037.753 6 106487226.943 6
  26139620.045 6 137364621.787 6

  26139627.723 7 105253441.414 7
  25971984.584 6 136483707.286 6

  25971994.407 7 104578465.178 7
  37209108.263 7 195535182.213 7


  19932160.267 8 106698411.542 8  82987701.418 7
  19932171.547 7

  21370438.953 7 114437728.819 7  89007177.569 7
  21370451.381 7

  26683819.779 6 140224416.275 6

  26683827.719 6 107444711.563 6
  23847838.109 5 127569849.643 5


  20015090.116 8 106879460.148 8  83128513.968 8
  20015100.435 8

  23084810.211 6 123358238.730 6  95945372.161 6
  23084827.915 6

  24053572.143 6 126402383.523 6  98495406.304 4  24053581.441 4  24053571.513 4
  24053580.813 5

 24 11 23 18  9  0.0000000  0 29G02G03G04G31S31S35G09E29E30R06G26R10
                                G16G06E02E13R22E07E08E26E27S33R07R08
                                E33R23R09R11G07
  24944149.851 4 131082376.723 4 102142150.736 1  24944159.733 1  24944148.743 1


  20168239.106 8 105984809.692 8  82585594.560 8  20168246.092 8  20168238.887 8
  20168246.653 7  20168240.197 5  79144504.376 5

  21144163.036 7 111113326.316 7  86581839.411 5  21144168.977 5  21144162.576 5
  21144169.074 7

  22730764.255 7 119450962.386 7  93078699.429 6  22730771.125 6  22730763.750 6
  22730771.963 6

  37076587.494 7 194838824.247 7


  37126287.884 7 195099963.020 7


  22805852.762 6 119845568.821 6  93386196.910 6  22805861.687 6  22805852.199 6
  22805861.653 6

  25781368.467 7 135482010.821 7

  25781375.419 7 103810917.004 7
  24917671.447 7 130943249.065 7
                                                  24917671.466 5 106285100.631 5
  24917678.321 7 100333165.919 7
  22214984.903 5 118543412.471 5


  21812801.881 7 114627043.511 7  89319810.306 7  21812811.468 7  21812801.175 7
  21812811.657 7

  19614113.595 7 104554263.299 7


  21301362.133 7 111939416.644 7  87225544.028 5  21301367.240 5  21301361.141 5


  24847412.342 6 130574040.485 6 101746056.237 4  24847425.123 4  24847412.119 4
  24847425.472 5

  27053334.892 6 142166224.720 6

  27053346.371 6 108932600.833 6
  28089543.895 5 147611539.123 5

  28089560.839 5 113105007.859 5
  24701956.972 4
  24701970.809 3

  23969195.759 8 125958973.486 8
                  23969199.193 5  94060284.460 5  23969195.098 6 102239421.795 6
  23969202.630 8  96514044.648 8
  26454384.730 5 139018728.315 5

  26454394.082 6 106520874.798 6
  26151894.459 6 137429125.399 6

  26151902.494 6 105302866.152 6
  25956070.412 6 136400078.340 6

  25956080.152 7 104514385.956 7
  37209112.766 7 195535175.960 7


  19931011.331 8 106692259.925 8  82982916.816 7
  19931022.369 7

  21355342.550 7 114356885.135 7  88944299.221 6
  21355354.518 6

  26684542.018 6 140228213.135 6

  26684550.118 6 107447620.824 6
  23861904.067 5 127645096.078 5


  20025882.900 8 106937092.890 8  83173339.388 8
  20025893.262 8

  23060707.450 6 123229438.092 6  95845194.204 6
  23060723.825 6

  24039891.650 6 126330491.502 6  98439386.734 4  24039900.623 4  24039891.016 4
  24039901.022 5

 24 11 23 18  9 30.0000000  0 28G02G03G04G31S31S35G09E29E30R06G26R10
                                G16G06E02E13E07E08E26E27S33R07R08E33
                                R23R09R11G07
  24958819.632 5 131159463.482 5 102202217.967 1  24958828.904 1  24958818.541 1


  20171933.199 8 106004222.428 8  82600721.320 8  20171940.050 8  20171932.980 8
  20171940.789 7  20171934.401 5  79159000.830 5

  21137002.084 7 111075696.351 7  86552517.375 5  21137007.982 5  21137001.615 5
  21137008.407 7

  22748299.786 7 119543113.746 7  93150505.543 6  22748307.036 6  22748299.277 6
  22748307.636 6

  37076588.433 7 194838819.605 7


  37126274.679 7 195099893.019 7


  22792406.111 7 119774907.129 7  93331135.893 6  22792414.700 6  22792405.557 6
  22792415.684 6

  25772488.321 7 135435346.974 7

  25772495.711 7 103775161.646 7
  24913492.035 7 130921286.194 7
                                                  24913492.203 5 106267273.571 5
  24913498.849 7 100316337.188 7
  22228455.568 5 118615289.389 5


  21820450.799 7 114667239.571 7  89351131.858 7  21820460.500 7  21820450.093 7
  21820460.422 7

  19604519.738 7 104503123.944 7


  21292928.496 8 111895097.037 8  87191009.304 5  21292933.549 5  21292927.504 5


  24842788.468 5 130549740.425 5 101727121.113 4  24842801.327 4  24842788.196 4
  24842802.557 5

  27063308.838 6 142218637.183 6

  27063320.238 6 108972760.807 6
  28105736.256 5 147696633.401 5

  28105754.065 5 113170209.646 5
  23969177.166 8 125958875.363 8
                  23969180.399 5  94060211.127 5  23969176.567 6 102239342.120 6
  23969183.929 8  96513969.417 8
  26462753.520 5 139062703.951 5

  26462762.323 6 106554570.287 6
  26164210.935 6 137493848.632 6

  26164218.775 6 105352459.169 6
  25940182.462 6 136316587.312 6

  25940192.327 7 104450412.421 7
  37209110.025 7 195535167.937 7


  19929933.594 8 106686494.445 8  82978432.550 7
  19929945.143 7

  21340260.038 7 114276128.275 7  88881488.372 6
  21340272.982 6

  26685344.165 6 140232429.451 6

  26685352.676 6 107450851.512 6
  23876039.370 5 127720698.707 5


  20036796.862 8 106995372.519 8  83218667.941 8
  20036807.580 8

  23036640.763 6 123100834.200 6  95745169.386 6
  23036656.826 6

  24026250.761 6 126258805.986 6  98383528.082 4  24026259.071 4  24026250.118 4
  24026259.313 5

 24 11 23 18 10  0.0000000  0 29G02G03G04G31S31S35G09E29E30R06G26R10
                                G16G06E02E13R22E07E08E26E27S33R07R08
                                E33R23R09R11G07
  24973471.934 5 131236463.012 5 102262217.220 1  24973481.683 1  24973470.741 1


  20175740.055 8 106024226.787 8  82616309.087 8  20175746.814 8  20175739.836 8
  20175747.696 7  20175741.246 5  79173939.107 5

  21129870.364 7 111038218.964 7  86523314.227 5  21129876.482 5  21129869.895 5
  21129876.575 7

  22765859.676 7 119635388.497 7  93222407.798 6  22765866.387 6  22765859.171 6
  22765866.972 6

  37076591.022 7 194838828.288 7


  37126262.861 7 195099837.922 7


  22778969.987 7 119704300.465 7  93276117.738 6  22778978.945 6  22778969.442 6
  22778979.048 6

  25763612.075 7 135388700.372 7

  25763619.235 7 103739419.487 7
  24909393.392 7 130899746.821 7
                                                  24909393.260 5 106249790.304 5
  24909400.262 7 100299832.955 7
  22241989.834 5 118687521.673 5


  21828212.081 7 114708023.112 7  89382911.200 7  21828221.314 7  21828211.379 7
  21828221.337 7

  19595068.212 7 104452741.683 7


  21284608.501 8 111851375.968 8  87156940.967 5  21284613.836 5  21284607.513 5


  24838262.882 6 130525964.502 6 101708594.422 4  24838277.172 4  24838262.596 4
  24838277.351 5

  27073348.264 6 142271392.927 6

  27073359.811 6 109013183.840 6
  28121908.703 5 147781616.761 5

  28121926.303 5 113235326.507 5
  24738368.893 4
  24738394.353 4

  23969175.744 8 125958867.561 8
                  23969179.496 5  94060205.269 5  23969175.110 6 102239335.761 6
  23969182.561 8  96513963.397 8
  26471136.652 5 139106757.888 5

  26471145.873 6 106588325.804 6
  26176572.180 6 137558805.019 6

  26176579.517 6 105402230.847 6
  25924324.517 7 136233251.717 7

  25924334.119 7 104386557.998 7
  37209111.496 7 195535174.601 7


  19928932.025 8 106681132.644 8  82974262.269 7
  19928943.902 7

  21325199.844 7 114195476.462 7  88818759.252 6
  21325211.906 6

  26686229.388 6 140237080.398 6

  26686237.467 6 107454415.210 6
  23890239.963 5 127796669.690 5


  20047834.258 8 107054311.571 8  83264509.357 8
  20047844.792 8

  23012615.156 6 122972446.731 6  95645312.901 6
  23012631.731 6

  24012651.448 6 126187343.154 6  98327842.941 4  24012659.566 4  24012650.818 4
  24012660.232 5

 24 11 23 18 10 30.0000000  0 29G02G03G04G31S31S35G09E29E30R06G26R10
                                G16G06E02E13R22E07E08E26E27S33R07R08
                                E33R23R09R11G07
  24988107.290 5 131313362.343 5 102322138.445 1  24988115.573 1  24988105.949 1


  20179657.420 8 106044812.114 8  82632349.558 8  20179664.166 8  20179657.197 8
  20179664.603 7  20179658.364 5  79189311.228 5

  21122765.794 7 111000884.327 7  86494222.320 5  21122771.731 5  21122765.329 5
  21122772.146 7

  22783440.120 7 119727773.941 7  93294396.303 6  22783446.893 6  22783439.615 6
  22783447.846 6

  37076593.701 7 194838841.192 7


  37126254.056 7 195099786.022 7


  22765542.810 7 119633738.855 7  93221134.691 6  22765551.660 6  22765542.256 6
  22765552.348 6

  25754736.364 7 135342060.484 7

  25754743.817 7 103703682.461 7
  24905373.273 7 130878621.071 7
                                                  24905373.336 5 106232642.761 5
  24905380.125 7 100283645.673 7
  22255592.366 5 118760098.573 5


  21836082.258 7 114749382.172 7  89415139.008 7  21836091.750 7  21836081.561 7
  21836091.635 7

  19585756.695 7 104403107.781 7


  21276400.817 7 111808245.218 7  87123332.601 5  21276406.236 5  21276399.829 5


  24833836.479 6 130502702.390 6 101690468.110 4  24833849.666 4  24833836.184 4
  24833850.650 5

  27083450.542 6 142324480.101 6

  27083461.785 6 109053860.842 6
  28138056.995 5 147866476.989 5

  28138074.842 5 113300348.982 5
  24756557.562 3


  23969189.579 8 125958939.961 8
                  23969193.188 5  94060259.258 5  23969188.574 6 102239394.478 6
  23969196.414 8  96514018.822 8
  26479532.819 5 139150880.011 5

  26479541.982 5 106622133.555 5
  26188974.924 6 137623981.910 6

  26188982.425 6 105452171.479 6
  25908493.656 6 136150062.943 6

  25908503.718 7 104322816.108 7
  37209112.583 7 195535185.757 7


  19928004.463 8 106676165.685 8  82970399.079 7
  19928015.316 7

  21310157.010 7 114114921.263 7  88756105.271 6
  21310168.889 6

  26687194.710 6 140242154.962 6

  26687203.077 6 107458303.490 6
  23904508.008 5 127872992.914 5


  20058992.379 8 107113896.159 8  83310852.846 8
  20059003.335 8

  22988627.110 6 122844268.418 6  95545619.216 5
  22988643.598 5

  23999092.935 6 126116092.842 6  98272323.401 4  23999100.569 4  23999092.372 4
  23999102.081 5

 24 11 23 18 11  0.0000000  0 29G02G03G04G31S31S35G09E29E30R06G26R10
                                G16G06E02E13R22E07E08E26E27S33R07R08
                                E33R23R09R11G07
  25002720.109 5 131390158.510 5 102381979.303 1  25002729.716 1  25002718.737 1


  20183684.895 8 106065977.554 8  82648842.065 8  20183691.873 8  20183684.676 8
  20183692.391 7  20183685.986 5  79205116.524 5

  21115688.565 7 110963692.446 7  86465241.652 5  21115694.503 5  21115688.100 5
  21115694.671 7

  22801041.230 7 119820266.870 7  93366468.554 6  22801047.798 6  22801040.721 6
  22801048.645 6

  37076596.044 7 194838857.702 7


  37126244.827 7 195099738.075 7


  22752123.454 6 119563222.194 6  93166186.673 6  22752132.343 6  22752122.887 6
  22752132.940 6

  25745862.524 7 135295426.576 7

  25745869.483 7 103667950.022 7
  24901431.799 7 130857908.878 7
                                                  24901431.814 5 106215830.882 5
  24901438.786 7 100267775.271 7
  22269257.515 5 118833018.943 5


  21844061.776 7 114791314.536 7  89447813.545 7  21844071.168 7  21844061.079 7
  21844071.485 7

  19576585.944 7 104354222.704 7


  21268306.134 7 111765705.994 7  87090185.158 5  21268311.146 5  21268305.142 5


  24829508.391 6 130479953.533 6 101672741.718 3  24829520.867 3  24829508.047 3
  24829521.462 5

  27093615.227 6 142377896.630 6

  27093627.188 6 109094790.242 6
  28154181.819 5 147951211.431 5

  28154199.882 5 113365275.104 5

  24774721.743 3

  23969218.403 8 125959092.200 8
                  23969221.896 5  94060372.896 5  23969217.662 6 102239518.019 6
  23969225.439 8  96514135.423 8
  26487942.072 5 139195070.013 5

  26487950.678 5 106655993.306 5
  26201419.204 6 137689376.502 6

  26201426.770 6 105502278.921 6
  25892691.390 6 136067022.184 6

  25892701.267 7 104259187.641 7
  37209116.227 7 195535199.121 7


  19927150.504 8 106671595.096 8  82966844.163 7
  19927161.881 7

  21295131.524 7 114034463.915 7  88693527.361 7
  21295144.048 7

  26688240.957 6 140247651.856 6

  26688248.984 6 107462515.364 6
  23918840.223 5 127949663.886 5


  20070271.033 8 107174122.473 8  83357695.456 8
  20070281.739 8

  22964680.302 6 122716301.768 6  95446090.185 6
  22964696.286 6

  23985574.330 6 126045054.532 6  98216969.049 4  23985582.067 4  23985573.794 4
  23985583.351 5

 24 11 23 18 11 30.0000000  0 29G02G03G04G31S31S35G09E29E30R06G26R10
                                G16G06E02E13R22E07E08E26E27S33R07R08
                                E33R23R09R11G07
  25017312.261 5 131466846.124 5 102441735.639 1  25017323.138 1  25017310.840 1


  20187822.654 8 106087720.375 8  82665784.476 8  20187829.416 8  20187822.431 8
  20187830.027 7  20187823.304 5  79221352.973 5

  21108637.740 7 110926641.467 7  86436370.786 5  21108644.020 5  21108637.280 5
  21108644.107 7

  22818661.533 7 119912862.995 7  93438621.217 6  22818668.410 6  22818661.019 6
  22818668.979 6

  37076600.699 7 194838874.102 7


  37126236.679 7 195099690.873 7


  22738712.731 6 119492748.485 6  93111272.119 6  22738721.097 6  22738712.173 6
  22738722.180 6

  25736988.821 7 135248796.099 7

  25736995.832 7 103632220.203 7
  24897568.838 7 130837608.360 7
                                                  24897568.957 5 106199353.207 5
  24897575.708 7 100252220.321 7
  22282985.428 5 118906279.995 5


  21852149.545 7 114833816.140 7  89480931.649 7  21852159.171 7  21852148.848 7
  21852159.069 7

  19567555.526 7 104306085.583 7


  21260323.802 7 111723757.978 7  87057498.386 5  21260328.723 5  21260322.805 5


  24825276.490 5 130457715.674 5 101655413.509 3  24825289.608 3  24825276.128 3
  24825290.062 5

  27103842.135 6 142431638.421 6

  27103853.771 6 109135968.873 6
  28170281.646 5 148035815.744 5

  28170299.967 5 113430101.491 5
  24792772.885 3


  23969262.485 8 125959322.151 8
                  23969266.214 5  94060544.548 5  23969261.890 6 102239704.611 6
  23969269.047 8  96514311.562 8
  26496364.161 5 139239325.797 5

  26496372.762 5 106689903.434 5
  26213903.955 6 137754984.058 6

  26213911.391 6 105552549.533 6
  25876917.434 6 135984128.744 6

  25876926.937 7 104195672.067 7
  37209117.528 7 195535213.790 7


  19926370.663 8 106667420.099 8  82963596.939 7
  19926381.879 7

  21280125.994 7 113954104.265 7  88631025.480 6
  21280137.087 6

  26689366.845 6 140253567.988 6

  26689375.277 6 107467048.483 6
  23933236.155 5 128026675.323 5


  20081668.552 8 107234984.965 8  83405032.847 8
  20081679.399 8

  22940770.583 6 122588547.835 6  95346726.651 6
  22940788.123 6

  23972095.697 6 125974225.701 6  98161777.932 4  23972103.309 4  23972095.139 4
  23972104.338 5

 24 11 23 18 12  0.0000000  0 28G02G03G04G31S31S35G09E29E30R06G26R10
                                G16G06E02E13E07E08E26E27S33R07R08E33
                                R23R09R11G07
  25031886.262 5 131543424.411 5 102501406.744 1  25031895.637 1  25031885.006 1


  20192070.319 8 106110042.093 8  82683177.974 8  20192077.122 8  20192070.091 8
  20192077.715 7  20192071.485 5  79238021.749 5

  21101614.326 7 110889733.838 7  86407611.622 5  21101620.644 5  21101613.870 5
  21101620.756 7

  22836301.857 7 120005561.861 7  93510853.922 6  22836308.814 6  22836301.357 6
  22836309.483 6

  37076604.973 7 194838893.145 7


  37126227.843 7 195099645.538 7


  22725310.592 7 119422320.021 7  93056392.824 6  22725319.269 6  22725310.042 6
  22725320.312 6

  25728116.102 7 135202170.742 7

  25728123.384 7 103596494.295 7
  24893784.532 7 130817721.816 7
                                                  24893784.748 5 106183211.523 5
  24893791.465 7 100236982.576 7
  22296779.959 5 118979883.188 5


  21860345.737 7 114876887.169 7  89514493.458 7  21860355.508 7  21860345.040 7
  21860355.343 7

  19558666.271 7 104258699.549 7


  21252454.672 7 111682405.105 7  87025275.354 5  21252459.629 5  21252453.671 5


  24821142.871 5 130435990.636 5 101638484.909 3  24821155.763 3  24821142.518 3
  24821155.382 5

  27114130.896 6 142485705.834 6

  27114142.735 6 109177397.018 6
  28186356.474 5 148120289.821 5

  28186374.982 5 113494828.098 5
  23969321.393 8 125959631.938 8
                  23969324.636 5  94060775.873 5  23969320.768 6 102239956.035 6
  23969328.027 8  96514548.885 8
  26504798.347 5 139283649.445 5

  26504807.983 5 106723865.602 5
  26226429.308 6 137820804.196 6

  26226436.492 6 105602983.015 6
  25861171.985 7 135901386.251 7

  25861181.228 7 104132272.185 7
  37209120.582 7 195535230.278 7


  19925664.631 8 106663644.267 8  82960660.173 7
  19925676.585 7

  21265138.736 7 113873846.135 7  88568602.554 7
  21265149.474 7

  26690572.933 6 140259904.542 6

  26690580.996 6 107471903.762 6
  23947697.493 5 128104025.054 5


  20093184.997 8 107296481.658 8  83452863.506 8
  20093195.994 8

  22916903.167 6 122461011.238 6  95247532.160 6
  22916920.584 6

  23958657.529 6 125903608.881 6  98106752.018 4  23958664.746 4  23958656.984 4
  23958667.257 5

 24 11 23 18 12 30.0000000  0 28G02G03G04G31S31S35G09E29E30R06G26R10
                                G16G06E02E13E07E08E26E27S33R07R08E33
                                R23R09R11G07
  25046436.689 5 131619885.654 5 102560986.577 1  25046446.042 1  25046435.581 1


  20196427.030 8 106132937.017 8  82701018.132 8  20196433.940 8  20196426.802 8
  20196434.653 7  20196427.983 5  79255118.571 5

  21094617.430 7 110852964.806 7  86378960.449 5  21094623.842 5  21094616.970 5
  21094623.750 7

  22853959.926 7 120098355.822 7  93583160.719 6  22853967.220 6  22853959.430 6
  22853967.885 6

  37076611.256 7 194838908.512 7


  37126218.511 7 195099597.027 7


  22711916.259 6 119351931.957 6  93001545.024 5  22711925.203 5  22711915.678 5
  22711925.266 6

  25719244.008 7 135155545.074 7

  25719251.004 7 103560768.147 7
  24890078.061 7 130798244.351 7
                                                  24890078.118 5 106167401.875 5
  24890085.059 7 100222058.281 7
  22310635.820 5 119053823.077 5


  21868649.031 7 114920520.614 7  89548493.502 7  21868658.439 7  21868648.334 7
  21868658.181 6

  19549916.474 7 104212060.155 7


  21244697.849 7 111641643.678 7  86993513.184 5  21244702.857 5  21244696.843 5


  24817103.823 5 130414773.098 5 101621951.776 3  24817117.512 3  24817103.475 3
  24817117.644 5

  27124480.388 6 142540091.944 6

  27124492.055 6 109219069.374 6
  28202405.707 5 148204626.401 5

  28202423.908 5 113559449.312 5
  23969394.745 8 125960016.470 8
                  23969397.912 5  94061062.944 5  23969393.958 6 102240268.108 6
  23969401.566 8  96514843.490 8
  26513245.232 5 139328035.926 5

  26513254.303 5 106757875.878 5
  26238993.259 6 137886829.256 6

  26239000.836 6 105653573.536 6
  25845454.256 7 135818791.104 7

  25845464.011 7 104068985.199 7
  37209121.651 7 195535243.488 7


  19925034.180 8 106660264.266 8  82958031.258 7
  19925045.012 7

  21250168.487 7 113793686.416 7  88506256.161 6
  21250179.715 6

  26691857.512 6 140266655.466 6

  26691865.589 6 107477076.522 6
  23962219.309 5 128181702.622 5


  20104818.569 8 107358604.040 8  83501180.803 8
  20104829.333 8

  22893075.214 6 122333690.089 6  95148505.222 6
  22893093.331 6

  23945258.891 6 125833198.801 6  98051887.191 4  23945266.267 4  23945258.341 4
  23945267.510 5

 24 11 23 18 13  0.0000000  0 29G02G03G04G31S31S35G09E29E30R06G26R10
                                G16G06E02E13R22E07E08E26E27S33R07R08
                                E33R23R09R11G07
  25060963.699 5 131696231.265 5 102620476.369 1  25060974.791 1  25060962.769 1


  20200893.644 8 106156408.787 8  82719307.779 8  20200900.537 8  20200893.421 8
  20200901.438 7  20200894.675 5  79272646.127 5

  21087648.068 7 110816338.966 7  86350420.852 5  21087653.772 5  21087647.608 5
  21087654.290 7

  22871636.760 7 120191246.865 7  93655543.146 6  22871643.964 6  22871636.273 6
  22871644.852 6

  37076614.838 7 194838924.846 7


  37126209.040 7 195099549.462 7


  22698529.844 6 119281588.726 6  92946732.152 5  22698538.873 5  22698529.259 5
  22698539.285 6

  25710371.951 7 135108922.982 7

  25710379.015 7 103525044.723 7
  24886450.359 7 130779180.464 7
                                                  24886450.421 5 106151927.958 5
  24886457.275 7 100207450.891 7
  22324555.800 5 119128103.196 5


  21877059.502 7 114964718.768 7  89582933.575 7  21877068.931 7  21877058.800 7
  21877069.211 6

  19541308.478 7 104166172.854 7


  21237054.832 7 111601479.671 7  86962216.531 5  21237059.826 5  21237053.826 5


  24813164.500 5 130394067.075 5 101605817.224 4  24813177.713 4  24813164.116 4
  24813178.668 5

  27134890.936 6 142594799.237 6

  27134902.706 6 109260987.853 6
  28218428.949 5 148288827.581 5

  28218447.302 5 113623966.806 5
  24847016.403 3
  24846994.262 4

  23969482.829 8 125960480.047 8
                  23969486.200 5  94061409.119 5  23969481.854 6 102240644.361 6
  23969489.652 8  96515198.652 8
  26521704.506 5 139372489.573 5

  26521713.621 5 106791937.605 5
  26251596.958 6 137953061.004 6

  26251604.366 6 105704322.439 6
  25829766.008 6 135736349.082 6

  25829775.505 7 104005815.574 7
  37209119.786 7 195535257.796 7


  19924477.689 8 106657285.717 8  82955714.595 7
  19924488.502 7

  21235218.797 7 113713631.280 7  88443991.095 6
  21235230.983 6

  26693221.831 6 140273824.068 6

  26693229.755 6 107482569.336 6
  23976803.452 5 128259707.859 5


  20116569.041 8 107421352.518 8  83549985.066 8
  20116580.424 8

  22869291.137 6 122206591.929 6  95049651.692 6
  22869307.898 6

  23931900.031 6 125762999.697 6  97997186.753 4  23931908.314 4  23931899.437 4
  23931909.771 5

 24 11 23 18 13 30.0000000  0 28G02G03G04G31S31S35G09E29E30R06G26R10
                                G16G06E02E13E07E08E26E27S33R07R08E33
                                R23R09R11G07
  25075470.153 5 131772456.975 5 102679872.659 1  25075480.355 1  25075469.210 1


  20205469.651 8 106180455.676 8  82738045.572 8  20205476.348 8  20205469.428 8
  20205477.259 7  20205470.842 5  79290603.154 5

  21080705.534 7 110779855.622 7  86321992.296 5  21080711.359 5  21080705.074 5
  21080711.380 7

  22889331.099 7 120284231.236 7  93727998.287 6  22889338.600 6  22889330.608 6
  22889339.051 6

  37076614.824 7 194838939.428 7


  37126200.155 7 195099501.331 7


  22685152.683 6 119211289.554 6  92891953.616 6  22685161.437 6  22685152.111 6
  22685161.716 6

  25701500.278 7 135062303.006 7

  25701507.577 7 103489322.937 7
  24882901.125 7 130760529.270 7
                                                  24882901.299 5 106136788.984 5
  24882907.884 7 100193159.712 7
  22338541.755 5 119202721.555 5


  21885577.135 7 115009478.622 7  89617811.331 7  21885586.495 7  21885576.433 7
  21885586.640 6

  19532841.168 7 104121037.612 7


  21229525.547 7 111561913.547 7  86931385.756 5  21229530.620 5  21229524.541 5


  24809320.636 5 130373871.248 5 101590080.208 4  24809334.644 4  24809320.185 4
  24809334.988 5

  27145362.082 6 142649824.794 6

  27145373.710 6 109303150.182 6
  28234426.055 5 148372890.129 5

  28234444.097 5 113688378.060 5
  23969585.848 8 125961021.613 8
                  23969589.430 5  94061813.452 5  23969585.032 6 102241083.909 6
  23969592.635 8  96515613.582 8
  26530176.330 5 139417009.285 5

  26530185.562 5 106826049.995 5
  26264239.170 6 138019495.835 6

  26264246.550 6 105755226.915 6
  25814106.949 7 135654060.567 7

  25814116.315 7 103942763.575 7
  37209126.199 7 195535270.219 7


  19923996.910 8 106654709.108 8  82953710.539 7
  19924007.280 7

  21220288.456 7 113633681.650 7  88381808.108 7
  21220299.987 7

  26694665.013 6 140281408.263 6

  26694672.897 6 107488380.574 6
  23991444.350 5 128338035.327 5


  20128436.775 8 107484722.452 8  83599272.687 8
  20128447.439 8

  22845547.853 6 122079718.081 6  94950972.647 6
  22845564.260 6

  23918581.427 6 125693009.957 6  97942649.457 4  23918589.868 4  23918580.757 4
  23918590.406 5

 24 11 23 18 14  0.0000000  0 29G02G03G04G31S31S35G09E29E30R06G26R10
                                G16G06E02E13R22E07E08E26E27S33R07R08
                                E33R23R09R11G07
  25089952.051 5 131848562.559 5 102739175.471 1  25089963.162 1  25089951.108 1


  20210155.388 8 106205079.529 8  82757232.951 8  20210162.095 8  20210155.165 8
  20210163.144 7  20210156.381 5  79308991.068 5

  21073790.470 7 110743517.695 7  86293677.054 6  21073796.344 6  21073790.014 6
  21073796.699 7

  22907043.470 7 120377309.084 7  93800526.268 6  22907050.898 6  22907042.979 6
  22907051.496 6

  37076615.804 7 194838955.837 7


  37126191.359 7 195099453.566 7


  22671783.948 6 119141037.151 6  92837211.534 6  22671793.128 6  22671783.390 6
  22671793.107 6

  25692629.836 7 135015687.361 7

  25692636.785 7 103453604.453 7
  24879430.907 7 130742293.437 7
                                                  24879431.030 5 106121987.187 5
  24879437.722 7 100179186.804 7
  22352587.099 5 119277680.168 5


  21894201.785 7 115054800.676 7  89653127.162 7  21894210.981 7  21894201.079 7
  21894211.344 6

  19524515.653 7 104076657.510 7


  21222111.328 7 111522949.434 7  86901024.074 5  21222116.151 5  21222110.313 5


  24805575.079 5 130354187.809 5 101574742.461 4  24805588.404 4  24805574.610 4
  24805589.357 5

  27155893.736 6 142705169.301 6

  27155905.495 6 109345556.967 6
  28250395.532 5 148456814.264 5

  28250414.619 5 113752683.213 5
  24882942.594 3
  24882960.788 3

  23969704.352 8 125961643.741 8
                  23969707.831 5  94062277.967 5  23969703.682 6 102241588.875 6
  23969711.211 8  96516090.242 8
  26538661.169 5 139461597.719 5

  26538670.589 5 106860214.994 5
  26276919.898 6 138086133.730 6

  26276927.435 6 105806287.004 6
  25798477.751 7 135571929.616 7

  25798486.896 7 103879832.312 7
  37209131.699 7 195535284.132 7


  19923590.595 8 106652538.766 8  82952022.466 7
  19923601.811 7

  21205379.584 7 113553841.868 7  88319710.558 7
  21205390.765 7

  26696187.765 6 140289409.572 6

  26696195.618 6 107494511.417 6
  24006146.713 5 128416682.230 5


  20140420.408 8 107548712.865 8  83649042.899 8
  20140431.117 8

  22821848.267 6 121953074.578 6  94852472.719 6
  22821864.416 6

  23905303.300 6 125623232.234 6  97888277.349 4  23905311.720 4  23905302.612 4
  23905312.348 5

 24 11 23 18 14 30.0000000  0 28G02G03G04G31S31S35G09E29E30R06G26R10
                                G16G06E02E13E07E08E26E27S33R07R08E33
                                R23R09R11G07
  25104410.869 5 131924542.005 5 102798380.019 1  25104422.064 1  25104409.752 1


  20214950.234 8 106230276.348 8  82776866.797 8  20214956.939 8  20214950.006 8
  20214957.925 7  20214951.497 5  79327806.834 5

  21066902.552 7 110707322.223 7  86265472.822 5  21066908.569 5  21066902.096 5
  21066908.841 7

  22924772.366 7 120470474.829 7  93873122.745 6  22924779.804 6  22924771.875 6
  22924780.607 6

  37076617.141 7 194838969.513 7


  37126182.488 7 195099404.459 7


  22658424.037 6 119070828.495 6  92782503.549 6  22658432.850 6  22658423.461 6
  22658433.046 6

  25683759.361 7 134969072.328 7

  25683766.113 7 103417886.451 7
  24876039.266 7 130724469.855 7
                                                  24876039.068 5 106107519.994 5
  24876046.089 7 100165529.785 7
  22366698.013 5 119352974.899 5


  21902932.325 7 115100679.616 7  89688876.926 7  21902941.618 7  21902931.623 7
  21902941.894 6

  19516331.411 7 104033030.433 7


  21214810.719 7 111484585.883 7  86871130.361 5  21214815.820 5  21214809.709 5


  24801927.485 6 130335013.137 6 101559801.178 4  24801939.770 4  24801927.034 4
  24801941.057 5

  27166485.139 6 142760827.623 6

  27166497.052 6 109388204.182 6
  28266339.057 5 148540594.583 5

  28266357.881 5 113816878.234 5
  23969837.445 8 125962343.167 8
                  23969841.089 5  94062800.289 5  23969836.673 6 102242156.557 6
  23969844.324 8  96516626.138 8
  26547158.586 5 139506251.526 5

  26547168.320 5 106894430.124 5
  26289638.304 6 138152968.844 6

  26289645.648 6 105857498.212 6
  25782878.071 7 135489954.403 7

  25782887.421 7 103817020.371 7
  37209134.221 7 195535295.897 7


  19923260.914 8 106650772.502 8  82950648.686 7
  19923272.425 7

  21190489.419 7 113474110.672 7  88257697.460 7
  21190501.364 7

  26697788.875 6 140297823.728 6

  26697796.609 6 107500958.611 6
  24020908.528 5 128495640.613 5


  20152518.508 8 107613316.164 8  83699289.793 8
  20152529.338 8

  22798192.434 6 121826661.005 6  94754151.606 6
  22798207.456 6

  23892065.005 6 125553663.210 6  97834067.864 5  23892073.535 5  23892064.299 5
  23892073.359 5

 24 11 23 18 15  0.0000000  0 28G02G03G04G31S31S35G09E29E30R06G26R10
                                G16G06E02E13E07E08E26E27S33R07R08E33
                                R23R09R11G07
  25118845.368 5 132000399.737 5 102857489.607 1  25118857.955 1  25118844.237 1


  20219855.544 8 106256052.701 8  82796952.227 8  20219862.064 8  20219855.321 8
  20219863.059 7  20219856.663 5  79347055.346 5

  21060043.477 7 110671276.908 7  86237385.585 6  21060049.641 6  21060043.026 6
  21060049.497 7

  22942519.099 7 120563733.268 7  93945791.448 6  22942526.596 6  22942518.617 6
  22942527.306 6

  37076623.951 7 194838987.348 7


  37126172.708 7 195099358.800 7


  22645073.728 7 119000671.134 7  92727835.533 6  22645082.347 6  22645073.152 6
  22645082.589 6

  25674890.174 7 134922464.938 7

  25674897.049 7 103382174.301 7
  24872727.477 7 130707065.993 7
                                                  24872726.919 5 106093393.477 5
  24872734.140 7 100152194.358 7
  22380872.273 5 119428612.503 5


  21911769.621 7 115147120.750 7  89725064.753 7  21911779.230 7  21911768.915 7
  21911779.365 6

  19508290.351 7 103990164.687 7


  21207626.353 7 111446831.250 7  86841711.137 5  21207631.305 5  21207625.347 5


  24798376.610 5 130316354.250 5 101545261.777 4  24798388.810 4  24798376.172 4
  24798389.287 5

  27177137.215 6 142816805.155 6

  27177149.272 6 109431096.022 6
  28282255.674 5 148624236.247 5

  28282274.574 5 113880967.039 5
  23969986.694 8 125963127.265 8
                  23969989.999 5  94063385.771 5  23969985.822 6 102242792.968 6
  23969993.406 8  96517226.919 8
  26555669.595 5 139550978.163 5

  26555679.300 5 106928701.015 5
  26302395.229 6 138220005.986 6

  26302402.514 6 105908864.204 6
  25767309.835 7 135408143.703 7

  25767319.243 7 103754334.508 7
  37209133.769 7 195535311.178 7


  19923008.585 8 106649419.354 8  82949596.214 7
  19923019.402 7

  21175622.564 7 113394497.330 7  88195776.020 7
  21175634.442 7

  26699469.703 6 140306656.946 6

  26699477.689 6 107507726.893 6
  24035723.718 5 128574913.483 5


  20164732.321 8 107678536.496 8  83750016.613 8
  20164743.044 8

  22774579.199 6 121700487.761 6  94656017.363 6
  22774596.701 6

  23878866.968 6 125484310.024 6  97780026.561 5  23878875.810 5  23878866.284 5
  23878875.690 5

 24 11 23 18 15 30.0000000  0 28G02G03G04G31S31S35G09E29E30R06G26R10
                                G16G06E02E13E07E08E26E27S33R07R08E33
                                R23R09R11G07
  25133256.804 5 132076125.443 5 102916496.452 1  25133268.376 1  25133255.557 1


  20224869.276 8 106282400.296 8  82817482.778 8  20224876.027 8  20224869.048 8
  20224876.716 7  20224870.228 5  79366730.472 5

  21053211.492 7 110635374.540 7  86209409.726 6  21053217.539 6  21053211.041 6
  21053217.619 7

  22960281.210 7 120657074.190 7  94018524.421 6  22960288.950 6  22960280.732 6
  22960289.337 6

  37076619.609 7 194839001.223 7


  37126165.666 7 195099309.994 7


  22631731.270 7 118930557.770 7  92673201.786 6  22631740.161 6  22631730.689 6
  22631740.899 6

  25666021.071 7 134875857.273 7

  25666027.991 7 103346461.947 7
  24869493.997 7 130690074.399 7
                                                  24869493.901 5 106079601.617 5
  24869500.878 7 100139174.835 7
  22395109.001 5 119504584.585 5


  21920712.607 7 115194114.435 7  89761683.132 7  21920721.850 7  21920711.905 7
  21920722.069 6

  19500389.796 7 103948053.049 7


  21200556.712 7 111409679.808 7  86812761.941 5  21200561.772 5  21200555.702 5


  24794922.111 5 130298203.140 5 101531118.043 4  24794934.612 4  24794921.669 4
  24794935.306 5

  27187848.430 6 142873092.603 6

  27187860.392 6 109474225.286 6
  28298144.689 5 148707729.573 5

  28298163.020 5 113944942.147 5
  23970150.531 8 125963988.503 8
                  23970154.157 5  94064028.895 5  23970149.712 6 102243492.008 6
  23970157.372 8  96517886.803 8
  26564193.530 5 139595769.994 5

  26564202.935 5 106963021.883 5
  26315188.706 6 138287235.021 6

  26315195.891 6 105960377.229 6
  25751771.848 7 135326491.469 7

  25751781.088 7 103691770.048 7
  37209141.782 7 195535322.728 7


  19922831.247 8 106648473.064 8  82948860.174 7
  19922843.069 7

  21160775.854 7 113314996.256 7  88133941.901 7
  21160788.318 7

  26701228.696 6 140315900.682 6

  26701236.630 6 107514809.705 6
  24050599.028 5 128654487.825 5


  20177059.080 8 107744361.902 8  83801214.055 7
  20177070.042 7

  22751011.371 6 121574550.025 6  94558066.321 6
  22751027.017 6

  23865708.850 6 125415164.713 6  97726147.251 5  23865717.542 5  23865708.162 5
  23865716.951 5

 24 11 23 18 16  0.0000000  0 28G02G03G04G31S31S35G09E29E30R06G26R10
                                G16G06E02E13E07E08E26E27S33R07R08E33
                                R23R09R11G07
  25147641.890 4 132151725.538 4 102975405.322 1  25147655.200 1  25147640.567 1


  20229993.404 8 106309327.426 8  82838464.914 8  20230000.135 8  20229993.176 8
  20230000.760 7  20229994.366 5  79386838.313 5

  21046408.438 7 110599624.631 7  86181552.663 6  21046414.658 6  21046407.987 6
  21046414.455 7

  22978061.004 7 120750504.565 7  94091327.094 6  22978068.264 6  22978060.535 6
  22978068.931 6

  37076629.397 7 194839020.432 7


  37126154.589 7 195099266.085 7


  22618398.980 7 118860497.740 7  92618609.611 6  22618408.542 6  22618398.386 6
  22618408.581 6

  25657153.477 7 134829258.020 7

  25657160.330 7 103310756.045 7
  24866340.836 7 130673504.253 7
                                                  24866340.607 5 106066151.827 5
  24866347.766 7 100126478.229 7
  22409412.607 5 119580899.552 5


  21929761.526 7 115241667.669 7  89798737.515 7  21929771.108 7  21929760.829 7
  21929771.373 6

  19492632.905 7 103906705.536 7


  21193603.735 7 111373142.068 7  86784290.961 5  21193608.788 5  21193602.725 5


  24791566.329 5 130280568.519 5 101517376.764 4  24791578.784 4  24791565.932 4
  24791579.376 5

  27198619.818 6 142929697.047 6

  27198631.863 6 109517597.488 6
  28314006.216 5 148791081.385 5

  28314024.859 5 114008808.794 5
  23970330.955 8 125964935.986 8
                  23970334.452 5  94064736.399 5  23970329.795 6 102244261.057 6
  23970337.584 8  96518612.771 8
  26572731.975 5 139640636.161 5

  26572740.751 5 106997399.708 5
  26328019.627 6 138354662.503 6

  26328027.232 6 106012042.299 6
  25736266.004 7 135245008.205 7

  25736274.697 7 103629335.065 7
  37209139.471 7 195535339.616 7


  19922732.861 8 106647944.913 8  82948449.359 7
  19922744.202 7

  21145952.743 7 113235618.667 7  88072203.828 7
  21145964.942 7

  26703067.819 6 140325562.889 6

  26703075.333 6 107522213.178 6
  24065532.946 5 128734368.362 5


  20189500.640 8 107810798.209 8  83852886.661 8
  20189511.890 8

  22727489.182 6 121448860.340 6  94460308.140 6
  22727506.344 6

  23852592.770 6 125346236.413 6  97672437.012 5  23852600.962 5  23852592.082 5
  23852600.856 5

 24 11 23 18 16 30.0000000  0 28G02G03G04G31S31S35G09E29E30R06G26R10
                                G16G06E02E13E07E08E26E27S33R07R08E33
                                R23R09R11G07
  25162002.855 5 132227188.094 5 103034206.954 1  25162015.968 1  25162001.563 1


  20235225.824 8 106336824.397 8  82859891.080 8  20235232.596 8  20235225.601 8
  20235233.446 7  20235227.136 5  79407371.710 5

  21039632.964 7 110564018.665 7  86153807.755 6  21039638.907 6  21039632.508 6
  21039639.096 7

  22995855.033 7 120844013.381 7  94164190.886 6  22995862.648 6  22995854.568 6
  22995863.117 6

  37076633.239 7 194839035.124 7


  37126145.914 7 195099217.915 7


  22605075.566 6 118790482.451 6  92564052.296 6  22605084.940 6  22605074.990 6
  22605085.275 6

  25648285.819 7 134782657.979 7

  25648292.650 7 103275049.533 7
  24863266.241 7 130657346.808 7
                                                  24863266.169 5 106053036.994 5
  24863273.116 7 100114097.843 7
  22423773.374 5 119657547.937 5


  21938914.833 7 115289769.478 7  89836219.354 7  21938924.734 7  21938914.136 7
  21938925.154 6

  19485018.175 7 103866113.640 7


  21186766.266 7 111337210.463 7  86756292.307 5  21186771.369 5  21186765.260 5


  24788308.335 5 130263441.037 5 101504030.663 4  24788318.886 4  24788307.996 4
  24788320.398 5

  27209450.024 6 142986607.835 6
                                                  27209455.350 4 116060595.55914
  27209461.876 6 109561204.377 6
  28329838.800 5 148874280.709 5

  28329857.358 5 114072558.623 5
  23970525.959 8 125965960.898 8
                  23970529.588 5  94065501.701 5  23970525.060 6 102245092.958 6
  23970532.589 8  96519398.074 8
  26581281.608 5 139685567.847 5

  26581291.190 5 107031827.721 5
  26340886.376 6 138422276.946 6

  26340893.985 6 106063850.635 6
  25720790.914 7 135163686.561 7

  25720799.751 7 103567023.896 7
  37209141.179 7 195535351.943 7


  19922710.612 8 106647826.424 8  82948357.165 7
  19922722.090 7

  21131151.684 7 113156357.454 7  88010556.281 7
  21131163.002 7

  26704983.833 6 140335633.626 6

  26704992.035 6 107529929.687 6
  24080519.912 5 128814541.189 5


  20202054.349 8 107877832.536 8  83905024.376 8
  20202065.223 8

  22704013.264 6 121323412.234 6  94362737.853 6
  22704030.198 6

  23839515.520 6 125277516.361 6  97618889.069 5  23839524.145 5  23839514.859 5
  23839524.700 5

 24 11 23 18 17  0.0000000  0 28G02G03G04G31S31S35G09E29E30R06G26R10
                                G16G06E02E13E07E08E26E27S33R07R08E33
                                R23R09R11G07
  25176337.899 5 132302517.492 5 103092904.869 1  25176351.431 1  25176336.750 1


  20240567.925 8 106364897.520 8  82881766.201 8  20240574.816 8  20240567.697 8
  20240575.576 7  20240569.483 5  79428335.346 5

  21032886.088 7 110528564.206 7  86126180.903 6  21032892.132 6  21032885.637 6
  21032892.295 7

  23013665.408 7 120937604.918 7  94237119.147 6  23013672.843 6  23013664.943 6
  23013673.486 6

  37076634.678 7 194839051.534 7


  37126139.659 7 195099172.136 7


  22591761.794 7 118720519.286 7  92509535.603 6  22591771.108 6  22591761.218 6
  22591771.358 6

  25639419.162 7 134736063.983 7

  25639425.918 7 103239347.645 7
  24860271.418 7 130641609.241 7
                                                  24860271.418 5 106040263.000 5
  24860278.341 7 100102039.175 7
  22438200.585 5 119734535.606 5


  21948173.890 7 115338424.873 7  89874132.563 7  21948183.493 7  21948173.197 7
  21948183.778 6

  19477546.725 7 103826285.693 7


  21180045.637 7 111301893.556 7  86728772.659 5  21180050.816 5  21180044.627 5


  24785145.448 5 130246827.493 5 101491085.049 4  24785158.066 4  24785145.113 4
  24785159.625 5

  27220339.041 6 143043830.149 6
                                                  27220344.084 4 116107042.190 4
  27220350.950 6 109605049.982 6
  28345643.227 5 148957332.546 5

  28345661.911 5 114136195.455 5
  23970737.126 8 125967070.454 8
                  23970740.537 5  94066330.252 5  23970736.277 6 102245993.557 6
  23970743.860 8  96520248.241 8
  26589846.150 5 139730572.206 5

  26589855.860 5 107066311.403 5
  26353789.423 6 138490082.967 6

  26353797.199 6 106115805.750 6
  25705347.913 7 135082535.139 7

  25705357.050 7 103504843.157 7
  37209146.035 7 195535366.084 7


  19922766.915 8 106648127.060 8  82948590.947 7
  19922778.036 7

  21116373.160 7 113077221.796 7  87949006.378 7
  21116385.166 7

  26706979.074 6 140346118.979 6

  26706987.490 6 107537963.884 6
  24095561.736 5 128895009.000 5


  20214720.103 8 107945468.141 8  83957629.781 8
  20214731.469 8

  22680584.264 6 121198216.036 6  94265363.438 6
  22680600.746 6

  23826479.217 6 125209010.995 6  97565508.417 5  23826488.292 5  23826478.596 5
  23826488.567 5

 24 11 23 18 17 30.0000000  0 28G02G03G04G31S31S35G09E29E30R06G26R10
                                G16G06E02E13E07E08E26E27S33R07R08E33
                                R23R09R11G07
  25190647.272 5 132377706.892 5 103151493.595 1  25190659.831 1  25190646.096 1


  20246018.938 8 106393541.949 8  82904086.492 8  20246025.854 8  20246018.710 8
  20246026.390 7  20246019.773 5  79449725.634 5

  21026167.657 7 110493257.688 7  86098669.327 6  21026173.358 6  21026167.210 6
  21026173.731 7

  23031489.744 7 121031272.635 7  94310106.777 5  23031497.357 5  23031489.284 5
  23031497.430 6

  37076640.259 7 194839066.777 7


  37126128.886 7 195099124.796 7


  22578458.093 7 118650604.585 7  92455056.675 6  22578466.547 6  22578457.508 6
  22578466.995 6

  25630552.675 7 134689471.699 7

  25630559.650 7 103203647.085 7
  24857355.944 7 130626287.684 7
                                                  24857355.867 5 106027826.651 5
  24857362.597 7 100090299.262 7
  22452691.741 5 119811858.092 5


  21957536.998 7 115387627.746 7  89912472.377 7  21957546.739 7  21957536.310 7
  21957546.951 7

  19470217.145 7 103787217.663 7


  21173441.396 7 111267189.031 7  86701730.195 5  21173446.699 5  21173440.381 5


  24782081.424 5 130230723.394 5 101478536.398 4  24782094.495 4  24782081.125 4
  24782094.780 5

  27231286.508 6 143101358.164 6
                                                  27231291.966 4 116153736.931 4
  27231298.092 6 109649129.807 6
  28361418.648 5 149040230.730 5

  28361436.736 5 114199714.550 5
  23970963.522 8 125968260.729 8
                  23970966.956 5  94067219.103 5  23970962.858 6 102246959.705 6
  23970970.436 8  96521160.269 8
  26598423.478 5 139775645.318 5

  26598432.547 5 107100847.817 5
  26366727.561 6 138558074.004 6

  26366735.549 6 106167902.640 6
  25689937.133 7 135001551.416 7

  25689946.048 7 103442790.904 7
  37209145.293 7 195535378.676 7


  19922900.681 8 106648843.848 8  82949148.409 7
  19922912.013 7

  21101618.589 7 112998210.014 7  87887552.831 7
  21101629.808 7

  26709052.283 6 140357013.807 6

  26709060.928 6 107546311.813 6
  24110659.265 5 128975762.902 5


  20227497.079 8 108013697.248 8  84010696.805 8
  20227508.652 8

  22657203.192 6 121073270.829 6  94168184.273 6
  22657218.250 6

  23813483.143 6 125140716.284 6  97512291.909 5  23813492.429 5  23813482.571 5
  23813491.859 5

 24 11 23 18 18  0.0000000  0 28G02G03G04G31S31S35G09E29E30R06G26R10
                                G16G06E02E13E07E08E26E27S33R07R08E33
                                R23R09R11G07
  25204928.668 5 132452757.517 5 103209974.513 1  25204942.319 1  25204927.309 1


  20251579.142 8 106422761.253 8  82926854.737 8  20251586.084 8  20251578.914 8
  20251586.617 7  20251580.450 5  79471545.207 5

  21019478.081 7 110458103.908 7  86071276.768 6  21019483.828 6  21019477.634 6
  21019483.903 7

  23049329.101 7 121125019.113 7  94383155.781 5  23049336.953 5  23049328.636 5
  23049337.352 6

  37076637.227 7 194839083.440 7


  37126120.614 7 195099079.078 7


  22565163.226 7 118580743.039 7  92400619.160 6  22565172.663 6  22565162.659 6
  22565172.706 6

  25621687.700 7 134642885.218 7

  25621694.668 7 103167950.980 7
  24854520.198 8 130611386.597 8
                                                  24854520.289 5 106015731.586 5
  24854527.223 7 100078881.519 7
  22467246.501 5 119889518.996 5


  21967004.667 7 115437380.326 7  89951240.544 7  21967014.506 7  21967003.979 7
  21967014.577 6

  19463032.012 7 103748915.121 7


  21166954.949 8 111233102.569 8  86675169.352 5  21166959.953 5  21166953.939 5


  24779113.751 5 130215132.634 5 101466387.762 4  24779127.122 4  24779113.452 4
  24779127.918 5

  27242291.885 6 143159194.365 6
                                                  27242297.814 4 116200681.802 4
  27242304.266 6 109693445.757 6
  28377164.735 6 149122977.533 6

  28377183.239 5 114263117.636 5
  23971206.297 8 125969536.190 8
                  23971209.780 5  94068171.559 5  23971205.419 6 102247994.958 6
  23971213.033 8  96522137.566 8
  26607014.752 5 139820791.600 5

  26607023.703 5 107135440.263 5
  26379701.469 6 138626251.932 6

  26379709.908 6 106220142.711 6
  25674559.273 7 134920741.257 7

  25674568.199 7 103380871.639 7
  37209152.809 7 195535392.695 7


  19923113.318 8 106649982.755 8  82950034.192 7
  19923124.683 7

  21086887.986 7 112919328.320 7  87826200.462 7
  21086899.195 7

  26711203.822 6 140368321.403 6

  26711212.793 6 107554976.036 6
  24125811.158 5 129056802.334 5


  20240385.315 8 108082520.534 8  84064225.970 7
  20240396.466 7

  22633869.551 6 120948584.154 6  94071206.114 6
  22633884.298 6

  23800527.813 7 125072636.513 7  97459242.879 5  23800537.427 5  23800527.250 5
  23800537.245 5

 24 11 23 18 18 30.0000000  0 28G02G03G04G31S31S35G09E29E30R06G26R10
                                G16G06E02E13E07E08E26E27S33R07R08E33
                                R23R09R11G07
  25219183.687 5 132527664.064 5 103268342.781 1  25219196.989 1  25219182.471 1


  20257248.027 8 106452551.256 8  82950067.682 8  20257254.921 8  20257247.799 8
  20257255.515 7  20257249.351 5  79493790.929 5

  21012817.114 7 110423100.095 7  86044001.069 6  21012822.779 6  21012816.672 6
  21012823.117 7

  23067182.637 7 121218838.672 7  94456261.739 5  23067190.130 5  23067182.172 5
  23067191.237 6

  37076642.969 8 194839098.657 8


  37126111.720 7 195099031.989 7


  22551878.715 7 118510931.747 7  92346220.802 6  22551887.982 6  22551878.143 6
  22551888.212 6

  25612823.077 7 134596300.977 7

  25612829.984 7 103132256.585 7
  24851764.165 7 130596902.793 7
                                                  24851763.859 5 106003975.242 5
  24851770.981 7 100067783.511 7
  22481862.376 5 119967514.131 5


  21976576.173 7 115487677.222 7  89990432.855 7  21976585.518 7  21976575.489 7
  21976585.468 6

  19455989.488 7 103711374.941 7


  21160585.737 8 111199632.079 8  86649088.494 5  21160590.605 5  21160584.722 5


  24776243.759 5 130200051.475 5 101454636.226 4  24776257.172 4  24776243.402 4
  24776258.537 5

  27253356.058 6 143217333.623 6
                                                  27253361.312 4 116247872.693 4
  27253367.808 6 109737993.906 6
  28392881.474 5 149205567.636 5

  28392899.938 5 114326400.642 5
  23971464.682 8 125970893.662 8
                  23971468.076 5  94069185.237 5  23971464.156 6 102249096.806 6
  23971471.407 8  96523177.700 8
  26615619.546 5 139866007.827 5

  26615628.284 5 107170086.323 5
  26392710.176 6 138694610.932 6

  26392718.343 6 106272521.547 6
  25659214.341 7 134840102.945 7

  25659222.932 7 103319084.024 7
  37209155.009 7 195535405.134 7


  19923404.518 8 106651542.356 8  82951247.172 7
  19923416.294 7

  21072181.667 7 112840575.416 7  87764948.278 7
  21072192.638 7

  26713433.373 6 140380037.384 6

  26713442.684 6 107563953.171 6
  24141013.344 5 129138119.339 5


  20253384.034 8 108151930.581 8  84118211.527 7
  20253395.064 7

  22610584.150 6 120824155.525 6  93974428.687 6
  22610598.812 6

  23787612.713 7 125004768.235 7  97406358.632 5  23787622.304 5  23787612.123 5
  23787621.847 6

 24 11 23 18 19  0.0000000  0 28G02G03G04G31S31S35G09E29E30R06G26R10
                                G16G06E02E13E07E08E26E27S33R07R08E33
                                R23R09R11G07
  25233410.734 4 132602426.603 4


  20263025.874 8 106482913.907 8  82973726.844 8  20263032.951 8  20263025.646 8
  20263033.280 7  20263027.229 5  79516464.286 5

  21006185.286 7 110388249.525 7  86016844.767 6  21006191.023 6  21006184.844 6
  21006191.220 7

  23085050.016 6 121312731.769 6  94529424.996 5  23085057.826 5  23085049.543 5
  23085057.942 6

  37076646.166 7 194839114.161 7


  37126100.760 7 195098985.382 7


  22538604.562 7 118441173.843 7  92291864.040 6  22538613.068 6  22538603.981 6
  22538614.077 6

  25603959.242 7 134549721.520 7

  25603966.231 7 103096565.865 7
  24849087.882 7 130582839.160 7
                                                  24849087.678 5 105992559.914 5
  24849094.746 7 100057007.450 7
  22496541.768 5 120045845.734 5


  21986250.871 7 115538519.063 7  90030049.806 7  21986260.227 7  21986250.183 7
  21986260.403 6

  19449090.488 7 103674600.462 7


  21154334.443 7 111166781.757 7  86623490.891 5  21154339.550 5  21154333.428 5


  24773471.451 5 130185482.295 5 101443283.634 4  24773484.757 4  24773471.040 4
  24773485.780 5

  27264477.620 6 143275776.869 6
                                                  27264483.023 4 116295310.291 4
  27264489.531 6 109782774.927 6
  28408568.558 5 149288001.665 5

  28408586.984 5 114389564.128 5
  23971739.228 8 125972336.068 8
                  23971742.629 5  94070262.386 5  23971738.440 6 102250267.584 6
  23971745.946 8  96524282.925 8
  26624237.496 5 139911296.952 5

  26624247.225 5 107204788.207 5
  26405752.896 6 138763151.275 6

  26405761.311 6 106325039.343 6
  25643902.896 7 134759640.766 7

  25643911.444 7 103257431.361 7
  37209158.278 7 195535417.695 7


  19923775.451 7 106653526.551 7  82952790.378 7
  19923786.928 7

  21057499.819 7 112761956.584 7  87703800.371 6
  21057510.893 6

  26715741.052 6 140392163.469 6

  26715750.392 6 107573244.536 6
  24156266.197 5 129219712.082 5


  20266492.116 8 108221926.381 8  84172652.673 7
  20266502.998 7

  22587346.907 6 120699990.825 6  93877856.499 6
  22587361.822 6

  23774738.406 6 124937114.227 6  97353641.373 5  23774747.827 5  23774737.798 5
  23774747.273 6

 24 11 23 18 19 30.0000000  0 28G02G03G04G31S31S35G09E29E30R06G26R10
                                G16G06E02E13E07E08E26E27S33R07R08E33
                                R23R09R11G07
  25247608.503 5 132677039.979 5


  20268912.209 8 106513846.219 8  82997829.895 8  20268919.033 8  20268911.981 8
  20268919.560 7  20268913.636 5  79539563.022 5

  20999582.329 7 110353550.605 7  85989806.637 6  20999588.015 6  20999581.887 6
  20999588.396 7

  23102930.208 7 121406693.779 7  94602641.949 5  23102938.409 5  23102929.735 5
  23102938.842 6

  37076654.600 7 194839127.792 7


  37126093.176 7 195098936.841 7


  22525339.974 7 118371467.654 7  92237547.576 6  22525348.402 6  22525339.429 6
  22525348.584 6

  25595095.923 7 134503144.515 7

  25595102.952 7 103060877.012 7
  24846491.293 7 130569193.678 7
                                                  24846491.306 5 105981484.019 5
  24846498.153 7 100046551.804 7
  22511283.252 4 120124510.748 4


  21996028.593 7 115589901.591 7  90070088.072 7  21996038.190 7  21996027.905 7
  21996038.862 6

  19442335.566 7 103638590.579 7


  21148201.301 7 111134551.012 7  86598376.083 5  21148206.210 5  21148200.282 5


  24770796.405 5 130171422.440 5 101432327.904 4  24770809.757 4  24770795.914 4
  24770810.609 5

  27275655.824 6 143334520.117 6
                                                  27275661.382 4 116342991.378 4
  27275668.150 6 109827785.834 6
  28424224.847 5 149370275.589 5

  28424243.515 5 114452604.807 5
  23972029.506 8 125973861.479 8
                  23972033.062 5  94071401.488 5  23972028.630 6 102251505.750 6
  23972036.137 8  96525451.752 8
  26632868.762 5 139956656.980 5

  26632879.290 5 107239544.419 5
  26418829.415 6 138831868.406 6

  26418837.821 6 106377692.578 6
  25628624.686 7 134679354.155 7

  25628633.255 7 103195913.209 7
  37209151.911 7 195535428.684 7


  19924225.385 8 106655934.585 8  82954663.264 7
  19924236.930 7

  21042843.326 7 112683471.587 7  87642756.564 7
  21042854.542 7

  26718126.287 6 140404696.501 6

  26718135.442 6 107582847.701 6
  24171569.547 5 129301573.557 5


  20279708.755 8 108292502.006 8  84227544.800 7
  20279719.616 7

  22564161.097 6 120576090.958 6  93781490.262 6
  22564176.039 6

  23761905.464 6 124869672.023 6  97301089.126 5  23761913.488 5  23761904.897 5
  23761913.252 5

 24 11 23 18 20  0.0000000  0 28G02G03G04G31S31S35G09E29E30R06G26R10
                                G16G06E02E13E07E08E26E27S33R07R08E33
                                R23R09R11G07
  25261786.569 5


  20274907.564 8 106545352.184 8  83022379.952 8  20274914.289 8  20274907.336 8
  20274915.014 7  20274908.828 5  79563090.148 5

  20993009.075 7 110319008.755 7  85962890.899 6  20993015.168 6  20993008.633 6
  20993015.164 7

  23120824.547 7 121500727.558 7  94675914.847 5  23120832.675 5  23120824.082 5
  23120832.785 6

  37076655.029 7 194839144.522 7


  37126082.185 7 195098891.848 7


  22512085.625 7 118301818.448 7  92183275.524 6  22512094.450 6  22512085.053 6
  22512094.756 6

  25586233.999 7 134456574.614 7

  25586241.128 7 103025193.609 7
  24843975.016 7 130555971.309 7
                                                  24843974.939 5 105970751.593 5
  24843982.096 7 100036420.377 7
  22526091.130 4 120203513.290 4


  22005909.880 7 115641827.556 7  90110549.801 6  22005919.581 6  22005909.192 6
  22005919.817 6

  19435724.069 7 103603349.968 7


  21142186.807 7 111102945.952 7  86573748.825 5  21142191.833 5  21142185.797 5


  24768217.755 5 130157876.315 5 101421772.478 4  24768232.126 4  24768217.152 4
  24768232.610 5

  27286892.524 6 143393566.515 6
                                                  27286898.284 4 116390918.463 4
  27286904.369 6 109873028.984 6
  28439851.452 5 149452392.177 5

  28439869.964 5 114515525.054 5
  23972336.396 8 125975474.892 8
                  23972339.681 5  94072606.323 5  23972335.719 6 102252815.349 6
  23972343.097 8  96526688.012 8
  26641515.319 5 140002092.822 5

  26641525.883 5 107274358.707 5
  26431940.191 6 138900764.648 6

  26431948.444 6 106430483.074 6
  25613381.038 7 134599249.504 7

  25613389.545 7 103134534.461 7
  37209158.837 7 195535442.346 7


  19924755.634 8 106658773.227 8  82956871.043 7
  19924767.297 7

  21028212.220 7 112605127.634 7  87581822.417 7
  21028224.121 7

  26720589.229 6 140417640.238 6

  26720598.309 6 107592765.560 6
  24186918.930 5 129383703.842 5


  20293033.662 8 108363658.557 8  84282888.762 7
  20293045.498 7

  22541025.770 6 120452463.985 6  93685336.293 6
  22541040.352 6

  23749112.311 6 124802446.577 6  97248705.730 5  23749120.382 5  23749111.761 5
  23749120.415 5

 24 11 23 18 20 30.0000000  0 27G03G04G31S31S35G09E29E30R06G26R10G16
                                G06E02E13E07E08E26E27S33R07R08E33R23
                                R09R11G07
  20281012.102 8 106577431.388 8  83047376.686 8  20281019.011 8  20281011.874 8
  20281019.605 7  20281013.514 5  79587045.353 5

  20986466.166 7 110284625.001 7  85936098.351 6  20986472.240 6  20986465.728 6
  20986472.428 7

  23138732.020 7 121594831.550 7  94749242.449 5  23138740.468 5  23138731.555 5
  23138740.391 6

  37076656.245 7 194839163.796 7


  37126077.096 7 195098849.409 7


  22498842.910 7 118232227.166 7  92129048.596 6  22498851.570 6  22498842.329 6
  22498851.774 6

  25577373.513 7 134410012.102 7

  25577380.465 7 102989515.873 7
  24841539.662 7 130543172.687 7
                                                  24841539.800 5 105960363.080 5
  24841546.687 7 100026613.640 7
  22540960.661 4 120282853.177 4


  22015894.481 7 115694295.247 7  90151433.673 6  22015903.856 6  22015893.793 6
  22015903.999 6

  19429257.616 7 103568880.250 7


  21136292.091 7 111071968.335 7  86549610.478 5  21136296.821 5  21136291.081 5


  24765738.892 5 130144843.805 5 101411617.274 4  24765751.967 4  24765738.253 4
  24765753.234 5

  27298186.022 6 143452914.720 6
                                                  27298191.083 4 116439090.569 4
  27298198.104 6 109918503.419 6
  28455447.488 5 149534349.959 5

  28455466.450 5 114578323.559 5
  23972660.187 8 125977177.018 8
                  23972663.741 5  94073877.386 5  23972659.452 6 102254196.959 6
  23972666.957 8  96527992.251 8
  26650175.976 5 140047605.146 5

  26650186.450 5 107309231.658 5
  26445084.375 6 138969838.037 6

  26445092.968 6 106483409.310 6
  25598172.611 7 134519328.890 7

  25598181.138 7 103073296.718 7
  37209161.882 7 195535458.972 7


  19925367.344 8 106662044.527 8  82959415.339 7
  19925378.282 7

  21013610.505 7 112526927.438 7  87521000.117 7
  21013620.670 7

  26723131.032 6 140430994.094 6

  26723139.400 6 107602997.669 6
  24202326.302 5 129466099.071 5


  20306467.208 8 108435392.303 8  84338681.653 7
  20306478.652 7

  22517942.804 6 120329113.199 6  93589397.071 6
  22517957.647 6

  23736360.706 6 124735437.913 6  97196491.285 5  23736368.785 5  23736360.170 5
  23736369.612 5

 24 11 23 18 21  0.0000000  0 28G02G03G04G31S31S35G09E29E30R06G26R10
                                G16G06E02E13E07E08E26E27S33R07R08E33
                                R23R09R11G07
  25290042.850 4


  20287223.819 8 106610074.189 8  83072812.585 8  20287230.770 8  20287223.587 8
  20287231.452 7  20287225.107 5  79611421.443 5

  20979951.624 7 110250391.207 7  85909422.652 6  20979957.851 6  20979951.177 6
  20979957.855 7

  23156651.036 7 121688994.733 7  94822616.194 5  23156658.926 5  23156650.567 5
  23156659.358 6

  37076661.226 7 194839176.585 7


  37126066.847 7 195098800.903 7


  22485609.486 7 118162685.554 7  92074860.366 6  22485618.152 6  22485608.887 6
  22485618.305 6

  25568512.842 7 134363448.087 7

  25568519.658 7 102953836.971 7
  24839183.022 7 130530789.130 7
                                                  24839183.098 5 105950311.540 5
  24839190.135 7 100017124.964 7
  22555885.517 4 120362520.522 4


  22025979.502 7 115747293.800 7  90192731.207 6  22025989.127 6  22025978.809 6
  22025989.516 6

  19422934.382 7 103535172.344 7


  21130515.070 7 111041610.722 7  86525955.256 5  21130519.901 5  21130514.055 5


  24763354.556 6 130132315.809 6 101401855.211 4  24763368.459 4  24763353.930 4
  24763368.391 5

  27309535.030 6 143512554.154 6
                                                  27309540.692 4 116487499.060 4
  27309547.300 6 109964200.988 6
  28471011.393 5 149616138.170 5

  28471030.341 5 114640992.140 5
  23972999.551 8 125978959.335 8
                  23973002.999 5  94075208.348 5  23972998.706 6 102255643.643 6
  23973006.237 8  96529357.929 8
  26658850.211 5 140093185.397 5

  26658859.695 4 107344156.628 4
  26458260.448 6 139039077.412 6

  26458269.053 6 106536462.700 6
  25582997.788 7 134439585.129 7

  25583006.094 7 103012194.477 7
  37209164.136 7 195535469.342 7


  19926057.385 8 106665740.710 8  82962290.095 7
  19926068.926 7

  20999030.895 7 112448864.478 7  87460284.507 7
  20999043.274 7

  26725748.005 6 140444748.204 6

  26725757.022 6 107613536.473 6
  24217776.840 5 129548745.463 5


  20320006.510 8 108507691.334 8  84394914.199 7
  20320017.718 7

  22494909.895 6 120206033.040 6  93493668.374 6
  22494924.396 6

  23723648.618 7 124668637.407 7  97144439.020 5  23723656.754 5  23723648.042 5
  23723657.545 5

 24 11 23 18 21 30.0000000  0 28G02G03G04G31S31S35G09E29E30R06G26R10
                                G16G06E02E13E07E08E26E27S33R07R08E33
                                R23R09R11G07
  25304125.626 5


  20293543.909 8 106643286.538 8  83098692.291 8  20293550.702 8  20293543.681 8
  20293551.565 7  20293545.452 5  79636222.791 5

  20973467.257 7 110216314.824 7  85882869.609 6  20973473.234 6  20973466.815 6
  20973473.335 7

  23174581.790 7 121783221.744 7  94896039.682 5  23174589.757 5  23174581.308 5
  23174590.612 6

  37076658.298 7 194839190.078 7


  37126055.740 7 195098753.231 7


  22472386.608 7 118093200.971 7  92020716.568 6  22472395.425 6  22472386.009 6
  22472395.824 6

  25559652.677 7 134316889.273 7

  25559659.895 7 102918162.060 7
  24836906.950 7 130518827.587 7
                                                  24836907.047 5 105940602.520 5
  24836913.885 7 100007959.670 7
  22570883.355 4 120442521.969 4


  22036166.929 7 115800827.891 7  90234446.047 6  22036176.337 6  22036166.236 6
  22036176.519 6

  19416754.991 7 103502234.137 7


  21124857.810 7 111011881.603 7  86502789.771 5  21124862.748 5  21124856.800 5


  24761067.847 5 130120298.660 5 101392491.176 4  24761081.505 4  24761067.199 4
  24761082.765 5

  27320940.628 6 143572489.936 6
                                                  27320946.369 4 116536148.042 4
  27320952.925 6 110010125.595 6
  28486543.607 5 149697761.737 5

  28486563.296 5 114703534.624 5
  23973355.156 8 125980828.899 8
                  23973358.722 5  94076604.484 5  23973354.328 6 102257161.159 6
  23973361.971 8  96530790.468 8
  26667537.569 4 140138840.579 4

  26667548.282 5 107379138.968 5
  26471468.656 6 139108487.165 6

  26471477.574 6 106589646.646 6
  25567858.183 7 134360026.724 7

  25567866.537 7 102951234.235 7
  37209170.387 7 195535479.472 7


  19926828.491 8 106669870.659 8  82965502.238 7
  19926840.279 7

  20984481.969 7 112370947.990 7  87399682.898 7
  20984493.709 7

  26728442.755 6 140458908.432 6

  26728451.679 6 107624386.426 6
  24233269.817 5 129631645.308 5


  20333652.389 8 108580558.256 8  84451588.419 7
  20333663.400 7

  22471929.719 6 120083233.535 6  93398157.921 6
  22471943.465 6

  23710977.988 6 124602051.789 6  97092554.181 5  23710985.508 5  23710977.376 5
  23710986.344 5

 24 11 23 18 22  0.0000000  0 27G03G04G31S31S35G09E29E30R06G26R10G16
                                G06E02E13E07E08E26E27S33R07R08E33R23
                                R09R11G07
  20299972.839 8 106677070.832 8  83125017.664 8  20299979.930 8  20299972.607 8
  20299980.561 7  20299974.304 5  79661451.256 5

  20967013.308 7 110182399.774 7  85856442.280 6  20967019.234 6  20967012.866 6
  20967019.714 7

  23192525.358 6 121877513.811 6  94969513.870 5  23192533.475 5  23192524.876 5
  23192534.829 6

  37076666.981 7 194839206.891 7


  37126048.956 7 195098709.016 7


  22459176.188 7 118023777.228 7  91966620.173 6  22459184.374 6  22459175.580 6
  22459184.880 6

  25550794.648 7 134270338.835 7

  25550801.675 7 102882493.557 7
  24834711.645 7 130507291.485 7
                                                  24834711.549 5 105931238.823 5
  24834718.397 7  99999120.350 7
  22585933.751 4 120522859.571 4


  22046456.163 7 115854898.653 7  90276579.070 6  22046465.809 6  22046455.475 6
  22046466.507 6

  19410721.135 7 103470069.307 7


  21119321.125 7 110982785.296 7  86480117.370 5  21119326.142 5  21119320.115 5


  24758878.330 5 130108795.074 5 101383527.343 4  24758893.156 4  24758877.691 4
  24758893.712 5

  27332403.001 6 143632723.548 6
                                                  27332407.769 4 116585038.830 4
  27332415.189 6 110056278.404 6
  28502045.342 5 149779222.086 5

  28502064.994 5 114765951.984 5
  23973728.271 8 125982789.290 8
                  23973731.730 4  94078068.418 4  23973727.434 6 102258752.404 6
  23973735.101 8  96532292.607 8
  26676240.793 4 140184574.141 4

  26676250.565 5 107414181.417 5
  26484709.684 6 139178068.175 6

  26484718.454 6 106642961.839 6
  25552754.786 7 134280658.539 7

  25552763.218 7 102890419.739 7
  37209166.269 7 195535493.864 7


  19927682.260 8 106674439.023 8  82969055.367 7
  19927693.889 7

  20969958.952 7 112293183.492 7  87339199.416 7
  20969970.744 7

  26731215.288 6 140473476.917 6

  26731224.036 6 107635549.187 6
  24248818.365 5 129714797.418 5


  20347404.661 8 108653992.626 8  84508704.004 7
  20347415.347 7

  22449003.091 6 119960720.693 6  93302870.419 6
  22449016.447 6

  23698348.464 7 124535684.119 7  97040839.145 5  23698356.349 5  23698347.856 5
  23698356.790 5

 24 11 23 18 22 30.0000000  0 27G03G04G31S31S35G09E29E30R06G26R10G16
                                G06E02E13E07E08E26E27S33R07R08E33R23
                                R09R11G07
  20306510.181 8 106711424.433 8  83151786.651 8  20306517.343 8  20306509.949 8
  20306517.846 7  20306511.770 5  79687104.873 5

  20960589.898 7 110148645.023 7  85830139.863 6  20960596.097 6  20960589.456 6
  20960595.926 7

  23210480.332 7 121971866.983 7  95043035.672 5  23210488.516 5  23210479.859 5
  23210489.052 6

  37076669.638 8 194839224.998 8


  37126041.381 7 195098666.228 7


  22445976.234 7 117954413.174 7  91912570.293 6  22445985.137 6  22445975.626 6
  22445985.357 6

  25541937.503 7 134223794.942 7

  25541944.569 7 102846830.068 7
  24832596.982 7 130496179.190 7
                                                  24832596.551 5 105922219.128 5
  24832603.807 7  99990605.784 7
  22601058.189 4 120603531.237 4


  22056846.994 7 115909502.216 7  90319127.258 6  22056856.773 6  22056846.306 6
  22056856.862 6

  19404831.816 7 103438676.135 7


  21113904.331 7 110954321.428 7  86457937.767 5  21113909.590 5  21113903.321 5


  24756787.504 6 130097802.864 6 101374961.978 4  24756800.991 4  24756786.946 4
  24756801.211 5

  27343921.149 6 143693251.563 6
                                                  27343926.070 4 116634168.502 4
  27343933.496 6 110102656.783 6
  28517515.546 5 149860515.428 5

  28517534.836 5 114828241.421 5
  23974118.268 8 125984839.066 8
                  23974121.916 5  94079599.122 5  23974117.383 6 102260416.189 6
  23974125.057 8  96533863.228 8
  26684958.004 4 140230384.625 4

  26684968.254 4 107449282.838 4
  26497982.401 6 139247816.292 6

  26497991.277 6 106696405.071 6
  25537687.818 7 134201480.466 7

  25537696.167 7 102829750.907 7
  37209171.210 7 195535508.819 7


  19928617.618 7 106679445.884 7  82972949.555 7
  19928628.777 7

  20955466.400 7 112215571.522 7  87278834.609 7
  20955477.723 7

  26734064.617 6 140488450.910 6

  26734073.453 6 107647022.675 6
  24264409.516 5 129798195.440 5


  20361261.384 8 108727988.808 8  84566256.532 7
  20361272.591 7

  22426130.045 6 119838496.706 6  93207807.544 6
  22426143.449 6

  23685760.300 7 124469532.649 7  96989292.552 5  23685768.142 5  23685759.683 5
  23685767.802 5

 24 11 23 18 23  0.0000000  0 27G03G04G31S31S35G09E29E30R06G26R10G16
                                G06E02E13E07E08E26E27S33R07R08E33R23
                                R09R11G07
  20313154.399 8 106746339.841 8  83178993.411 8  20313161.316 8  20313154.167 8
  20313162.031 7  20313155.615 5  79713177.986 5

  20954195.831 7 110115044.677 7  85803957.758 6  20954201.998 6  20954195.393 6
  20954202.338 7

  23228445.000 7 122066272.626 7  95116598.375 5  23228453.331 5  23228444.531 5
  23228454.208 6

  37076672.334 7 194839238.139 7


  37126032.188 7 195098618.307 7


  22432787.202 7 117885102.828 7  91858562.264 6  22432796.055 6  22432786.590 6
  22432796.071 6

  25533080.537 7 134177250.972 7

  25533087.582 7 102811166.506 7
  24830561.756 7 130485484.220 7
                                                  24830561.496 5 105913538.184 5
  24830568.660 7  99982410.989 7
  22616232.512 4 120684529.340 4


  22067337.205 7 115964629.830 7  90362083.803 6  22067347.330 6  22067336.508 6
  22067347.667 6

  19399086.025 7 103408048.728 7


  21108606.985 7 110926484.771 7  86436246.894 5  21108612.331 5  21108605.970 5


  24754791.217 5 130087314.914 5 101366789.561 4  24754804.474 4  24754790.690 4
  24754805.273 5

  27355494.061 6 143754065.643 6

  27355506.236 6 110149254.343 6
  28532952.504 5 149941633.425 5

  28532971.915 5 114890396.485 5
  23974524.219 8 125986971.926 8
                  23974527.641 4  94081191.891 4  23974523.476 6 102262147.421 6
  23974530.854 8  96535497.517 8
  26693689.006 5 140276265.671 5

  26693699.383 4 107484438.308 4
  26511285.084 6 139317722.606 6

  26511294.113 6 106749969.503 6
  25522655.996 7 134122487.602 7

  25522664.235 7 102769223.971 7
  37209173.280 7 195535519.210 7


  19929634.481 8 106684885.827 8  82977180.584 7
  19929645.419 7

  20941000.229 7 112138107.907 7  87218585.190 7
  20941011.377 7

  26736989.517 6 140503822.779 6

  26736998.592 6 107658801.017 6
  24280038.712 5 129881827.977 5


  20375221.998 8 108802536.100 8  84624237.678 7
  20375232.844 7

  22403310.947 6 119716557.660 6  93112966.312 6
  22403324.303 6

  23673211.943 7 124403590.674 7  96937909.190 5  23673219.722 5  23673211.295 5
  23673220.092 5

 24 11 23 18 23 30.0000000  0 27G03G04G31S31S35G09E29E30R06G26R10G16
                                G06E02E13E07E08E26E27S33R07R08E33R23
                                R09R11G07
  20319907.218 8 106781826.172 8  83206645.046 8  20319914.146 8  20319906.986 8
  20319914.857 7  20319909.033 5  79739677.464 5

  20947833.591 7 110081609.472 7  85777904.335 6  20947839.470 6  20947833.153 6
  20947839.860 7

  23246421.583 7 122160738.855 7  95190208.273 5  23246429.906 5  23246421.114 5
  23246430.613 6

  37076672.468 7 194839255.385 7


  37126022.981 7 195098574.868 7


  22419610.048 7 117815856.828 7  91804604.373 6  22419618.657 6  22419609.427 6
  22419619.144 6

  25524225.200 7 134130716.955 7

  25524232.444 7 102775510.585 7
  24828608.037 7 130475216.768 7
                                                  24828607.657 5 105905204.265 5
  24828614.747 7  99974543.791 7
  22631477.889 4 120765863.200 4


  22077928.671 7 116020289.386 7  90405454.845 6  22077938.927 6  22077927.983 6
  22077939.043 6

  19393485.930 7 103378197.263 7


  21103431.474 7 110899286.304 7  86415053.308 5  21103436.482 5  21103430.459 5


  24752892.902 6 130077340.743 6 101359017.493 4  24752906.271 4  24752892.482 4
  24752906.248 5

  27367122.681 6 143815174.022 6
                                                  27367127.690 4 116733131.294 4
  27367134.919 6 110196077.486 6
  28548356.461 5 150022584.339 5

  28548376.176 5 114952423.589 5
  23974947.699 8 125989198.272 8
                  23974951.258 5  94082854.435 5  23974947.072 6 102263954.543 6
  23974954.449 8  96537203.426 8
  26702435.886 5 140322227.622 5

  26702445.785 4 107519655.789 4
  26524619.733 6 139387794.753 6

  26524628.475 6 106803661.020 6
  25507661.626 7 134043691.641 7

  25507669.753 7 102708847.898 7
  37209178.016 7 195535534.069 7


  19930732.591 8 106690770.586 8  82981757.589 7
  19930744.895 7

  20926564.610 7 112060805.297 7  87158460.970 7
  20926575.546 7

  26739992.370 6 140519601.508 6

  26740001.196 6 107670891.120 6
  24295715.302 5 129965700.558 5


  20389286.651 8 108877641.609 8  84682652.984 7
  20389297.908 7

  22380546.886 7 119594916.631 7  93018356.883 6
  22380561.771 6

  23660705.460 7 124337868.270 7  96886696.920 5  23660713.064 5  23660704.754 5
  23660714.138 5

 24 11 23 18 24  0.0000000  0 27G03G04G31S31S35G09E29E30R06G26R10G16
                                G06E02E13E07E08E26E27S33R07R08E33R23
                                R09R11G07
  20326767.472 8 106817876.570 8  83234736.213 8  20326774.496 8  20326767.240 8
  20326775.180 7  20326768.669 5  79766598.147 5

  20941501.380 7 110048334.232 7  85751975.558 6  20941507.706 6  20941500.938 6
  20941507.632 7

  23264407.917 7 122255257.759 7  95263859.228 5  23264416.512 5  23264407.430 5
  23264416.949 6

  37076675.384 8 194839270.804 8


  37126014.668 7 195098529.838 7


  22406443.956 7 117746669.903 7  91750692.524 6  22406452.854 6  22406443.357 6
  22406453.612 6

  25515370.811 7 134084186.894 7

  25515378.024 7 102739857.683 7
  24826734.246 7 130465371.024 7
                                                  24826734.138 5 105897212.654 5
  24826741.036 7  99966999.712 7
  22646773.792 3


  22088620.313 7 116076472.783 7  90449234.074 6  22088630.107 6  22088619.629 6
  22088630.251 6

  19388030.086 7 103349116.680 7


  21098376.419 8 110872721.621 8  86394353.574 5  21098381.299 5  21098375.409 5


  24751092.796 5 130067873.902 5 101351640.716 4  24751104.842 4  24751092.367 4
  24751105.644 5

  27378806.105 6 143876569.130 6
                                                  27378811.281 4 116782964.809 4
  27378818.287 6 110243120.291 6
  28563728.024 5 150103360.242 5

  28563747.270 5 115014316.474 5
  23975388.144 8 125991512.517 8
                  23975391.823 5  94084582.593 5  23975387.124 6 102265832.980 6
  23975394.932 8  96538976.689 8
  26711196.295 4 140368264.770 4

  26711206.358 5 107554930.821 5
  26537984.187 6 139458024.420 6

  26537992.557 6 106857473.228 6
  25492703.880 7 133965088.300 7

  25492712.110 7 102648619.402 7
  37209183.758 7 195535546.303 7


  19931915.064 8 106697096.002 8  82986677.318 7
  19931926.399 7

  20912157.970 7 111983660.014 7  87098459.144 7
  20912169.598 7

  26743071.212 6 140535780.103 6

  26743080.102 6 107683287.614 6
  24311439.797 5 130049802.346 5


  20403454.189 8 108953294.839 8  84741494.299 7
  20403465.290 7

  22357838.803 7 119473570.759 7  92923976.965 6
  22357851.750 6

  23648240.006 7 124272359.380 7  96835651.003 5  23648247.097 5  23648239.291 5
  23648248.254 5

 24 11 23 18 24 30.0000000  0 27G03G04G31S31S35G09E29E30R06G26R10G16
                                G06E02E13E07E08E26E27S33R07R08E33R23
                                R09R11G07
  20333735.349 8 106854492.911 8  83263268.376 8  20333742.438 8  20333735.117 8
  20333743.197 7  20333737.059 5  79793941.471 5

  20935200.506 7 110015222.500 7  85726174.190 6  20935206.765 6  20935200.055 6
  20935206.838 7

  23282404.537 7 122349830.225 7  95337551.903 5  23282413.196 5  23282404.050 5
  23282413.160 6

  37076681.241 7 194839287.647 7


  37126007.808 7 195098485.912 7


  22393290.127 7 117677545.487 7  91696829.375 6  22393298.790 6  22393289.519 6
  22393299.110 6

  25506517.742 7 134037663.580 7

  25506524.966 7 102704209.967 7
  24824941.372 7 130455949.842 7
                                                  24824941.491 5 105889565.646 5
  24824948.247 7  99959780.948 7
  22662141.073 3


  22099411.550 7 116133180.677 7  90493421.997 6  22099421.187 6  22099410.866 6
  22099421.580 6

  19382719.856 7 103320809.168 7


  21093442.533 8 110846795.056 8  86374151.072 5  21093447.646 5  21093441.523 5


  24749387.876 6 130058916.647 6 101344661.020 3  24749399.714 3  24749387.505 3
  24749400.424 5

  27390543.515 6 143938251.956 6
                                                  27390548.508 4 116833031.915 4
  27390556.247 6 110290383.570 6
  28579066.156 5 150183962.186 5

  28579085.739 5 115076076.130 5
  23975845.848 8 125993917.796 8
                  23975849.305 5  94086378.739 5  23975844.940 6 102267785.337 6
  23975852.633 8  96540819.705 8
  26719971.842 4 140414380.113 4

  26719982.472 5 107590265.844 5
  26551378.392 6 139528412.089 6

  26551387.115 6 106911406.511 6
  25477783.411 7 133886682.074 7

  25477791.704 7 102588541.941 7
  37209180.270 7 195535559.887 7


  19933179.361 8 106703866.148 8  82991942.963 7
  19933191.133 7

  20897781.891 7 111906677.588 7  87038583.942 7
  20897793.057 7

  26746226.501 6 140552360.304 6

  26746234.938 6 107695991.813 6
  24327207.578 5 130134132.214 5


  20417723.935 8 109029494.514 8  84800760.610 7
  20417734.882 7

  22335187.559 7 119352526.445 7  92829831.572 6
  22335200.426 6

  23635814.609 7 124207066.771 7  96784773.623 5  23635822.371 5  23635813.890 5
  23635823.095 5

 24 11 23 18 25  0.0000000  0 27G03G04G31S31S35G09E29E30R06G26R10G16
                                G06E02E13E07E08E26E27S33R07R08E33R23
                                R09R11G07
  20340810.320 8 106891671.325 8  83292238.516 8  20340817.108 8  20340810.092 8
  20340818.110 7  20340811.590 5  79821704.511 5

  20928930.214 7 109982272.220 7  85700498.627 6  20928936.392 6  20928929.767 6
  20928936.592 7

  23300410.603 6 122444451.270 6  95411282.438 5  23300418.922 5  23300410.116 5
  23300419.140 6

  37076683.146 7 194839302.106 7


  37125997.617 7 195098440.427 7


  22380147.986 7 117608481.432 7  91643013.264 6  22380156.512 6  22380147.392 6
  22380156.659 6

  25497665.290 7 133991144.172 7

  25497672.501 7 102668565.231 7
  24823228.857 7 130446950.531 7
                                                  24823228.780 5 105882261.064 5
  24823235.643 7  99952885.444 7
  22677578.805 3


  22110301.657 7 116190408.026 7  90538014.688 6  22110311.373 6  22110300.978 6
  22110311.657 6

  19377554.133 7 103293272.382 7


  21088630.099 7 110821504.682 7  86354444.296 5  21088635.152 5  21088629.084 5


  24747779.679 6 130050465.547 6 101338075.703 4  24747790.565 4  24747779.331 4
  24747792.668 5

  27402335.846 6 144000217.976 6
                                                  27402340.888 4 116883328.866 4
  27402348.183 6 110337863.856 6
  28594370.167 5 150264385.576 5

  28594390.193 5 115137698.999 5
  23976320.467 8 125996411.652 8
                  23976323.611 4  94088241.052 4  23976319.920 6 102269809.551 6
  23976327.250 8  96542730.581 8
  26728761.961 4 140460571.268 4

  26728772.488 5 107625658.896 5
  26564802.069 6 139598952.575 6

  26564810.667 6 106965456.881 6
  25462900.552 7 133808471.777 7

  25462908.872 7 102528614.590 7
  37209186.593 7 195535571.738 7


  19934527.736 8 106711079.904 8  82997553.628 7
  19934539.032 7

  20883435.693 7 111829857.397 7  86978834.936 7
  20883447.503 7

  26749456.857 6 140569338.229 6

  26749465.797 6 107709000.748 6
  24343014.309 5


  20432094.788 8 109106234.713 8  84860447.312 7
  20432106.285 7

  22312591.232 7 119231783.614 7  92735920.680 6
  22312604.563 6

  23623430.913 6 124141987.621 6  96734062.578 5  23623438.298 5  23623430.194 5
  23623439.361 5

 24 11 23 18 25 30.0000000  0 28G02G03G04G31S31S35G09E29E30R06G26R10
                                G16G06E02E13E07E08E26E27S33R07R08E33
                                R23R09R11G07
  25415657.404 4


  20347992.818 8 106929416.561 8  83321650.339 8  20347999.961 8  20347992.590 8
  20348000.731 7  20347994.219 5  79849890.812 5

  20922691.969 7 109949489.816 7  85674953.878 6  20922698.282 6  20922691.518 6
  20922698.249 7

  23318426.222 6 122539124.823 6  95485053.872 5  23318434.562 5  23318425.744 5
  23318435.273 6

  37076687.247 7 194839319.764 7


  37125991.308 7 195098398.131 7


  22367018.116 7 117539484.096 7  91589249.138 6  22367026.742 6  22367017.522 6
  22367027.270 6

  25488814.967 7 133944634.384 7

  25488822.014 7 102632927.865 7
  24821597.710 7 130438378.839 7
                                                  24821597.580 5 105875303.555 5
  24821604.433 7  99946317.583 7
  22693066.815 3


  22121291.120 7 116248158.331 7  90583014.880 6  22121301.074 6  22121290.432 6
  22121301.213 6

  19372534.067 7 103266512.747 7


  21083939.754 8 110796857.143 8  86335238.426 5  21083944.635 5  21083938.739 5


  24746268.374 6 130042525.755 6 101331888.858 4  24746280.051 4  24746268.039 4
  24746281.182 5

  27414182.102 5 144062471.205 5
                                                  27414188.009 3 116933858.980 3
  27414194.742 6 110385564.163 6
  28609641.790 4 150344634.251 4

  28609661.446 5 115199187.985 5
  23976813.026 8 125999000.146 8
                  23976816.330 5  94090173.989 5  23976812.240 6 102271910.618 6
  23976819.769 8  96544713.965 8
  26737568.576 4 140506843.917 4

  26737577.835 4 107661114.451 4
  26578255.657 6 139669649.198 6

  26578263.924 6 107019626.888 6
  25448056.417 7 133730464.806 7

  25448064.523 7 102468843.043 7
  37209186.584 7 195535586.654 7


  19935958.918 8 106718744.681 8  83003515.119 7
  19935970.818 7

  20869122.833 7 111753207.662 7  86919218.527 7
  20869133.148 7

  26752764.271 6 140586718.412 6

  26752773.193 6 107722317.939 6
  24358863.058 5


  20446567.183 8 109183517.295 8  84920555.849 7
  20446579.121 7

  22290053.500 7 119111351.007 7  92642251.094 6
  22290066.844 6

  23611088.422 6 124077127.535 6  96683522.258 5  23611096.025 5  23611087.716 5
  23611096.382 5

 24 11 23 18 26  0.0000000  0 28G02G03G04G31S31S35G09E29E30R06G26R10
                                G16G06E02E13E07E08E26E27S33R07R08E33
                                R23R09R11G07
  25429448.080 3


  20355281.638 8 106967718.835 8  83351496.221 8  20355288.857 8  20355281.406 8
  20355289.444 7  20355283.270 5  79878493.141 5

  20916484.137 7 109916867.289 7  85649533.706 6  20916490.100 6  20916483.686 6
  20916490.478 7

  23336450.396 6 122633839.978 6  95558857.719 5  23336458.362 5  23336449.914 5
  23336458.870 6

  37076683.817 7 194839331.992 7


  37125982.056 7 195098350.452 7


  22353899.210 7 117470545.357 7  91535530.683 6  22353908.360 6  22353898.616 6
  22353908.251 6

  25479964.375 7 133898125.448 7

  25479971.537 7 102597291.143 7
  24820046.283 7 130430226.078 7
                                                  24820045.915 5 105868686.084 5
  24820052.907 7  99940070.711 7
  22708613.743 3


  22132378.286 7 116306420.592 7  90628413.986 6  22132388.082 6  22132377.593 6
  22132388.303 6

  19367658.217 7 103240521.045 7


  21079370.717 8 110772845.119 8  86316527.767 6  21079375.388 6  21079369.702 6


  24744852.660 5 130035087.861 5 101326093.074 4  24744865.113 4  24744852.289 4
  24744867.330 5

  27426081.590 5 144125000.996 5
                                                  27426087.615 4 116984613.403 4
  27426094.111 6 110433476.419 6
  28624877.100 4 150424697.626 4

  28624896.877 5 115260534.945 5
  23977322.027 8 126001674.870 8
                  23977325.354 5  94092171.373 5  23977321.123 6 102274081.649 6
  23977328.808 8  96546763.426 8
  26746387.599 4 140553189.899 4

  26746396.995 4 107696626.141 4
  26591736.062 6 139740490.818 6

  26591744.745 6 107073908.010 6
  25433249.431 7 133652654.036 7

  25433257.630 7 102409221.819 7
  37209193.161 7 195535596.395 7


  19937474.144 8 106726852.690 8  83009821.317 7
  19937485.477 7

  20854838.847 7 111676722.177 7  86859729.848 7
  20854850.691 7

  26756146.582 6 140604491.071 6

  26756155.444 6 107735935.847 6
  24374741.603 4 130388478.82314


  20461139.247 8 109261329.115 8  84981076.047 7
  20461150.876 7

  22267572.445 7 118991223.221 7  92548818.577 6
  22267586.963 6

  23598785.779 6 124012477.503 6  96633145.616 5  23598793.366 5  23598785.122 5
  23598794.396 5

 24 11 23 18 26 30.0000000  0 28G02G03G04G31S31S35G09E29E30R06G26R10
                                G16G06E02E13E07E08E26E27S33R07R08E33
                                R23R09R11G07
  25443213.854 3


  20362678.115 8 107006587.964 8  83381783.805 8  20362685.373 8  20362677.883 8
  20362686.024 7  20362679.722 5  79907518.698 5

  20910309.225 7 109884416.312 7  85624247.199 6  20910314.986 6  20910308.778 6
  20910315.286 7

  23354483.548 6 122728605.949 6  95632701.171 5  23354491.996 5  23354483.066 5
  23354492.721 6

  37076692.510 7 194839349.295 7


  37125972.478 7 195098308.097 7


  22340794.146 7 117401676.805 7  91481866.904 6  22340802.822 6  22340793.556 6
  22340803.120 6

  25471116.519 7 133851628.247 7

  25471123.313 7 102561663.416 7
  24818576.715 7 130422503.159 7
                                                  24818576.285 5 105862417.519 5
  24818583.345 7  99934153.187 7
  22724219.755 3


  22143564.153 7 116365203.460 7  90674218.760 6  22143574.168 6  22143563.469 6
  22143574.300 6

  19362928.744 7 103215308.126 7


  21074924.492 8 110749480.890 8  86298321.882 6  21074929.455 6  21074923.473 6


  24743535.261 5 130028162.096 5 101320696.371 4  24743548.136 4  24743534.890 4
  24743548.646 5

  27438034.524 5 144187816.542 5
                                                  27438041.008 3
  27438047.748 6 110481607.607 6
  28640079.211 5 150504584.937 5

  28640098.991 5 115321747.007 5
  23977849.476 8 126004447.107 8
                  23977853.040 5  94094241.500 5  23977848.931 6 102276331.837 6
  23977856.364 8  96548887.596 8
  26755222.216 4 140599620.072 4

  26755232.858 4 107732202.382 4
  26605246.086 6 139811486.018 6

  26605254.685 6 107128306.809 6
  25418482.073 7 133575052.018 7

  25418490.471 7 102349760.542 7
  37209191.064 7 195535611.403 7


  19939074.129 8 106735416.664 8  83016482.156 7
  19939085.362 7

  20840589.314 7 111600414.427 7  86800379.388 7
  20840600.392 7

  26759605.030 6 140622665.960 6

  26759614.113 6 107749861.965 6
  24390670.200 5 130473672.786 5


  20475811.425 8 109339677.436 8  85042013.501 7
  20475822.975 7

  22245152.202 6 118871414.563 6  92455634.226 6
  22245166.023 6

  23586525.567 6 123948048.583 6  96582941.288 5  23586533.000 5  23586524.991 5
  23586532.891 5

 24 11 23 18 27  0.0000000  0 27G03G04G31S31S35G09E29E30R06G26R10G16
                                G06E02E13E07E08E26E27S33R07R08E33R23
                                R09R11G07
  20370180.852 8 107046014.440 8  83412505.691 8  20370187.964 8  20370180.620 8
  20370188.556 7  20370182.379 5  79936960.516 5

  20904165.132 7 109852129.232 7  85599088.418 6  20904170.959 6  20904164.685 6
  20904171.304 7

  23372524.978 6 122823412.309 6  95706576.116 5  23372532.976 5  23372524.518 5
  23372533.638 5

  37076696.771 7 194839363.378 7


  37125963.857 7 195098262.765 7


  22327700.781 7 117332870.715 7  91428251.806 6  22327708.985 6  22327700.196 6
  22327709.619 6

  25462268.933 7 133805134.345 7

  25462275.781 7 102526038.213 7
  24817187.031 7 130415201.693 7
                                                  24817186.871 5 105856491.042 5
  24817193.950 7  99928558.573 7
  22739900.560 3


  22154847.315 7 116424496.252 7  90720420.868 6  22154857.333 6  22154846.631 6
  22154857.401 6

  19358343.349 7 103190865.978 7


  21070600.392 8 110726756.572 8  86280614.630 6  21070605.123 6  21070599.382 6


  24742312.782 5 130021739.421 5 101315691.674 4  24742326.336 4  24742312.407 4
  24742326.774 5

  27450041.010 5 144250907.650 5
                                                  27450047.140 3
  27450053.480 6 110529949.948 6
  28655245.672 5 150584285.807 5

  28655265.964 5 115382816.243 5
  23978394.154 8 126007308.754 8
                  23978397.438 5  94096378.473 5  23978393.461 6 102278654.578 6
  23978400.875 8  96551080.271 8
  26764072.482 4 140646126.585 4

  26764082.573 4 107767836.989 4
  26618783.086 6 139882623.985 6

  26618791.843 6 107182814.987 6
  25403753.429 7 133497651.936 7

  25403761.820 7 102290454.008 7
  37209192.880 7 195535622.451 7


  19940757.680 8 106744429.711 8  83023492.279 7
  19940768.839 7

  20826371.510 7 111524278.181 7  86741162.368 7
  20826382.659 7

  26763138.489 6 140641233.475 6

  26763147.662 6 107764088.920 6
  24406634.288 5 130559067.931 5


  20490582.232 8 109418549.785 8  85103358.517 7
  20490593.150 7

  22222790.575 6 118751919.080 6  92362693.509 6
  22222803.774 6

  23574305.537 6 123883832.181 6  96532902.572 5  23574312.882 5  23574305.019 5
  23574313.514 5

 24 11 23 18 27 30.0000000  0 27G03G04G31S31S35G09E29E30R06G26R10G16
                                G06E02E13E07E08E26E27S33R07R08E33R23
                                R09R11G07
  20377790.557 8 107086002.567 8  83443665.229 8  20377797.476 8  20377790.325 8
  20377798.238 7  20377791.637 5  79966821.717 5

  20898053.525 8 109820012.202 8  85574062.136 6  20898059.369 6  20898053.078 6
  20898059.673 7

  23390573.915 6 122918262.077 6  95780484.864 5  23390582.573 5  23390573.455 5
  23390583.076 6

  37076693.418 7 194839378.322 7


  37125955.754 7 195098219.289 7


  22314620.019 7 117264133.144 7  91374690.097 6  22314628.680 6  22314619.425 6
  22314629.187 6

  25453423.249 7 133758649.138 7

  25453429.921 7 102490419.668 7
  24815878.957 7 130408327.015 7
                                                  24815878.814 5 105850910.946 5
  24815885.614 7  99923290.975 7
  22755632.886 3


  22166228.192 7 116484302.045 7  90767022.704 6  22166237.889 6  22166227.513 6
  22166238.011 6

  19353903.193 7 103167199.907 7


  21066398.936 8 110704678.672 8  86263411.080 6  21066403.748 6  21066397.930 6


  24741187.302 6 130015824.422 6 101311082.588 4  24741200.753 4  24741186.869 4
  24741201.217 5

  27462099.844 5 144314277.959 5
                                                  27462105.384 3
  27462112.671 6 110578506.205 6
  28670377.677 5 150663803.812 5

  28670397.674 5 115443745.300 5
  23978956.863 8 126010265.562 8
                  23978960.245 5  94098586.440 5  23978956.090 6 102281054.576 6
  23978963.453 8  96553345.859 8
  26772938.636 4 140692714.562 4

  26772948.538 4 107803534.185 4
  26632348.178 6 139953907.644 6

  26632356.411 6 107237434.796 6
  25389064.484 7 133420460.819 7

  25389072.858 7 102231307.574 7
  37209201.604 7 195535635.860 7


  19942526.089 8 106753898.428 8  83030856.827 7
  19942538.120 7

  20812187.110 7 111448321.754 7  86682085.213 7
  20812198.551 7

  26766747.652 6 140660197.784 6

  26766756.285 6 107778619.906 6
  24422640.339 5 130644665.162 5


  20505451.140 8 109497947.746 8  85165112.378 7
  20505462.355 7

  22200488.220 6 118632745.785 6  92270003.330 6
  22200501.930 6

  23562126.512 7 123819833.375 7  96483033.432 5  23562134.790 5  23562125.994 5
  23562135.732 6

 24 11 23 18 28  0.0000000  0 27G03G04G31S31S35G09E29E30R06G26R10G16
                                G06E02E13E07E08E26E27S33R07R08E33R23
                                R09R11G07
  20385506.819 8 107126551.855 8  83475262.035 8  20385513.878 8  20385506.587 8
  20385514.524 7  20385508.265 5  79997101.998 5

  20891974.516 7 109788066.667 7  85549169.486 6  20891980.560 6  20891974.074 6
  20891980.574 7

  23408631.735 6 123013154.211 6  95854426.612 5  23408640.568 5  23408631.284 5
  23408640.659 6

  37076698.471 7 194839396.539 7


  37125947.155 7 195098177.702 7


  22301553.810 7 117195465.490 7  91321182.869 6  22301561.928 6  22301553.229 6
  22301561.934 6

  25444579.052 7 133712173.366 7

  25444586.012 7 102454808.357 7
  24814651.974 7 130401879.894 7
                                                  24814651.833 5 105845677.898 5
  24814658.823 7  99918350.978 7
  22771429.715 3


  22177705.980 7 116544619.204 7  90814023.013 6  22177715.762 6  22177705.301 6
  22177716.004 6

  19349609.402 7 103144310.965 7


  21062320.933 8 110683249.122 8  86246712.745 5  21062325.861 5  21062319.927 5


  24740157.958 5 130010417.139 5 101306869.130 4  24740172.092 4  24740157.511 4
  24740172.759 5

  27474212.333 5 144377926.323 5
                                                  27474218.066 3
  27474224.923 6 110627275.555 6
  28685474.557 5 150743137.832 5

  28685495.181 4 115504533.450 4
  23979537.808 8 126013318.626 8
                  23979541.288 5  94100866.310 5  23979536.747 6 102283532.692 6
  23979544.573 8  96555685.193 8
  26781818.832 4 140739385.342 4

  26781829.542 4 107839294.875 4
  26645940.116 6 140025335.386 6

  26645948.931 6 107292165.029 6
  25374415.789 7 133343480.998 7

  25374424.166 7 102172323.049 7
  37209202.315 7 195535650.703 7


  19944380.595 7 106763825.137 7  83038577.581 7
  19944391.716 7

  20798036.310 7 111372548.152 7  86623150.223 7
  20798048.156 7

  26770432.345 6 140679558.515 6

  26770440.933 6 107793454.663 6
  24438679.460 5 130730460.628 5


  20520417.279 8 109577868.437 8  85227272.801 7
  20520429.143 7

  22178247.833 6 118513898.065 6  92177566.350 6
  22178260.861 6

  23549989.591 6 123756052.892 6  96433334.429 5  23549998.055 5  23549988.992 5
  23549997.457 6

 24 11 23 18 28 30.0000000  0 28G02G03G04G31S31S35G09E29E30R06G26R10
                                G16G06E02E13E07E08E26E27S33R07R08E33
                                R23R09R11G07
  25497908.273 3


  20393328.504 8 107167655.263 8  83507290.624 8  20393335.627 8  20393328.268 8
  20393336.162 7  20393329.830 5  80027796.045 5

  20885926.944 7 109756287.526 7  85524406.502 6  20885933.075 6  20885926.502 6
  20885933.369 7

  23426695.824 6 123108080.995 6  95928395.360 5  23426704.631 5  23426695.386 5
  23426705.278 6

  37076703.729 7 194839409.757 7


  37125941.127 7 195098131.881 7


  22288498.673 7 117126862.527 7  91267726.062 6  22288507.487 6  22288498.083 6
  22288507.435 6

  25435735.705 7 133665701.100 7

  25435742.551 7 102419199.735 7
  24813505.307 7 130395854.367 7
                                                  24813505.195 5 105840787.010 5
  24813512.280 7  99913733.998 7
  22787281.658 3


  22189279.623 7 116605439.512 7  90861415.372 6  22189289.417 6  22189278.944 6
  22189290.012 6

  19345460.242 7 103122192.900 7


  21058365.490 8 110662463.020 8  86230515.800 5  21058370.264 5  21058364.480 5


  24739225.381 5 130005510.854 5 101303046.044 4  24739238.203 4  24739224.934 4
  24739238.695 6

  27486375.029 5 144441845.065 5
                                                  27486381.162 3
  27486388.139 6 110676252.048 6
  28700535.134 5 150822280.425 5

  28700555.830 4 115565174.854 4
  23980136.066 8 126016462.372 8
                  23980139.721 5  94103213.873 5  23980135.471 6 102286084.425 6
  23980142.820 8  96558094.011 8
  26790714.964 4 140786133.304 4

  26790725.363 4 107875114.556 4
  26659558.586 6 140096898.892 6

  26659567.157 6 107346999.265 6
  25359806.298 7 133266708.149 7

  25359814.680 7 102113497.117 7
  37209201.510 7 195535661.899 7


  19946319.608 8 106774205.549 8  83046651.224 7
  19946331.424 7

  20783919.961 7 111296953.911 7  86564354.771 7
  20783931.498 7

  26774190.386 6 140699308.546 6

  26774198.989 6 107808587.680 6
  24454752.504 5 130816444.095 5


  20535480.314 8 109658301.728 8  85289831.913 7
  20535491.248 7

  22156067.585 6 118395373.368 6  92085380.584 6
  22156080.649 6

  23537892.751 7 123692484.633 7  96383800.811 5  23537901.417 5  23537892.112 5
  23537901.512 6

 24 11 23 18 29  0.0000000  0 27G02G03G04G31S31S35G09E29E30G26R10G16
                                G06E02E13E07E08E26E27S33R07R08E33R23
                                R09R11G07
  25511497.645 4


  20401256.525 8 107209316.865 8  83539754.167 8  20401263.421 8  20401256.289 8
  20401264.240 7  20401257.997 5  80058906.912 5

  20879912.382 7 109724680.782 7  85499777.847 6  20879918.765 6  20879911.935 6
  20879918.571 7

  23444767.712 6 123203046.033 6  96002393.905 5  23444776.148 5  23444767.283 5
  23444776.282 6

  37076709.019 7 194839424.756 7


  37125931.165 7 195098088.198 7


  22275457.399 7 117058330.255 7  91214324.336 6  22275466.026 6  22275456.818 6
  22275466.153 6

  25426894.112 7 133619237.635 7

  25426900.938 7 102383597.852 7
  24812439.891 7 130390255.634 7
                                                  24812439.717 5 105836242.583 5
  24812446.860 7  99909444.040 7
  22200949.796 7 116666765.873 7  90909202.055 6  22200959.735 6  22200949.121 6
  22200959.901 6

  19341456.363 7 103100850.484 7


  21054533.453 8 110642326.377 8  86214824.929 5  21054538.418 5  21054532.443 5


  24738387.054 5 130001110.041 5 101299616.831 4  24738401.205 4  24738386.585 4
  24738400.914 5

  27498591.071 5 144506037.641 5
                                                  27498596.870 3
  27498603.534 5 110725438.357 5
  28715559.537 4 150901234.804 4

  28715580.971 4 115625672.013 4
  23980752.694 8 126019702.424 8
                  23980756.372 5  94105633.329 5  23980751.750 6 102288714.278 6
  23980759.388 8  96560576.606 8
  26799626.338 4 140832963.660 4

  26799636.901 4 107910997.453 4
  26673203.184 6 140168601.013 6

  26673211.912 6 107401939.712 6
  25345237.557 7 133190149.144 7

  25345246.197 7 102054835.049 7
  37209200.276 7 195535674.675 7


  19948345.035 8 106785045.780 8  83055082.499 7
  19948356.731 7

  20769838.345 7 111221547.015 7  86505705.015 7
  20769849.272 7

  26778023.502 6 140719451.854 6

  26778032.390 6 107824022.067 6
  24470856.691 5 130902615.949 5


  20550638.980 8 109739248.879 8  85352790.718 7
  20550650.264 7

  22133948.325 6 118277179.727 6  91993452.360 6
  22133962.064 6

  23525837.210 7 123629133.489 7  96334436.387 5  23525845.856 5  23525836.584 5
  23525846.223 6

 24 11 23 18 29 30.0000000  0 27G02G03G04G31S31S35G09E29E30G26R10G16
                                G06E02E13E07E08E26E27S33R07R08E33R23
                                R09R11G07
  25525040.245 4


  20409290.996 8 107251538.928 8  83572654.437 8  20409298.010 8  20409290.755 8
  20409298.708 7  20409292.767 5  80090436.345 5

  20873931.779 7 109693250.772 7  85475286.911 6  20873937.720 6  20873931.332 6
  20873937.906 7

  23462845.991 6 123298050.539 6  96076423.203 5  23462854.949 5  23462845.567 5
  23462854.907 6

  37076712.105 7 194839444.226 7


  37125924.471 7 195098048.833 7


  22262430.303 7 116989872.875 7  91160980.965 6  22262438.830 6  22262429.709 6
  22262439.109 6

  25418054.535 7 133572786.498 7

  25418061.464 7 102348005.425 7
  24811456.517 7 130385087.130 7
                                                  24811456.373 5 105832047.330 5
  24811463.352 7  99905483.726 7
  22212716.654 7 116728599.451 7  90957383.975 6  22212726.367 6  22212715.979 6
  22212726.823 6

  19337598.722 7 103080287.464 7


  21050826.209 7 110622843.723 7  86199643.659 5  21050831.041 5  21050825.199 5


  24737647.466 6 129997217.521 6 101296583.678 4  24737660.328 4  24737647.037 4
  24737660.779 5

  27510858.790 5 144570505.750 5
                                                  27510863.868 3
  27510871.767 5 110774835.788 5
  28730548.262 3

  28730569.281 3
  23981388.401 8 126023042.634 8
                  23981391.755 5  94108127.597 5  23981387.389 6 102291425.463 6
  23981395.007 8  96563135.939 8
  26808554.799 4 140879880.305 4

  26808565.463 4 107946946.410 4
  26686874.013 6 140240442.880 6

  26686883.116 6 107456987.228 6
  25330710.493 7 133113809.130 7

  25330718.980 7 101996340.767 7
  37209205.816 7 195535691.024 7


  19950456.819 8 106796351.360 8  83063875.729 7
  19950468.611 7

  20755792.635 7 111146333.445 7  86447205.643 7
  20755804.551 7

  26781932.294 6 140739990.832 6

  26781940.839 6 107839759.612 6
  24487000.780 5 130988975.119 5


  20565894.304 8 109820709.672 8  85416149.046 7
  20565905.443 7

  22111892.708 7 118159323.761 7  91901786.754 6
  22111906.924 6

  23513823.744 7 123566003.315 7  96285244.154 5  23513832.551 5  23513823.069 5
  23513832.628 6

 24 11 23 18 30  0.0000000  0 28G02G03G04G31S31S35G09E29E30R06G26R10
                                G16G06E02E13E07E08E26E27S33R07R08E33
                                R23R09R11G07
  25538552.147 4


  20417430.399 8 107294310.818 8  83605983.143 8  20417437.481 8  20417430.158 8
  20417438.172 7  20417431.646 5  80122376.318 5

  20867982.554 7 109661988.810 7  85450926.916 6  20867988.749 6  20867982.107 6
  20867988.903 7

  23480930.709 6 123393083.167 6  96150474.421 5  23480939.389 5  23480930.289 5
  23480939.335 6

  37076715.114 7 194839457.709 7


  37125915.908 7 195098004.800 7


  22249415.963 7 116921481.656 7  91107689.152 6  22249424.607 6  22249415.387 6
  22249425.032 6

  25409215.881 7 133526338.268 7

  25409222.713 7 102312415.240 7
  24810553.129 7 130380339.405 7
                                                  24810552.584 5 105828193.641 5
  24810559.876 7  99901845.824 7
  22835212.493 3


  22224577.348 7 116790928.421 7  91005951.906 6  22224587.314 6  22224576.673 6
  22224587.162 6

  19333885.889 7 103060493.868 7


  21047241.621 7 110604006.367 7  86184965.222 5  21047246.351 5  21047240.615 5


  24737001.247 6 129993822.955 6 101293938.528 4  24737013.455 4  24737000.823 4
  24737013.829 5

  27523177.146 5 144635238.179 5
                                                  27523183.228 3
  27523190.017 5 110824435.759 5
  28745501.641 3

  28745522.579 3
  23982041.350 8 126026473.976 8
                  23982044.698 5  94110689.917 5  23982040.418 6 102294210.606 6
  23982048.023 8  96565765.107 8
  26817495.865 4 140926873.994 4

  26817508.004 4 107982954.527 4
  26700569.616 6 140312412.653 6

  26700578.579 6 107512132.776 6
  25316223.655 7 133037680.255 7

  25316232.302 7 101938008.289 7
  37209205.557 7 195535702.800 7


  19952654.150 8 106808113.880 8  83073024.347 7
  19952665.697 7

  20741781.834 7 111071306.285 7  86388851.261 7
  20741792.710 7

  26785914.038 6 140760914.752 6

  26785922.524 6 107855792.128 6
  24503179.168 5 131075507.880 5


  20581243.093 8 109902670.349 8  85479896.135 7
  20581254.375 7

  22089900.065 7 118041799.143 7  91810378.831 6
  22089913.453 6

  23501850.571 7 123503083.958 7  96236216.209 5  23501859.160 5  23501849.811 5
  23501859.493 6

 24 11 23 18 30 30.0000000  0 28G02G03G04G31S31S35G09E29E30R06G26R10
                                G16G06E02E13E07E08E26E27S33R07R08E33
                                R23R09R11G07
  25552026.885 4


  20425675.581 8 107337639.417 8  83639745.646 8  20425682.916 8  20425675.340 8
  20425683.298 7  20425677.197 5  80154732.041 5

  20862067.416 7 109630903.894 7  85426704.879 6  20862073.575 6  20862066.969 6
  20862073.419 7

  23499021.527 6 123488150.453 6  96224552.635 5  23499030.282 5  23499021.094 5
  23499030.435 6

  37076716.433 7 194839474.131 7


  37125906.472 7 195097962.993 7


  22236415.815 7 116853165.490 7  91054455.820 6  22236424.527 6  22236415.239 6
  22236424.500 6

  25400379.233 7 133479901.151 7

  25400385.881 7 102276833.562 7
  24809731.295 7 130376020.505 7
                                                  24809731.085 5 105824688.009 5
  24809738.070 7  99898536.490 7
  22851320.261 3


  22236533.693 7 116853758.546 7  91054910.338 6  22236543.597 6  22236533.009 6
  22236544.286 6

  19330318.424 7 103041477.734 7


  21043781.489 7 110585823.455 7  86170796.740 5  21043786.009 5  21043780.479 5


  24736451.557 6 129990933.617 6 101291687.059 4  24736463.253 4  24736451.151 4
  24736465.364 5

  27535546.705 5 144700241.255 5

  27535559.517 5 110874243.099 5


  28760437.681 3
  23982713.287 8 126030004.974 8
                  23982717.013 5  94113326.628 5  23982712.488 6 102297076.660 6
  23982719.994 8  96568470.619 8


  26826466.993 4 108019028.058 4
  26714290.498 6 140384516.077 6

  26714299.546 6 107567380.727 6
  25301778.840 7 132961772.247 7

  25301787.335 7 101879845.034 7
  37209212.349 7 195535716.802 7


  19954938.651 8 106820342.930 8  83082535.836 7
  19954950.127 7

  20727808.144 7 110996476.434 7  86330650.332 7
  20727819.474 7

  26789970.288 6 140782230.544 6

  26789978.795 6 107872124.909 6
  24519391.071 5


  20596686.063 8 109985135.226 8  85544035.421 7
  20596697.447 7

  22067971.329 7 117924617.363 7  91719237.552 6
  22067984.015 6

  23489919.047 7 123440383.418 7  96187358.772 5  23489927.208 5  23489918.278 5
  23489927.432 6

 24 11 23 18 31  0.0000000  0 26G02G03G04G31S31S35G09E29E30G26R10G16
                                G06E02E07E08E26E27S33R07R08E33R23R09
                                R11G07
  25565461.186 4


  20434025.490 8 107381519.072 8  83673937.544 8  20434032.813 8  20434025.249 8
  20434033.321 7  20434027.425 5  80187499.295 5

  20856185.066 7 109599992.464 7  85402618.032 6  20856191.156 6  20856184.624 6
  20856191.410 7

  23517117.440 6 123583246.031 6  96298652.918 5  23517126.241 5  23517117.025 5
  23517126.883 6

  37076718.651 7 194839489.152 7


  37125899.237 7 195097919.387 7


  22223428.848 7 116784920.754 7  91001278.147 6  22223437.821 6  22223428.263 6
  22223438.266 6

  25391543.737 7 133433470.782 7

  25391550.493 7 102241257.072 7
  24808990.215 7 130372125.924 7
                                                  24808990.135 5 105821526.788 5
  24808997.122 7  99895552.296 7
  22248583.987 7 116917083.039 7  91104253.989 6  22248593.909 6  22248583.317 6
  22248593.971 6

  19326895.741 7 103023234.335 7


  21040445.257 7 110568291.445 7  86157135.458 5  21040449.691 5  21040444.242 5


  24735995.559 6 129988544.301 6 101289825.197 4  24736008.578 4  24735995.121 4
  24736009.318 5

  27547966.881 5 144765508.781 5

  27547979.578 4 110924253.072 4
  23983403.489 8 126033631.634 8
                  23983406.799 5  94116034.780 5  23983402.686 6 102300020.301 6
  23983410.179 8  96571249.433 8
  26835430.172 4 141021113.548 4

  26835441.546 4 108055163.819 4
  26728035.513 6 140456746.420 6

  26728044.814 6 107622725.909 6
  25287375.599 7 132886082.338 7

  25287383.832 7 101821848.908 7
  37209214.867 7 195535729.210 7


  19957310.019 7 106833035.615 7  83092407.916 7
  19957321.496 7

  20713869.897 7 110921842.017 7  86272601.398 7
  20713881.286 7

  26794099.994 6 140803932.524 6

  26794108.333 6 107888753.587 6
  24535629.772 4 131249089.85714


  20612222.020 8 110068095.838 8  85608560.269 7
  20612233.288 7

  22046106.351 6 117807776.661 6  91628361.566 6
  22046119.184 6

  23478028.336 7 123377897.220 7  96138668.358 5  23478036.126 5  23478027.599 5
  23478036.178 6

 24 11 23 18 31 30.0000000  0 27G02G03G04G31S31S35G09E29E30R06G26R10
                                G16G06E02E07E08E26E27S33R07R08E33R23
                                R09R11G07
  25578855.833 4


  20442480.811 8 107425952.023 8  83708560.580 8  20442487.797 8  20442480.566 8
  20442488.776 7  20442482.547 5  80220679.683 5

  20850336.664 7 109569258.873 7  85378669.763 6  20850342.640 6  20850336.217 6
  20850343.074 7

  23535219.330 6 123678371.489 6  96372776.486 5  23535228.125 5  23535218.915 5
  23535228.931 5

  37076718.521 7 194839504.651 7


  37125890.790 7 195097878.170 7


  22210456.402 7 116716751.765 7  90948159.511 6  22210465.448 6  22210455.790 6
  22210465.834 6

  25382710.239 7 133387050.802 7

  25382717.142 7 102205688.538 7
  24808330.490 7 130368659.155 7
                                                  24808329.950 5 105818712.820 5
  24808337.418 7  99892895.898 7
  22883695.287 3


  22260728.551 7 116980903.044 7  91153983.742 6  22260738.545 6  22260727.881 6
  22260738.800 6

  19323619.322 7 103005767.238 7


  21037233.407 7 110551414.626 7  86143984.716 5  21037238.252 5  21037232.392 5


  24735637.963 6 129986657.707 6 101288355.077 4  24735650.008 4  24735637.548 4
  24735650.142 5

  27560437.900 5 144831042.419 5

  27560450.726 4 110974466.977 4
  23984112.539 8 126037357.895 8
                  23984116.124 5  94118817.354 5  23984111.820 6 102303044.815 6
  23984119.406 8  96574104.563 8
  26844420.717 4 141068359.165 4

  26844431.794 4 108091364.821 4
  26741805.125 6 140529104.838 6

  26741814.360 6 107678169.231 6
  25273014.747 7 132810615.693 7

  25273023.009 7 101764023.864 7
  37209219.709 7 195535743.005 7


  19959768.191 8 106846196.429 8  83102644.077 7
  19959779.656 7

  20699970.374 7 110847409.398 7  86214709.421 7
  20699981.808 7

  26798303.855 6 140826022.989 6

  26798312.304 6 107905679.971 6
  24551901.753 4


  20627850.596 8 110151551.909 8  85673470.497 7
  20627862.312 7

  22024307.271 7 117691283.674 7  91537756.018 6
  22024318.672 6

  23466178.901 7 123315628.731 7  96090147.584 5  23466186.411 5  23466178.173 5
  23466186.587 6

 24 11 23 18 32  0.0000000  0 27G02G03G04G31S31S35G09E29E30R06G26R10
                                G16G06E02E07E08E26E27S33R07R08E33R23
                                R09R11G07
  25592223.490 4


  20451041.177 8 107470936.825 8  83743613.627 8  20451048.249 8  20451040.936 8
  20451049.006 7  20451042.442 5  80254272.203 5

  20844522.461 7 109538703.798 7  85354860.608 6  20844528.462 6  20844522.019 6
  20844528.536 7

  23553326.699 6 123773524.999 6  96446921.909 5  23553335.647 5  23553326.284 5
  23553336.128 5

  37076727.178 7 194839521.934 7


  37125882.589 7 195097837.518 7


  22197499.369 7 116648659.147 7  90895100.375 6  22197507.624 6  22197498.770 6
  22197507.900 6

  25373878.604 7 133340641.077 7

  25373885.679 7 102170127.877 7
  24807752.200 7 130365619.894 7
                                                  24807751.821 5 105816245.863 5
  24807759.074 7  99890567.082 7
  22899974.994 3


  22272966.871 7 117045216.000 7  91204097.615 6  22272977.278 6  22272966.201 6
  22272977.617 6

  19320487.878 7 102989075.472 7


  21034146.813 7 110535193.670 7  86131345.037 5  21034151.800 5  21034145.798 5


  24735373.102 5 129985272.718 5 101287275.809 3  24735385.637 3  24735372.655 3
  24735387.075 5

  27572959.182 5 144896840.275 5

  27572971.925 4 111024883.322 4
  23984840.676 8 126041184.007 8
                  23984844.177 5  94121674.443 5  23984840.153 6 102306150.388 6
  23984847.540 8  96577036.201 8
  26853427.991 4 141115689.807 4

  26853439.515 4 108127631.114 4
  26755598.647 6 140601588.790 6

  26755607.801 6 107733708.738 6
  25258696.729 7 132735373.755 7

  25258704.939 7 101706370.997 7
  37209218.010 7 195535757.715 7


  19962314.553 8 106859827.119 8  83113245.726 7
  19962326.320 7

  20686109.616 7 110773180.539 7  86156975.963 7
  20686119.857 7

  26802580.912 6 140848500.548 6

  26802589.615 6 107922902.940 6
  24568203.303 4


  20643571.248 8 110235499.151 8  85738762.732 7
  20643582.915 7

  22002572.595 7 117575141.332 7  91447423.183 6
  22002584.056 6

  23454371.081 7 123253577.623 7  96041796.188 5  23454378.157 5  23454370.371 5
  23454377.874 6

 24 11 23 18 32 30.0000000  0 26G02G03G04G31S31S35G09E29E30G26R10G16
                                G06E02E07E08E26E27S33R07R08E33R23R09
                                R11G07
  25605539.660 4


  20459705.723 8 107516468.686 8  83779092.954 8  20459713.028 8  20459705.482 8
  20459713.334 7  20459707.597 5  80288273.200 5

  20838741.518 7 109508324.639 7  85331188.534 6  20838747.302 6  20838741.080 6
  20838747.683 7

  23571437.917 6 123868701.248 6  96521085.058 5  23571447.123 5  23571437.506 5
  23571448.056 5

  37076725.215 7 194839536.960 7


  37125874.228 7 195097794.481 7


  22184555.841 7 116580640.176 7  90842098.632 6  22184563.994 6  22184555.242 6
  22184564.608 6

  25365048.528 7 133294238.222 7

  25365055.528 7 102134572.485 7
  24807254.484 7 130363004.586 7
                                                  24807254.338 5 105814123.014 5
  24807261.432 7  99888563.125 7
  22285298.197 7 117110016.008 7  91254591.010 6  22285308.546 6  22285297.518 6
  22285308.788 6

  19317501.318 7 102973155.056 7


  21031184.224 7 110519625.869 7  86119214.301 5  21031189.194 5  21031183.209 5


  24735204.631 6 129984384.990 6 101286583.997 3  24735217.079 3  24735204.149 3
  24735219.162 5

  27585529.531 5 144962897.133 5

  27585542.309 4 111075498.159 4
  23985587.168 8 126045106.935 8
                  23985591.125 5  94124603.847 5  23985586.658 6 102309334.544 6
  23985594.091 8  96580042.024 8
  26862448.622 3 141163102.566 3

  26862462.066 4 108163960.187 4
  26769414.987 6 140674192.433 6

  26769424.080 6 107789339.952 6
  25244420.883 7 132660354.621 7

  25244429.150 7 101648888.871 7
  37209225.590 7 195535769.545 7


  19964948.336 7 106873925.240 7  83124210.930 7
  19964960.031 7

  20672284.365 7 110699155.168 7  86099400.730 7
  20672296.067 7

  26806930.906 6 140871360.466 6

  26806939.845 6 107940418.877 6
  24584540.497 5


  20659382.176 8 110319930.170 8  85804431.236 7
  20659393.980 7

  21980903.737 7 117459348.952 7  91357362.519 6
  21980915.769 6

  23442604.052 6 123191740.240 6  95993611.339 5  23442610.617 5  23442603.413 5
  23442611.196 5

 24 11 23 18 33  0.0000000  0 27G02G03G04G31S31S35G09E29E30R06G26R10
                                G16G06E02E07E08E26E27S33R07R08E33R23
                                R09R11G07
  25618820.978 4


  20468474.563 8 107562548.999 8  83814999.640 8  20468481.885 8  20468474.318 8
  20468482.426 7  20468476.092 5  80322683.750 5

  20832994.654 7 109478124.959 7  85307656.312 6  20833000.646 6  20832994.221 6
  20833000.834 7

  23589553.840 6 123963901.127 6  96595266.625 4  23589562.936 4  23589553.451 4
  23589563.438 5

  37076727.483 7 194839551.114 7


  37125866.961 7 195097751.948 7


  22171626.566 7 116512698.432 7  90789157.071 6  22171635.013 6  22171625.981 6
  22171635.241 6

  25356220.152 7 133247845.069 7

  25356227.200 7 102099024.522 7
  24806837.998 7 130360815.794 7
                                                  24806838.116 5 105812346.396 5
  24806844.922 7  99886885.987 7
  22932715.619 3


  22297722.032 7 117175303.368 7  91305464.159 6  22297732.274 6  22297721.353 6
  22297732.424 6

  19314659.323 7 102958008.812 7


  21028346.712 8 110504714.535 8  86107595.096 5  21028351.641 5  21028345.697 5


  24735131.099 6 129983996.375 6 101286281.093 3  24735142.403 3  24735130.429 3
  24735141.925 5

  27598149.059 5 145029213.876 5

  27598162.784 4 111126312.106 4
  23986352.732 8 126049129.818 8
                  23986356.574 5  94127607.892 5  23986351.834 6 102312599.814 6
  23986359.672 8  96583124.436 8
  26871487.700 3

  26871500.855 4 108200354.331 4
  26783253.560 6 140746916.108 6

  26783263.221 6 107845063.134 6
  25230188.382 7 132585562.651 7

  25230196.666 7 101591580.798 7
  37209226.940 7 195535781.878 7


  19967670.571 8 106888495.085 8  83135543.020 7
  19967681.465 7

  20658499.982 7 110625338.526 7  86041987.873 7
  20658510.737 7

  26811354.448 6 140894604.132 6

  26811363.087 6 107958228.889 6
  24600896.445 5


  20675284.051 8 110404844.329 8  85870475.530 7
  20675295.688 7

  21959300.566 7 117343912.747 7  91267578.885 6
  21959312.158 6

  23430877.386 7 123130118.966 7  95945594.870 5  23430884.114 5  23430876.805 5
  23430885.384 5

 24 11 23 18 33 30.0000000  0 26G02G03G04G31S31S35G09E29E30G26R10G16
                                G06E02E07E08E26E27S33R07R08E33R23R09
                                R11G07
  25632063.661 4


  20477347.953 8 107609178.842 8  83851334.534 8  20477355.135 8  20477347.708 8
  20477356.037 7  20477349.371 5  80357504.695 5

  20827282.698 7 109448108.086 7  85284266.551 6  20827288.609 6  20827282.269 6
  20827288.750 7

  23607674.848 6 124059125.396 6  96669467.189 4  23607683.631 4  23607674.428 4
  23607684.778 5

  37076733.416 8 194839568.234 8


  37125860.670 7 195097711.422 7


  22158712.722 7 116444837.172 7  90736278.225 6  22158721.334 6  22158712.123 6
  22158722.417 6

  25347394.209 7 133201464.144 7

  25347401.118 7 102063485.941 7
  24806503.113 7 130359055.867 7
                                                  24806503.094 5 105810917.881 5
  24806509.918 7  99885537.461 7
  22310238.420 7 117241078.067 7  91356717.057 6  22310248.954 6  22310237.750 6
  22310249.357 6

  19311963.726 7 102943638.340 7


  21025634.860 8 110490462.941 8  86096489.977 6  21025639.655 6  21025633.845 6


  24735153.253 6 129984108.283 6 101286368.226 3  24735164.327 3  24735152.551 3
  24735164.748 5

  27610819.363 4 145095791.111 4

  27610832.144 4 111177325.588 4
  23987137.949 8 126053255.535 8
                  23987141.143 5  94130688.678 5  23987136.997 6 102315948.565 6
  23987144.823 8  96586285.646 8
  26880543.465 3

  26880555.104 4 108236815.702 4
  26797115.635 6 140819759.921 6

  26797125.019 6 107900878.372 6
  25215999.817 7 132511001.870 7

  25216008.005 7 101534449.885 7
  37209225.183 7 195535796.165 7


  19970480.962 8 106903539.974 8  83147244.566 7
  19970491.950 7

  20644755.489 7 110551735.642 7  85984741.239 7
  20644766.423 7

  26815850.538 6 140918232.745 6

  26815859.595 6 107976333.862 6
  24617284.566 5 131685882.47415


  20691275.696 8 110490239.457 8  85936893.907 7
  20691287.401 7

  21937765.981 7 117228837.731 7  91178076.190 6
  21937778.460 6

  23419192.881 7 123068716.261 7  95897748.720 5  23419199.464 5  23419192.287 5
  23419199.353 5

 24 11 23 18 34  0.0000000  0 26G02G03G04G31S31S35G09E29E30G26R10G16
                                G06E02E07E08E26E27S33R07R08E33R23R09
                                R11G07
  25645263.269 4


  20486325.085 8 107656353.853 8  83888094.233 8  20486332.200 8  20486324.844 8
  20486333.013 7  20486326.717 5  80392732.727 5

  20821604.813 7 109418271.904 7  85261017.584 6  20821610.779 6  20821604.380 6
  20821611.197 7  20821609.420 5  81708466.12015

  23625799.245 6 124154369.267 6  96743683.041 4  23625808.365 4  23625798.807 4
  23625809.168 5

  37076734.570 7 194839584.060 7


  37125851.838 7 195097669.996 7


  22145814.376 7 116377054.250 7  90683460.419 6  22145822.617 6  22145813.800 6
  22145823.137 6

  25338569.999 7 133155092.581 7

  25338576.728 7 102027954.537 7
  24806249.267 7 130357721.645 7
                                                  24806248.652 5 105809834.917 5
  24806255.995 7  99884515.136 7
  22322847.139 7 117307334.657 7  91408345.453 6  22322857.074 6  22322846.469 6
  22322857.134 6

  19309412.795 7 102930040.401 7


  21023047.949 8 110476868.919 8  86085897.248 5  21023052.616 5  21023046.939 5


  24735268.545 5 129984716.863 5 101286842.361 3  24735279.485 3  24735267.799 3
  24735281.267 5

  27623536.654 4 145162624.115 4

  27623549.881 4 111228535.075 4
  23987942.066 8 126057481.536 8
                  23987945.644 5  94133844.390 5  23987941.449 6 102319378.726 6
  23987949.188 8  96589523.697 8
  26889617.617 3

  26889626.710 4 108273342.147 4
  26810999.300 6 140892718.521 6

  26811008.590 6 107956781.564 6
  25201855.126 7 132436670.901 7

  25201863.278 7 101477495.070 7
  37209231.881 7 195535809.671 7


  19973380.257 8 106919058.336 8  83159314.391 7
  19973391.097 7

  20631049.434 7 110478346.301 7  85927660.705 7
  20631061.216 7

  26820419.829 6 140942242.044 6

  26820428.359 6 107994730.521 6
  24633697.549 5 131773689.338 5


  20707356.453 7 110576108.923 7  86003681.194 7
  20707367.840 7

  21916297.849 7 117114124.179 7  91088854.679 6
  21916311.084 6

  23407549.647 7 123007528.793 7  95850070.272 5  23407555.565 5  23407549.044 5
  23407556.689 5

 24 11 23 18 34 30.0000000  0 26G02G03G04G31S31S35G09E29E30G26R10G16
                                G06E02E07E08E26E27S33R07R08E33R23R09
                                R11G07
  25658422.333 3


  20495405.690 8 107704072.172 8  83925277.285 8  20495412.791 8  20495405.449 8
  20495413.604 7  20495407.242 5  80428366.498 5

  20815961.603 7 109388616.847 7  85237909.758 6  20815967.735 6  20815961.170 6
  20815967.780 7  20815965.947 5  81686321.098 5

  23643926.796 6 124249630.519 6  96817912.421 4  23643936.292 4  23643926.358 4
  23643937.126 5

  37076739.681 7 194839597.931 7


  37125844.205 7 195097627.226 7


  22132930.598 7 116309349.998 7  90630703.913 6  22132939.215 6  22132930.017 6
  22132939.488 6

  25329747.473 7 133108730.005 7

  25329754.366 7 101992430.011 7
  24806076.193 7 130356812.497 7
                                                  24806076.017 5 105809096.950 5
  24806083.080 7  99883818.518 7
  22335546.251 7 117374070.211 7  91460347.077 6  22335556.317 6  22335545.585 6
  22335557.061 6

  19307006.718 7 102917213.611 7


  21020586.252 8 110463932.526 8  86075816.951 5  21020590.706 5  21020585.242 5


  24735478.389 5 129985820.565 5 101287702.313 3  24735490.278 3  24735477.661 3
  24735491.020 5

  27636303.203 4 145229710.522 4

  27636316.140 4 111279938.739 4
  23988765.494 8 126061807.765 8
                  23988769.341 5  94137075.011 5  23988764.929 6 102322890.235 6
  23988772.431 8  96592838.545 8
  26898703.171 3

  26898713.783 4 108309933.476 4
  26824904.297 6 140965789.071 6

  26824913.779 6 108012770.540 6
  25187754.172 7 132362570.845 7

  25187762.430 7 101420717.194 7
  37209231.277 7 195535820.972 7


  19976367.096 8 106935051.415 8  83171753.430 7
  19976378.986 7

  20617385.743 7 110405172.614 7  85870747.895 7
  20617397.098 7

  26825060.797 6 140966630.197 6

  26825069.303 6 108013417.467 6
  24650141.977 5 131861634.666 5


  20723525.254 7 110662447.999 7  86070833.721 7
  20723536.643 7

  21894899.184 7 116999774.464 7  90999916.128 6
  21894910.911 6

  23395946.610 6 122946555.804 6  95802558.955 5  23395952.661 5  23395946.074 5
  23395953.749 5

 24 11 23 18 35  0.0000000  0 26G02G03G04G31S31S35G09E29E30G26R10G16
                                G06E02E07E08E26E27S33R07R08E33R23R09
                                R11G07
  25671548.039 3


  20504590.077 8 107752337.006 8  83962886.188 8  20504597.320 8  20504589.836 8
  20504598.199 7  20504591.744 5  80464408.342 5

  20810354.038 7 109359148.449 7  85214947.385 6  20810360.088 6  20810353.605 6
  20810360.141 7  20810358.543 5  81664315.494 5

  23662057.837 6 124344911.938 6  96892157.499 4  23662068.131 4  23662057.350 4
  23662069.310 5

  37076741.175 7 194839615.727 7


  37125836.760 7 195097587.737 7


  22120062.578 7 116241729.920 7  90578012.991 6  22120071.477 6  22120061.993 6
  22120071.856 6

  25320927.587 7 133062381.220 7

  25320934.216 7 101956916.052 7
  24805984.789 8 130356332.849 8
                                                  24805984.628 5 105808707.661 5
  24805991.968 7  99883451.009 7
  22348337.247 7 117441286.876 7  91512723.593 6  22348347.411 6  22348336.590 6
  22348347.851 6

  19304746.184 7 102905162.294 7


  21018250.648 7 110451658.978 7  86066253.156 6  21018255.290 6  21018249.638 6


  24735783.806 5 129987423.076 5 101288950.930 4  24735795.479 4  24735783.109 4
  24735796.659 5

  27649118.392 4 145297053.207 4

  27649132.462 4 111331538.732 4
  23989608.811 8 126066239.370 8
                  23989612.676 5  94140384.210 5  23989607.829 6 102326487.278 6
  23989615.634 8  96596234.137 8
  26907806.264 3

  26907818.705 4 108346593.503 4
  26838830.621 6 141038973.865 6

  26838840.743 6 108068847.040 6
  25173698.639 7 132288707.965 7

  25173706.830 7 101364121.053 7
  37209235.999 7 195535835.930 7


  19979444.783 7 106951524.535 7  83184565.838 7
  19979456.291 7

  20603762.170 7 110332222.096 7  85814008.645 7
  20603773.624 7

  26829774.343 6 140991400.540 6

  26829782.869 6 108032397.289 6
  24666607.877 5


  20739782.005 7 110749257.378 7  86138352.051 7
  20739793.380 7

  21873569.157 7 116885796.324 7  90911266.540 6
  21873582.372 6

  23384385.786 7 122885801.735 7  95755218.213 5  23384391.858 5  23384385.286 5
  23384392.273 5

 24 11 23 18 35 30.0000000  0 26G02G03G04G31S31S35G09E29E30G26R10G16
                                G06E02E07E08E26E27S33R07R08E33R23R09
                                R11G07
  25684644.831 3


  20513877.525 8 107801141.971 8  84000915.973 8  20513884.643 8  20513877.284 8
  20513885.414 7  20513879.020 5  80500853.530 5

  20804780.913 7 109329862.655 7  85192127.303 6  20804786.988 6  20804780.480 6
  20804787.425 7  20804785.566 5  81642446.235 5

  23680192.759 6 124440206.880 6  96966413.108 4  23680202.322 4  23680192.299 4
  23680202.308 5

  37076743.428 7 194839630.616 7


  37125827.195 7 195097546.223 7


  22107210.333 7 116174189.960 7  90525384.493 7  22107218.938 7  22107209.739 7
  22107219.243 6

  25312109.276 7 133016041.370 7

  25312116.046 7 101921408.938 7
  24805974.464 7 130356277.616 7
                                                  24805973.999 5 105808662.807 5
  24805981.451 7  99883408.698 7
  22361218.544 7 117508977.248 7  91565469.238 6  22361228.720 6  22361217.883 6
  22361229.076 6

  19302629.466 7 102893880.867 7


  21016040.375 8 110440044.025 8  86057202.548 6  21016045.311 6  21016039.365 6


  24736183.145 5 129989518.409 5 101290583.582 4  24736194.540 4  24736182.533 4
  24736196.870 5

  27661980.645 4 145364645.370 4

  27661993.824 4
  23990471.304 8 126070771.824 8
                  23990475.292 5  94143768.809 5  23990470.624 6 102330166.185 6
  23990478.250 8  96599707.019 8
  26916929.416 3


  26852778.090 6 141112265.618 6

  26852788.006 6 108125005.474 6
  25159687.207 7 132215078.888 7

  25159695.667 7 101307704.074 7
  37209238.785 7 195535848.306 7


  19982611.330 7 106968474.605 7  83197749.182 7
  19982622.888 7

  20590180.344 7 110259492.472 7  85757441.247 7
  20590192.318 7

  26834559.555 6 141016546.768 6

  26834568.100 6 108051665.138 6
  24683094.446 4 132037933.49714


  20756125.268 8 110836528.137 8  86206229.227 7
  20756136.692 7

  21852308.253 7 116772187.500 7  90822904.248 6
  21852322.343 6

  23372864.503 7 122825261.776 7  95708044.310 5  23372871.657 5  23372863.962 5
  23372871.758 6

 24 11 23 18 36  0.0000000  0 25G03G04G31S31S35G09E29E30G26R10G16G06
                                E02E07E08E26E27S33R07R08E33R23R09R11
                                G07
  20523268.450 8 107850492.292 8  84039370.706 8  20523275.918 8  20523268.209 8
  20523276.761 7  20523270.350 5  80537705.959 5

  20799244.366 7 109300767.044 7  85169455.418 6  20799250.632 6  20799243.933 6
  20799250.543 7  20799248.974 5  81620719.060 5

  23698330.279 6 124535520.325 6  97040683.136 4  23698340.019 4  23698329.819 4
  23698340.061 5

  37076749.604 7 194839649.840 7


  37125819.562 7 195097509.213 7


  22094374.690 7 116106737.628 7  90472824.275 6  22094383.065 6  22094374.087 6
  22094383.363 6

  25303294.107 7 132969717.244 7

  25303300.973 7 101885913.854 7
  24806045.786 7 130356653.198 7
                                                  24806045.386 5 105808967.685 5
  24806052.908 7  99883696.488 7
  22374190.645 7 117577145.446 7  91618587.208 6  22374200.728 6  22374189.997 6
  22374200.896 6

  19300659.109 7 102883375.517 7


  21013956.649 8 110429094.772 8  86048670.664 6  21013961.808 6  21013955.639 6


  24736675.747 6 129992112.211 6 101292604.662 4  24736688.360 4  24736675.162 4
  24736690.866 5

  27674890.673 4 145432491.912 4

  27674905.004 4
  23991354.339 8 126075412.243 8
                  23991357.926 5  94147234.019 5  23991353.610 6 102333932.719 6
  23991361.467 8  96603262.619 8
  26926069.063 3

  26926078.223 4 108420114.102 4
  26866745.968 6 141185668.605 6

  26866755.955 6 108181249.156 6
  25145722.191 7 132141691.840 7

  25145730.504 7 101251472.548 7
  37209239.818 7 195535864.927 7


  19985868.661 8 106985909.297 8  83211309.471 7
  19985879.409 7

  20576641.347 7 110186993.152 7  85701052.932 7
  20576653.210 7

  26839417.524 6 141042074.244 6

  26839426.383 6 108071225.083 6
  24699610.896 5 132126276.433 5


  20772555.418 8 110924262.903 8  86274467.295 7
  20772566.593 7

  21831119.097 7 116658958.146 7  90734837.068 6
  21831133.445 6

  23361386.151 7 122764942.130 7  95661042.071 5  23361393.181 5  23361385.570 5
  23361393.517 6

 24 11 23 18 36 30.0000000  0 25G03G04G31S31S35G09E29E30G26R10G16G06
                                E02E07E08E26E27S33R07R08E33R23R09R11
                                G07
  20532761.764 8 107900378.461 8  84078242.984 8  20532769.178 8  20532761.519 8
  20532769.646 7  20532763.710 5  80574958.551 5

  20793742.407 7 109271854.514 7  85146926.204 6  20793748.394 6  20793741.978 6
  20793748.574 7  20793746.913 5  81599128.547 5

  23716470.084 6 124630842.716 6  97114960.134 4  23716479.371 4  23716469.606 4
  23716479.799 5

  37076751.285 7 194839665.450 7


  37125814.124 7 195097468.371 7


  22081554.319 7 116039365.791 7  90420326.777 7  22081562.655 7  22081553.716 7
  22081563.056 6

  25294480.203 7 132923400.989 7

  25294487.306 7 101850424.826 7
  24806197.694 7 130357451.380 7
                                                  24806197.344 5 105809615.553 5
  24806204.679 7  99884308.092 7
  22387251.436 7 117645780.948 7  91672069.312 6  22387261.917 6  22387250.793 6
  22387262.541 6

  19298832.128 7 102873637.033 7


  21011998.556 8 110418803.692 8  86040651.643 6  21012003.443 6  21011997.555 6


  24737263.222 5 129995195.363 5 101295007.056 4  24737275.412 4  24737262.735 4
  24737276.519 5

  27687849.114 4 145500583.029 4

  27687863.171 4
  23992256.513 8 126080153.086 8
                  23992260.033 5  94150774.216 5  23992255.572 6 102337780.780 6
  23992263.680 8  96606895.173 8
  26935221.938 4

  26935232.466 4 108456974.052 4
  26880733.530 6 141259172.478 6

  26880743.809 6 108237570.132 6
  25131801.867 7 132068540.405 7

  25131809.951 7 101195421.552 7
  37209243.476 7 195535877.689 7


  19989214.265 8 107003821.615 8  83225241.215 7
  19989225.607 7

  20563145.403 7 110114718.873 7  85644839.682 7
  20563156.077 7

  26844345.741 6 141067973.539 6

  26844354.732 6 108091069.948 6
  24716147.347 4


  20789069.683 8 111012449.736 8  86343056.959 7
  20789081.012 7

  21810000.318 7 116546102.636 7  90647060.699 6
  21810013.483 6

  23349948.635 6 122704834.250 6  95614204.836 5  23349955.115 5  23349948.117 5
  23349955.542 6

 24 11 23 18 37  0.0000000  0 25G03G04G31S31S35G09E29E30G26R10G16G06
                                E02E07E08E26E27S33R07R08E33R23R09R11
                                G07
  20542357.060 8 107950802.532 8  84117534.405 8  20542364.461 8  20542356.815 8
  20542365.147 7  20542358.705 5  80612612.822 5

  20788276.391 7 109243129.556 7  85124543.155 6  20788282.265 6  20788275.958 6
  20788282.526 7  20788280.961 5  81577678.110 5

  23734611.289 6 124726175.595 6  97189245.304 4  23734620.972 4  23734610.816 4
  23734620.996 5

  37076753.382 7 194839680.184 7


  37125807.681 7 195097427.007 7


  22068749.785 7 115972078.952 7  90367895.515 7  22068758.700 7  22068749.191 7
  22068759.302 6

  25285668.803 7 132877096.358 7

  25285675.655 7 101814944.676 7
  24806430.810 7 130358675.498 7
                                                  24806430.280 5 105810609.173 5
  24806437.637 7  99885246.059 7
  22400401.883 7 117714884.782 7  91725916.350 6  22400412.091 6  22400401.235 6
  22400411.834 6

  19297149.198 7 102864668.486 7


  21010166.384 8 110409174.974 8  86033148.741 6  21010171.182 6  21010165.387 6


  24737942.913 6 129998770.374 6 101297792.699 4  24737955.381 4  24737942.480 4
  24737958.176 5

  27700852.540 4 145568920.324 4

  27700867.548 4
  23993178.566 8 126084998.379 8
                  23993182.571 5  94154392.388 5  23993177.700 5 102341713.618 5
  23993185.612 8  96610607.763 8
  26944392.172 3

  26944403.775 3 108493901.404 3
  26894740.512 6 141332778.486 6

  26894750.763 6 108293969.351 6
  25117927.498 7 131995629.737 7

  25117935.411 7 101139555.032 7
  37209245.810 7 195535890.333 7


  19992650.616 8 107022216.648 8  83239548.446 7
  19992662.244 7

  20549691.901 7 110042676.003 7  85588806.408 7
  20549702.438 7

  26849345.839 6 141094246.901 6

  26849354.567 6 108111201.430 6
  24732701.919 4 132303301.13714


  20805668.677 8 111101088.334 8  86411997.969 7
  20805680.208 7

  21788951.596 7 116433627.797 7  90559580.367 6
  21788965.010 6

  23338550.714 7 122644941.604 7  95567535.323 5  23338558.013 5  23338550.205 5
  23338558.139 6

 24 11 23 18 37 30.0000000  0 25G03G04G31S31S35G09E29E30G26R10G16G06
                                E02E07E08E26E27S33R07R08E33R23R09R11
                                G07
  20552054.693 8 108001763.928 8  84157244.521 8  20552062.096 8  20552054.452 8
  20552062.798 7  20552056.368 5  80650668.358 5

  20782845.975 7 109214594.025 7  85102307.708 6  20782852.182 6  20782845.537 6
  20782852.191 7  20782850.912 5  81556369.167 5

  23752754.584 6 124821518.337 6  97263538.150 5  23752764.173 5  23752754.115 5
  23752764.662 6

  37076755.260 7 194839695.082 7


  37125799.028 7 195097386.310 7


  22055961.844 7 115904878.891 7  90315531.878 7  22055971.063 7  22055961.250 7
  22055970.728 6

  25276859.672 7 132830804.400 7

  25276866.639 7 101779474.245 7
  24806744.774 7 130360326.207 7
                                                  24806744.743 5 105811949.043 5
  24806751.695 7  99886510.907 7
  22413640.481 7 117784455.333 7  91780127.058 6  22413650.742 6  22413639.820 6
  22413650.904 6

  19295611.190 7 102856469.831 7


  21008460.068 8 110400209.912 8  86026162.981 6  21008465.169 6  21008459.071 6


  24738717.080 6 130002837.017 6 101300961.436 4  24738729.843 4  24738716.674 4
  24738730.891 5

  27713903.882 3

  27713917.277 3
  23994120.813 8 126089949.487 8
                  23994124.519 5  94158089.591 5  23994119.840 6 102345732.330 6
  23994127.737 8  96614401.434 8
  26953579.773 4

  26953591.956 3
  26908766.856 6 141406485.110 6

  26908776.742 6 108350445.689 6
  25104099.229 7 131922962.277 7

  25104107.094 7 101083874.884 7
  37209247.509 7 195535902.266 7


  19996177.669 8 107041096.303 8  83254232.565 7
  19996189.485 7

  20536282.317 7 109970868.220 7  85532955.955 7
  20536292.808 7

  26854416.745 6 141120893.832 6

  26854425.194 6 108131619.131 6
  24749287.977 5 132391994.379 5


  20822351.702 8 111190175.460 8  86481287.854 7
  20822363.886 7

  21767975.951 7 116321537.495 7  90472399.141 6
  21767988.861 6

  23327194.534 7 122585265.064 7  95521034.199 5  23327201.916 5  23327194.007 5
  23327202.773 6

 24 11 23 18 38  0.0000000  0 25G03G04G31S31S35G09E29E30G26R10G16G06
                                E02E07E08E26E27S33R07R08E33R23R09R11
                                G07
  20561854.093 8 108053259.830 8  84197371.132 8  20561861.585 8  20561853.843 8
  20561862.036 7  20561856.364 5  80689123.004 5

  20777451.973 7 109186247.608 7  85080219.629 6  20777457.862 6  20777451.540 6
  20777458.241 7  20777456.260 5  81535201.433 5

  23770899.258 6 124916868.547 6  97337836.822 5  23770908.672 5  23770898.780 5
  23770909.399 6

  37076756.602 7 194839709.300 7


  37125789.048 7 195097344.017 7


  22043190.877 7 115837765.277 7  90263235.602 7  22043199.608 7  22043190.283 7
  22043199.783 6

  25268052.723 7 132784524.025 7

  25268059.771 7 101744012.701 7
  24807139.889 7 130362402.045 7
                                                  24807139.075 5 105813633.973 5
  24807146.573 7  99888101.481 7
  22426967.800 7 117854488.790 7  91834698.479 6  22426977.702 6  22426967.139 6
  22426978.294 6

  19294217.060 7 102849039.145 7


  21006880.413 8 110391907.720 8  86019693.746 6  21006885.010 6  21006879.412 6


  24739583.612 6 130007392.884 6 101304511.362 4  24739596.493 4  24739583.206 4
  24739597.983 5

  27727000.871 3

  27727015.647 3
  23995083.046 8 126095005.648 8
                  23995086.999 5  94161865.289 5  23995082.425 6 102349836.333 6
  23995089.936 8  96618275.606 8
  26962785.382 4

  26962796.196 3
  26922811.159 6 141480288.792 6

  26922821.313 6 108406996.401 6
  25090317.289 7 131850538.372 7

  25090325.261 7 101028381.350 7
  37209253.864 7 195535913.666 7


  19999795.411 8 107060460.696 8  83269293.720 7
  19999806.897 7

  20522916.880 7 109899296.992 7  85477289.492 7
  20522927.540 7

  26859558.027 6 141147911.684 6

  26859566.565 6 108152321.077 6
  24765889.314 4


  20839118.469 7 111279705.602 7  86550922.299 7
  20839130.072 7

  21747071.241 7 116209833.378 7  90385518.242 6
  21747084.645 6

  23315879.690 6 122525803.094 6  95474700.277 5  23315886.525 5  23315879.243 5
  23315887.180 6

 24 11 23 18 38 30.0000000  0 25G03G04G31S31S35G09E29E30G26R10G16G06
                                E02E07E08E26E27S33R07R08E33R23R09R11
                                G07
  20571756.060 8 108105294.760 8  84237917.764 8  20571763.493 8  20571755.815 8
  20571764.164 7  20571757.987 5  80727980.172 5

  20772095.146 7 109158097.324 7  85058284.377 6  20772101.149 6  20772094.713 6
  20772101.497 7  20772099.764 5  81514180.154 5

  23789046.009 6 125012230.244 6  97412144.425 5  23789055.482 5  23789045.549 5
  23789056.091 5

  37076763.729 7 194839727.558 7


  37125782.492 7 195097307.327 7


  22030437.235 7 115770745.153 7  90211012.169 7  22030446.022 7  22030436.641 7
  22030446.093 6

  25259249.326 7 132738261.500 7

  25259256.022 7 101708564.819 7
  24807616.874 8 130364908.786 8
                                                  24807616.371 5 105815668.653 5
  24807623.592 7  99890022.223 7
  22440383.397 7 117924988.694 7  91889633.359 6  22440393.683 6  22440382.745 6
  22440393.805 6

  19292968.298 7 102842381.524 7


  21005428.003 8 110384274.773 8  86013745.994 6  21005432.323 6  21005427.006 6


  24740545.006 6 130012442.948 6 101308446.374 4  24740558.102 4  24740544.631 4
  24740558.467 5

  27740143.985 3

  27740157.657 3
  23996066.426 8 126100173.419 8
                  23996070.030 5  94165724.312 5  23996065.517 6 102354030.935 6
  23996073.483 8  96622235.291 8
  26972009.861 4

  26972018.784 3
  26936874.706 6 141554193.323 6

  26936884.964 6 108463624.365 6
  25076583.066 7 131778365.664 7

  25076591.118 7 100973080.296 7
  37209254.347 7 195535929.857 7


  20003504.764 8 107080316.705 8  83284737.233 7
  20003515.985 7

  20509597.463 7 109827971.284 7  85421813.978 7
  20509608.008 7

  26864770.812 6 141175305.187 6

  26864779.387 6 108173310.828 6
  24782508.336 5 132569713.05615


  20855967.969 7 111369681.288 7  86620903.280 7
  20855979.470 7

  21726241.465 7 116098524.326 7  90298944.691 6
  21726254.605 6

  23304606.231 7 122466561.577 7  95428538.131 5  23304613.327 5  23304605.878 5
  23304614.079 6

 24 11 23 18 39  0.0000000  0 25G03G04G31S31S35G09E29E30G26R10G16G06
                                E02E07E08E26E27S33R07R08E33R23R09R11
                                G07
  20581759.202 8 108157859.840 8  84278877.497 8  20581766.338 8  20581758.957 8
  20581767.015 7  20581760.810 5  80767233.209 5

  20766774.215 7 109130136.778 7  85036496.974 6  20766780.361 6  20766773.782 6
  20766780.520 7  20766778.493 5  81493300.587 5

  23807193.673 6 125107594.201 6  97486453.791 5  23807202.726 5  23807193.240 5
  23807203.696 5

  37076767.642 7 194839743.294 7


  37125775.311 7 195097267.649 7


  22017700.126 7 115703812.090 7  90158856.577 7  22017708.958 7  22017699.532 7
  22017709.386 6

  25250447.801 7 132692009.677 7

  25250454.789 7 101673125.137 7
  24808174.345 7 130367838.846 7
                                                  24808174.121 5 105818046.955 5
  24808181.221 7  99892267.324 7
  22453885.947 6 117995945.178 6  91944924.013 5  22453896.329 5  22453885.299 5
  22453896.412 6

  19291862.760 7 102836488.885 7


  21004101.257 8 110377304.291 8  86008314.449 6  21004106.151 6  21004100.256 6


  24741598.550 6 130017978.760 6 101312759.899 4  24741611.478 4  24741598.157 4
  24741612.487 5

  27753331.788 3

  27753348.018 3
  23997069.801 8 126105445.978 8
                  23997073.753 5  94169661.601 5  23997068.876 6 102358310.596 6
  23997076.749 8  96626275.270 8
  26981248.617 4

  26981257.201 3
  26950955.589 6 141628188.989 6

  26950965.878 6 108520322.155 6
  25062895.445 7 131706438.381 7

  25062903.704 7 100917967.291 7
  37209255.540 7 195535943.175 7


  20007304.779 8 107100658.418 8  83300558.517 7
  20007315.918 7

  20496322.690 7 109756886.494 7  85366525.847 7
  20496333.039 7

  26870053.187 6 141203065.586 6

  26870062.076 6 108194581.748 6
  24799154.967 3


  20872899.064 7 111460090.823 7  86691221.686 7
  20872910.422 7

  21705484.715 7 115987606.252 7  90212675.222 6
  21705497.708 6

  23293372.913 7 122407532.883 7  95382541.829 5  23293380.392 5  23293372.560 5
  23293381.392 6

 24 11 23 18 39 30.0000000  0 24G03G04G31S31S35G09E29E30G26R10G16G06
                                E02E07E08E26E27S33R07R08E33R09R11G07
  20591862.636 8 108210954.377 8  84320249.790 8  20591870.005 8  20591862.391 8
  20591870.726 7  20591864.797 5  80806881.641 5

  20761489.922 7 109102367.861 7  85014858.888 6  20761495.940 6  20761489.493 6
  20761496.194 7  20761494.402 5  81472564.049 5

  23825341.309 6 125202959.838 6  97560764.470 4  23825350.538 4  23825340.885 4
  23825350.847 5

  37076772.279 7 194839756.990 7


  37125768.049 7 195097226.402 7


  22004980.379 7 115636967.961 7  90106770.282 7  22004988.654 7  22004979.789 7
  22004988.952 6

  25241648.603 7 132645769.675 7

  25241655.559 7 101637694.505 7
  24808812.571 8 130371192.832 8
                                                  24808812.839 5 105820769.335 5
  24808819.651 7  99894837.246 7
  22467475.493 6 118067356.543 6  92000569.119 5  22467485.272 5  22467474.832 5
  22467485.882 6

  19290900.204 7 102831361.352 7


  21002901.256 7 110370997.662 7  86003400.190 5  21002906.057 5  21002900.259 5


  24742744.078 5 130024000.043 5 101317451.717 4  24742757.573 4  24742743.681 4
  24742758.638 5



  27766582.518 4
  23998093.344 8 126110824.715 8
                  23998097.246 5  94173678.160 5  23998092.483 6 102362676.426 6
  23998100.377 8  96630396.617 8
  26990503.150 4

  26990514.251 3
  26965053.906 6 141702274.340 6

  26965064.038 6 108577088.680 6
  25049255.251 7 131634758.988 7
                                                  25049257.754 5 106846376.94215
  25049263.523 7 100863044.243 7
  37209255.545 7 195535954.867 7


  20011195.835 8 107121487.888 8  83316759.164 7
  20011207.133 7

  20483093.838 7 109686046.478 7  85311428.112 7
  20483104.817 7

  26875405.890 6 141231192.320 6

  26875414.529 6 108216133.369 6
  20889910.157 7 111550931.178 7  86761875.186 7
  20889921.949 7

  21684801.775 7 115877082.519 7  90126712.461 6
  21684813.737 6

  23282180.651 7 122348717.389 7  95336711.650 5  23282188.100 5  23282180.258 5
  23282188.121 6

 24 11 23 18 40  0.0000000  0 24G03G04G31S31S35G09E29E30G26R10G16G06
                                E02E07E08E26E27S33R07R08E33R09R11G07
  20602067.317 8 108264581.051 8  84362036.738 8  20602074.749 8  20602067.072 8
  20602075.595 7  20602069.813 5  80846927.465 5

  20756243.289 7 109074795.845 7  84993374.232 6  20756249.363 6  20756242.856 6
  20756249.287 7  20756247.462 5  81451974.605 5

  23843489.334 6 125298329.859 6  97635078.573 4  23843498.962 4  23843488.896 4
  23843499.868 5

  37076771.519 7 194839772.160 7


  37125758.502 7 195097187.528 7


  21992277.902 7 115570218.042 7  90054757.404 7  21992286.344 7  21992277.299 7
  21992286.621 6

  25232852.584 7 132599546.008 7

  25232859.319 7 101602276.386 7
  24809532.281 7 130374974.746 7
                                                  24809531.963 5 105823839.055 5
  24809539.152 7  99897735.054 7
  22481151.431 6 118139224.497 6  92056570.019 5  22481161.251 5  22481150.761 5
  22481162.051 6

  19290082.611 7 102827001.848 7


  21001828.366 7 110365359.378 7  85999006.711 6  21001833.217 6  21001827.365 6


  24743982.707 6 130030509.773 6 101322524.143 4  24743997.093 4  24743982.278 4
  24743996.781 5



  27779862.915 4
  23999137.986 8 126116314.436 8
                  23999141.830 5  94177777.570 5  23999137.586 6 102367132.348 6
  23999145.068 8  96634603.005 8
  26999778.525 4

  26999789.384 3
  26979169.297 6 141776451.397 6

  26979179.463 6 108633925.479 6
  25035663.430 7 131563333.364 7
                                                  25035665.372 5 106788401.697 5
  25035671.603 7 100808315.627 7
  37209261.112 7 195535968.338 7


  20015179.008 7 107142810.880 7  83333343.670 7
  20015190.603 7

  20469912.114 7 109615458.316 7  85256526.265 7
  20469922.131 7

  26880827.872 6 141259688.385 6

  26880837.286 6 108237967.956 6
  20907002.757 7 111642202.917 7  86832864.188 7
  20907014.208 7

  21664194.263 7 115766960.691 7  90041062.298 6
  21664206.370 6

  23271029.850 7 122290118.994 7  95291050.642 5  23271037.210 5  23271029.448 5
  23271037.849 6

 24 11 23 18 40 30.0000000  0 24G03G04G31S31S35G09E29E30G26R10G16G06
                                E02E07E08E26E27S33R07R08E33R09R11G07
  20612373.066 8 108318737.183 8  84404236.247 8  20612380.426 8  20612372.821 8
  20612381.195 7  20612375.015 5  80887368.663 5

  20751033.955 7 109047420.654 7  84972042.953 6  20751039.726 6  20751033.522 6
  20751040.206 7  20751038.371 5  81431532.180 5

  23861638.459 6 125393701.704 6  97709394.092 4  23861647.753 4  23861638.017 4
  23861648.853 5

  37076771.479 7 194839789.120 7


  37125753.418 7 195097149.669 7


  21979594.070 7 115503562.236 7  90002817.869 7  21979601.987 7  21979593.476 7
  21979602.239 6

  25224059.362 7 132553337.790 7

  25224066.256 7 101566870.123 7
  24810333.261 7 130379183.192 7
                                                  24810332.555 5 105827254.977 5
  24810340.149 7  99900959.682 7
  22494913.081 6 118211545.410 6  92112923.872 5  22494923.636 5  22494912.415 5
  22494924.123 6

  19289408.900 7 102823408.782 7


  21000882.443 8 110360388.530 8  85995133.312 5  21000887.442 5  21000881.437 5


  24745313.921 5 130037505.793 5 101327975.504 4  24745328.179 4  24745313.421 4
  24745328.439 5

  27793172.067 3

  27793187.380 4
  24000203.670 8 126121914.547 8
                  24000207.026 5  94181959.422 5  24000203.102 6 102371677.890 6
  24000210.817 8  96638893.982 8
  27009069.090 3

  27009081.447 3
  26993301.755 6 141850716.750 6

  26993311.789 6 108690829.916 6
  25022119.994 7 131492161.996 7
                                                  25022122.128 5 106730632.824 5
  25022127.883 7 100753781.832 7
  37209266.845 7 195535982.575 7


  20019254.267 7 107164626.827 7  83350311.584 7
  20019265.641 7

  20456777.457 7 109545123.938 7  85201821.772 7
  20456788.137 7

  26886320.720 6 141288551.221 6

  26886329.531 6 108260083.568 6
  20924175.124 7 111733900.862 7  86904184.710 7
  20924186.715 7

  21643661.629 7 115657242.527 7  89955726.097 6
  21643673.981 6

  23259919.801 7 122231736.869 7  95245558.141 5  23259927.196 5  23259919.386 5
  23259927.312 6

 24 11 23 18 41  0.0000000  0 25G03G04G31S31S35G09E29E30G26R10G16G06
                                E02E07E08E26E27S33R07R08E33R23R09R11
                                G07
  20622778.792 8 108373418.955 8  84446845.348 8  20622786.111 8  20622778.547 8
  20622786.804 7  20622780.741 5  80928202.361 5

  20745861.696 7 109020241.124 7  84950864.145 6  20745867.647 6  20745861.263 6
  20745867.776 7  20745866.128 5  81411235.825 5

  23879786.726 6 125489071.531 6  97783708.016 4  23879795.928 4  23879786.293 4
  23879797.673 5

  37076778.316 7 194839803.424 7


  37125746.666 7 195097110.357 7


  21966927.371 7 115436999.370 7  89950950.760 7  21966935.365 7  21966926.772 7
  21966935.592 6

  25215268.994 7 132507143.130 7

  25215275.608 7 101531474.244 7
  24811214.766 7 130383815.708 7
                                                  24811214.368 5 105831015.100 5
  24811221.670 7  99904509.238 7
  22508761.063 6 118284314.478 6  92169626.931 5  22508771.316 5  22508760.424 5
  22508771.720 6

  19288878.413 7 102820578.870 7


  21000063.211 7 110356083.355 7  85991778.617 5  21000068.120 5  21000062.205 5


  24746737.698 5 130044984.692 5 101333803.152 4  24746751.286 4  24746737.216 4
  24746752.345 5

  27806540.139 3

  27806556.436 4
  24001290.007 8 126127623.428 8
                  24001293.796 5  94186222.590 5  24001289.340 6 102376311.699 6
  24001297.110 8  96643268.295 8
  27018377.676 3

  27018388.477 3
  27007449.981 6 141925065.919 6

  27007460.037 6 108747798.585 6
  25008624.859 7 131421244.231 7
                                                  25008626.544 5 106673069.765 5
  25008632.550 7 100699442.357 7
  37209266.822 7 195535996.212 7


  20023421.565 7 107186934.876 7  83367662.247 7
  20023433.388 7

  20443690.230 7 109475043.642 7  85147314.922 7
  20443700.792 7

  26891882.206 6 141317777.217 6

  26891891.497 6 108282477.443 6
  24865847.089 4


  20941425.800 7 111826018.825 7  86975831.919 7
  20941437.734 7

  21623205.022 7 115547928.348 7  89870704.137 7
  21623217.323 7

  23248850.895 7 122173568.415 7  95200232.163 5  23248857.819 5  23248850.475 5
  23248858.997 6

 24 11 23 18 41 30.0000000  0 25G03G04G31S31S35G09E29E30G26R10G16G06
                                E02E07E08E26E27S33R07R08E33R23R09R11
                                G07
  20633283.884 8 108428623.827 8  84489862.053 8  20633291.517 8  20633283.639 8
  20633292.071 7  20633286.091 5  80969426.681 5

  20740726.914 7 108993257.358 7  84929837.876 6  20740732.699 6  20740726.481 6
  20740733.002 7  20740731.455 5  81391085.657 5

  23897934.330 6 125584436.950 6  97858018.521 4  23897943.789 4  23897933.888 4
  23897944.399 5

  37076777.954 7 194839815.397 7


  37125738.912 7 195097069.419 7


  21954278.464 7 115370529.566 7  89899156.169 7  21954286.218 7  21954277.879 7
  21954286.950 6

  25206480.707 7 132460961.354 7

  25206487.483 7 101496088.242 7
  24812176.743 7 130388871.117 7
                                                  24812176.264 5 105835118.488 5
  24812183.744 7  99908382.830 7
  22522693.578 6 118357528.284 6  92226676.543 5  22522703.618 5  22522692.944 5
  22522704.422 6

  19288489.898 7 102818509.853 7


  20999370.332 7 110352443.103 7  85988942.045 5  20999375.072 5  20999369.331 5


  24748252.303 5 130052944.327 5 101340005.379 4  24748265.973 4  24748251.789 4
  24748266.515 5

  27819953.934 3

  27819969.220 4
  24002397.013 8 126133440.727 8
                  24002400.546 5  94190566.678 5  24002396.402 6 102381033.507 6
  24002404.041 8  96647725.696 8
  27027705.561 3

  27027714.068 3
  27021613.412 6 141999495.709 6

  27021623.813 6 108804829.015 6
  24995177.975 7 131350580.781 7
                                                  24995179.471 5 106615713.167 5
  24995185.560 7 100645297.758 7
  37209268.790 7 195536006.825 7


  20027681.091 8 107209735.333 8  83385395.876 7
  20027692.926 7

  20430651.222 7 109405219.741 7  85093007.460 7
  20430661.482 7

  26897512.327 6 141347364.035 6

  26897521.618 6 108305147.786 6
  24882600.747 4


  20958754.230 7 111918551.771 7  87047801.892 7
  20958765.946 7

  21602824.560 7 115439020.442 7  89785998.132 6
  21602836.827 6

  23237821.601 7 122115612.268 7  95155071.637 5  23237829.148 5  23237821.159 5
  23237829.238 6

 24 11 23 18 42  0.0000000  0 24G03G04G31S31S35G09E29E30G26R10G16G06
                                E02E07E08E26E27S33R07R08E33R09R11G07
  20643889.394 8 108484355.615 8  84533289.343 8  20643896.972 8  20643889.149 8
  20643897.729 7  20643891.615 5  81011044.486 5

  20735630.429 7 108966475.858 7  84908969.211 6  20735636.346 6  20735629.996 6
  20735636.779 7  20735634.730 5  81371086.501 5

  23916082.374 6 125679801.958 6  97932328.698 4  23916091.457 4  23916081.950 4
  23916092.586 5

  37076780.824 7 194839830.895 7


  37125729.624 7 195097031.383 7


  21941648.600 7 115304159.313 7  89847439.145 7  21941656.308 7  21941648.015 7
  21941657.002 6

  25197696.109 7 132414798.212 7

  25197702.890 7 101460716.518 7
  24813220.249 7 130394354.526 7
                                                  24813219.528 5 105839569.285 5
  24813227.149 7  99912584.362 7
  22536710.937 6 118431189.682 6  92284074.935 5  22536721.072 5  22536710.307 5
  22536720.786 6

  19288245.299 7 102817206.281 7


  20998805.521 7 110349473.584 7  85986628.122 5  20998810.029 5  20998804.524 5


  24749859.621 6 130061388.909 6 101346585.475 4  24749872.989 4  24749859.085 4
  24749873.657 5

  27833411.572 4

  27833426.215 4
  24003525.800 8 126139372.457 8
                  24003529.580 5  94194996.149 5  24003525.079 6 102385848.216 6
  24003532.979 8  96652270.770 8
  27037048.654 3

  27037059.661 3
  27035793.546 6 142074009.240 6

  27035803.358 6 108861923.624 6
  24981780.834 7 131280178.678 7
                                                  24981782.577 5 106558568.680 5
  24981788.416 7 100591353.394 7
  37209273.588 7 195536020.301 7


  20032033.855 7 107233035.036 7  83403517.854 7
  20032045.387 7

  20417661.776 7 109335660.681 7  85038906.017 7
  20417671.960 7

  26903211.929 6 141377315.768 6

  26903221.328 6 108328097.752 6
  20976160.915 7 112011501.571 7  87120096.086 7
  20976172.530 7

  21582521.707 7 115330526.972 7  89701614.478 6
  21582533.449 6

  23226834.820 7 122057873.786 7  95110080.674 5  23226841.647 5  23226834.360 5
  23226842.154 6

 24 11 23 18 42 30.0000000  0 25G03G04G31S31S35G09E29E30G26R10G16G06
                                E02E07E08E26E27S33R07R08E33R23R09R11
                                G07
  20654595.202 8 108540613.629 8  84577126.681 8  20654602.493 8  20654594.957 8
  20654602.941 7  20654597.019 5  81053055.263 5

  20730573.170 7 108939898.658 7  84888259.733 6  20730578.807 6  20730572.732 6
  20730579.141 7  20730577.670 5  81351239.925 5

  23934229.202 6 125775165.839 6  98006638.002 4  23934238.871 4  23934228.796 4
  23934239.516 5

  37076787.067 7 194839849.375 7


  37125723.538 7 195096996.603 7


  21929038.131 7 115237890.668 7  89795801.299 7  21929046.060 7  21929037.541 7
  21929046.186 6

  25188915.335 7 132368654.964 7

  25188922.156 7 101425360.045 7
  24814345.276 7 130400266.635 7
                                                  24814344.973 5 105844368.043 5
  24814352.337 7  99917114.371 7
  22550812.801 6 118505297.075 6  92341820.850 5  22550823.533 5  22550812.171 5
  22550823.771 6

  19288144.660 7 102816667.743 7


  20998368.093 7 110347176.071 7  85984837.838 5  20998372.834 5  20998367.092 5


  24751558.020 6 130070318.174 6 101353543.232 4  24751571.960 4  24751557.448 4
  24751572.332 5

  27846912.255 3

  27846926.795 4
  24004676.631 8 126145420.158 8
                  24004680.213 5  94199512.303 5  24004675.737 6 102390757.047 6
  24004683.846 8  96656904.712 8
  27046412.572 3

  27046422.089 3
  27049988.681 6 142148605.288 6

  27049998.555 6 108919081.465 6
  24968433.752 7 131210040.474 7
                                                  24968435.245 5 106501638.415 5
  24968441.577 7 100537611.237 7
  37209274.455 7 195536038.435 7


  20036480.317 7 107256835.881 7  83422029.561 7
  20036491.797 7

  20404721.336 7 109266370.255 7  84985013.478 7
  20404733.145 7

  26908981.257 6 141407631.979 6

  26908990.458 6 108351326.960 6
  24916094.264 4


  20993644.787 7 112104864.796 7  87192711.839 7
  20993656.978 7

  21562296.295 7 115222452.316 7  89617556.564 6
  21562308.825 6

  23215888.733 7 122000353.786 7  95065259.984 5  23215895.598 5  23215888.251 5
  23215896.947 6

 24 11 23 18 43  0.0000000  0 25G03G04G31S31S35G09E29E30G26R10G16G06
                                E02E07E08E26E27S33R07R08E33R23R09R11
                                G07
  20665398.389 8 108597385.448 8  84621364.384 8  20665405.834 8  20665398.144 8
  20665406.780 7  20665400.587 5  81095449.716 5

  20725552.566 8 108913516.082 8  84867701.915 6  20725558.489 6  20725552.128 6
  20725558.731 7  20725556.832 5  81331538.697 5

  23952374.222 6 125870516.644 6  98080937.104 4  23952383.799 4  23952373.816 4
  23952384.371 5

  37076790.912 7 194839861.494 7


  37125716.558 7 195096956.231 7


  21916445.414 7 115171713.975 7  89744235.117 7  21916453.058 7  21916444.824 7
  21916453.151 6

  25180136.357 7 132322521.194 7

  25180143.040 7 101390010.824 7
  24815549.868 7 130406596.336 7
                                                  24815549.715 5 105849505.747 5
  24815556.896 7  99921964.343 7
  22564997.496 6 118579837.136 6  92399903.919 5  22565007.994 5  22564996.866 5
  22565008.935 6

  19288185.201 7 102816882.716 7


  20998056.768 8 110345539.771 8  85983562.786 5  20998061.529 5  20998055.767 5


  24753347.713 6 130079720.083 6 101360869.309 4  24753361.020 4  24753347.083 4
  24753361.924 5

  27860456.889 3

  27860469.770 4
  24005847.574 8 126151573.670 8
                  24005851.528 5  94204107.426 5  24005846.960 6 102395751.780 6
  24005854.688 8  96661619.722 8
  27055787.109 3

  27055801.738 3
  27064197.012 6 142223270.823 6

  27064206.801 6 108976292.543 6
  24955135.271 7 131140156.984 7
                                                  24955137.208 5 106444914.876 5
  24955143.124 7 100484064.250 7
  37209273.700 7 195536049.134 7


  20041018.056 7 107281128.138 7  83440923.518 7
  20041029.582 7

  20391831.173 7 109197340.671 7  84931323.843 7
  20391841.950 7

  26914817.257 6 141438300.391 6

  26914826.551 6 108374826.066 6
  24932856.606 4


  21011203.301 7 112198626.972 7  87265637.908 7
  21011215.292 7

  21542148.002 7 115114787.786 7  89533817.661 6
  21542160.024 6

  23204983.013 7 121943041.124 7  95020600.849 5  23204989.279 5  23204982.544 5
  23204989.877 6

 24 11 23 18 43 30.0000000  0 24G03G04G31S31S35G09E29E30G26R10G16G06
                                E02E07E08E26E27S33R07R08E33R09R11G07
  20676301.207 8 108654678.778 8  84666008.458 8  20676308.357 8  20676300.962 8
  20676308.918 7  20676303.017 5  81138233.593 5

  20720571.207 7 108887338.580 7  84847303.892 6  20720577.039 6  20720570.769 6
  20720577.145 7  20720575.705 5  81311990.617 5

  23970518.114 6 125965862.310 6  98155232.178 3  23970527.801 3  23970517.712 3
  23970527.600 5

  37076793.202 7 194839875.693 7


  37125707.968 7 195096918.206 7


  21903871.827 7 115105639.681 7  89692748.716 7  21903879.451 7  21903871.246 7
  21903879.664 6

  25171361.077 7 132276406.552 7

  25171367.746 7 101354676.268 7
  24816835.534 7 130413352.704 7
                                                  24816835.516 5 105854989.776 5
  24816842.668 7  99927141.262 7
  22579265.810 6 118654816.618 6  92458329.395 5  22579276.293 5  22579265.176 5
  22579276.460 6

  19288368.189 7 102817859.088 7


  20997873.256 8 110344574.320 8  85982810.465 5  20997877.817 5  20997872.250 5


  24755228.256 6 130089602.761 6 101368569.987 4  24755241.324 4  24755227.630 4
  24755242.517 5



  27874056.728 4
  24007040.572 8 126157842.953 8
                  24007044.577 5  94208788.995 5  24007039.612 6 102400840.483 6
  24007047.653 8  96666423.459 8
  27065185.793 3

  27065199.492 3
  27078419.719 6 142298012.944 6

  27078429.879 6 109033562.296 6
  24941887.300 7 131070539.181 7
                                                  24941889.187 5 106388406.984 5
  24941895.166 7 100430720.837 7
  37209278.216 7 195536062.427 7


  20045649.917 8 107305921.947 8  83460207.532 7
  20045661.607 7

  20378991.955 7 109128584.306 7  84877846.704 7
  20379001.900 7

  26920721.748 6 141469329.005 6

  26920731.637 6 108398601.151 6
  21028837.607 7 112292793.769 7  87338878.658 7
  21028849.771 7

  21522078.773 7 115007546.207 7  89450407.692 7
  21522091.304 7

  23194117.428 7 121885944.966 7  94976110.420 5  23194124.350 5  23194116.968 5
  23194124.882 6

 24 11 23 18 44  0.0000000  0 25G03G04G31S31S35G09E29E30G26R10G16G06
                                E02E07E08E26E27S33R07R08E33R23R09R11
                                G07
  20687301.923 8 108712488.904 8  84711055.229 8  20687309.152 8  20687301.678 8
  20687310.117 7  20687304.153 5  81181403.384 5

  20715628.269 8 108861364.225 8  84827064.166 6  20715634.103 6  20715627.836 6
  20715634.481 7  20715632.656 5  81292594.241 5

  23988659.916 6 126061198.192 6  98229519.643 3  23988669.679 3  23988659.487 3
  23988670.508 5

  37076791.418 8 194839888.547 8


  37125702.410 7 195096879.420 7


  21891316.830 7 115039665.888 7  89641340.622 7  21891325.151 7  21891316.254 7
  21891325.450 6

  25162588.895 7 132230308.373 7

  25162595.433 7 101319354.333 7
  24818201.939 8 130420532.404 8
                                                  24818201.591 5 105860817.415 5
  24818208.944 7  99932642.540 7
  22593616.352 6 118730229.970 6  92517092.954 5  22593627.170 5  22593615.713 5
  22593627.022 6

  19288693.400 7 102819592.899 7


  20997816.333 8 110344276.839 8  85982578.634 5  20997821.273 5  20997815.327 5


  24757199.736 6 130099961.859 6 101376641.905 4  24757212.509 4  24757199.146 4
  24757212.900 5



  27887684.633 4
  24008255.235 8 126164225.560 8
                  24008258.849 5  94213555.275 5  24008254.336 6 102406021.168 6
  24008262.272 8  96671314.024 8
  27074600.290 3

  27074614.717 3
  27092656.176 6 142372826.395 6

  27092666.673 6 109090886.720 6
  24928689.761 7 131001185.640 7
                                                  24928691.684 5 106332113.602 5
  24928697.604 7 100377579.897 7
  37209283.014 7 195536075.032 7


  20050375.320 7 107331215.702 7  83479880.423 7
  20050386.583 7

  20366202.262 7 109060101.114 7  84824582.040 7
  20366213.370 7

  26926694.160 6 141500713.374 6

  26926704.083 6 108422648.814 6
  24966397.246 3


  21046546.675 7 112387358.051 7  87412428.570 7
  21046558.848 7

  21502088.737 7 114900727.368 7  89367326.533 7
  21502101.722 7

  23183293.302 7 121829062.034 7  94931786.131 5  23183299.755 5  23183292.829 5
  23183299.964 6

 24 11 23 18 44 30.0000000  0 24G03G04G31S31S35G09E29E30G26R10G16G06
                                E02E07E08E26E27S33R07R08E33R09R11G07
  20698401.852 8 108770818.546 8  84756506.819 8  20698409.137 8  20698401.611 8
  20698410.208 7  20698403.940 5  81224961.161 5

  20710725.329 7 108835598.549 7  84806987.040 6  20710731.242 6  20710724.896 6
  20710731.263 7  20710729.442 5  81273353.645 5

  24006800.520 6 126156527.178 6  98303801.736 3  24006810.408 3  24006800.038 3
  24006809.994 5

  37076798.179 7 194839904.912 7


  37125695.117 7 195096844.706 7


  21878782.735 7 114973798.146 7  89590015.158 7  21878790.786 7  21878782.154 7
  21878791.220 6

  25153820.688 7 132184231.412 7

  25153827.253 7 101284048.652 7
  24819649.570 8 130428139.486 8
                                                  24819649.142 5 105866991.950 5
  24819656.564 7  99938471.296 7
  22608050.016 6 118806078.988 6  92576196.001 5  22608060.601 5  22608049.368 5
  22608060.962 6

  19289161.468 7 102822087.286 7


  20997887.935 8 110344652.136 8  85982871.061 5  20997892.752 5  20997886.934 5


  24759262.082 6 130110800.587 6 101385087.574 3  24759274.858 3  24759261.483 3
  24759277.197 4

  27901342.495 3

  27901354.477 4
  24009492.342 8 126170726.583 8
                  24009496.297 5  94218409.921 5  24009491.256 6 102411297.971 6
  24009499.473 8  96676295.322 8
  27084037.184 3

  27084047.610 3
  27106907.461 6 142447713.368 6

  27106917.065 6 109148267.480 6
  24915543.792 7 130932102.376 7
                                                  24915546.189 5 106276039.607 5
  24915551.272 7 100324646.056 7
  37209283.899 7 195536091.139 7


  20055194.532 7 107357014.781 7  83499946.345 7
  20055205.905 7

  20353466.084 7 108991898.722 7  84771535.754 7
  20353476.877 7

  26932734.891 6 141532456.497 6

  26932744.883 6 108446971.366 6
  21064329.533 7 112482320.156 7  87486287.921 7
  21064342.611 7

  21482179.961 7 114794338.710 7  89284579.936 6
  21482191.641 6

  23172509.643 7 121772396.266 7  94887631.048 5  23172516.777 5  23172509.170 5
  23172517.307 6

 24 11 23 18 45  0.0000000  0 24G03G04G31S31S35G09E29E30G26R10G16G06
                                E02E07E08E26E27S33R07R08E33R09R11G07
  20709598.703 8 108829659.081 8  84802356.506 8  20709606.312 8  20709598.462 8
  20709607.239 7  20709600.668 5  81268900.430 5

  20705860.723 7 108810035.787 7  84787068.029 6  20705866.577 6  20705860.290 6
  20705866.819 7  20705865.208 5  81254264.584 5

  24024938.356 5 126251841.094 5  98378072.085 3  24024948.677 3  24024937.851 3
  24024949.211 5

  37076801.255 7 194839918.444 7


  37125687.184 7 195096806.329 7


  21866267.523 7 114908030.716 7  89538767.857 7  21866275.815 7  21866266.938 7
  21866276.227 7

  25145055.269 7 132138169.177 7

  25145062.029 7 101248754.253 7
  24821177.014 7 130436166.789 7
                                                  24821176.627 5 105873507.589 5
  24821184.205 7  99944622.045 7
  22622564.411 6 118882354.244 6  92635631.185 5  22622575.028 5  22622563.750 5
  22622575.410 6

  19289770.374 7 102825334.159 7


  20998086.137 8 110345693.274 8  85983682.317 6  20998090.917 6  20998085.136 6


  24761414.573 5 130122110.695 5 101393900.563 3  24761426.991 3  24761414.028 3
  24761428.455 5

  27915054.587 3

  27915068.353 3
  24010750.791 8 126177339.723 8
                  24010754.395 5  94223348.328 5  24010750.047 6 102416665.750 6
  24010757.920 8  96681362.533 8


  27093499.564 3
  27121170.305 6 142522664.760 6

  27121180.017 6 109205697.586 6
  24902447.748 7 130863284.085 7
                                                  24902449.755 5 106220180.653 5
  24902455.476 7 100271915.237 7
  37209284.396 7 195536103.558 7


  20060107.644 7 107383313.356 7  83520400.751 7
  20060118.637 7

  20340782.046 7 108923972.956 7  84718704.645 7
  20340792.013 7

  26938841.989 6 141564550.046 6

  26938852.377 6 108471562.431 6
  21082186.281 7 112577669.514 7  87560448.421 7
  21082198.103 7

  21462351.277 7 114688375.941 7  89202164.579 7
  21462362.293 7

  23161766.832 7 121715940.590 7  94843639.671 6  23161773.954 6  23161766.345 6
  23161774.635 6

 24 11 23 18 45 30.0000000  0 24G03G04G31S31S35G09E29E30G26R10G16G06
                                E02E07E08E26E27S33R07R08E33R09R11G07
  20720893.434 8 108889012.525 8  84848605.866 8  20720900.942 8  20720893.189 8
  20720901.657 7  20720895.736 5  81313222.693 5

  20701035.867 7 108784680.833 7  84767310.947 6  20701041.603 6  20701035.438 6
  20701041.932 7  20701040.286 5  81235330.727 5

  24043074.327 5 126347142.591 5  98452332.748 3  24043084.335 3  24043073.925 3
  24043085.686 4

  37076802.946 7 194839931.423 7


  37125681.179 7 195096768.993 7


  21853772.781 7 114842368.502 7  89487602.535 7  21853780.550 7  21853772.196 7
  21853780.791 6

  25136293.402 7 132092125.737 7

  25136300.202 7 101213474.264 7
  24822785.219 7 130444617.629 7
                                                  24822784.644 5 105880366.986 5
  24822792.300 7  99951097.321 7
  22637160.968 6 118959056.836 6  92695399.359 5  22637171.280 5  22637160.316 5
  22637171.795 6

  19290521.198 7 102829335.712 7


  20998411.774 8 110347404.096 8  85985015.401 6  20998416.420 6  20998410.773 6


  24763657.705 5 130133894.585 5 101403082.725 3  24763670.686 3  24763657.223 3
  24763670.604 5

  27928807.080 3


  24012031.385 8 126184069.356 8
                  24012035.098 5  94228373.660 5  24012030.316 6 102422128.135 6
  24012038.381 8  96686519.003 8


  27102969.182 3
  27135445.731 6 142597682.067 6

  27135455.451 6 109263178.206 6
  24889403.615 7 130794736.075 7
                                                  24889405.481 5 106164541.100 5
  24889411.247 7 100219391.516 7
  37209287.293 7 195536117.256 7


  20065114.882 7 107410116.234 7  83541247.386 7
  20065125.960 7

  20328149.597 7 108856330.638 7  84666093.984 7
  20328160.591 7

  26945016.678 6 141596996.286 6

  26945026.759 6 108496423.734 6
  21100114.403 7 112673405.946 7  87634909.988 7
  21100126.547 7

  21442600.898 7 114582845.566 7  89120085.529 7
  21442613.844 7

  23151063.808 7 121659699.064 7  94799815.150 6  23151071.519 6  23151063.303 6
  23151071.484 6

 24 11 23 18 46  0.0000000  0 24G03G04G31S31S35G09E29E30G26R10G16G06
                                E02E07E08E26E27S33R07R08E33R09R11G07
  20732284.460 8 108948871.904 8  84895249.464 8  20732291.940 8  20732284.215 8
  20732292.847 7  20732286.660 5  81357922.780 5

  20696249.693 7 108759529.577 7  84747712.593 6  20696255.558 6  20696249.264 6
  20696255.698 7  20696253.881 5  81216548.973 5

  24061206.224 5 126442424.872 5  98526578.425 3  24061216.045 3  24061205.809 3
  24061216.338 4

  37076808.213 7 194839940.258 7


  37125671.855 7 195096726.867 7


  21841296.433 7 114776807.434 7  89436516.020 7  21841304.441 7  21841295.843 7
  21841304.967 6

  25127534.115 7 132046096.281 7

  25127541.021 7 101178204.971 7
  24824472.907 7 130453486.460 7
                                                  24824472.549 5 105887565.723 5
  24824480.090 7  99957892.891 7
  22651836.654 7 119036178.939 7  92755494.422 5  22651847.490 5  22651836.002 5
  22651847.648 6

  19291411.775 7 102834085.122 7


  20998863.664 8 110349779.422 8  85986866.280 6  20998868.407 6  20998862.658 6


  24765988.328 5 130146145.630 5 101412628.918 4  24766002.025 4  24765987.868 4
  24766003.870 5

  27942603.793 3


  24013333.209 8 126190910.849 8
                  24013337.207 5  94233482.562 5  24013332.317 5 102427681.277 5
  24013340.308 8  96691761.190 8


  27112453.234 3
  27149732.224 6 142672757.850 6

  27149742.074 6 109320703.621 6
  24876410.116 7 130726454.740 7
                                                  24876412.191 5 106109117.979 5
  24876417.595 7 100167072.107 7
  37209286.802 7 195536125.032 7


  20070214.836 7 107437418.915 7  83562482.768 7
  20070226.343 7

  20315570.508 7 108788969.492 7  84613701.999 7
  20315581.407 7

  26951256.599 6 141629788.565 6

  26951266.822 6 108521550.185 6
  21118113.734 7 112769519.890 7  87709665.169 7
  21118125.998 7

  21422933.314 7 114477745.191 7  89038340.915 7
  21422946.260 7

  23140400.956 7 121603665.728 7  94756152.851 6  23140408.644 6  23140400.460 6
  23140408.954 6

 24 11 23 18 46 30.0000000  0 23G03G04G31S31S35G09E29E30G26R10G16G06
                                E07E08E26E27S33R07R08E33R09R11G07
  20743773.527 8 109009247.256 8  84942295.115 8  20743781.126 8  20743773.286 8
  20743781.542 7  20743775.695 5  81403008.222 5

  20691504.841 7 108734594.963 7  84728283.049 6  20691510.630 6  20691504.412 6
  20691510.892 7  20691508.895 5  81197929.002 5

  24079336.416 5 126537698.578 5  98600817.434 2  24079346.212 2  24079336.014 2
  24079345.514 4

  37076802.816 8 194839955.311 8


  37125668.193 7 195096691.712 7


  21828842.271 7 114711360.498 7  89385518.431 7  21828850.552 7  21828841.686 7
  21828850.920 6

  25118780.217 7 132000092.974 7

  25118786.975 7 101142955.709 7
  24826242.204 7 130462784.691 7
                                                  24826241.866 5 105895112.931 5
  24826249.594 7  99965017.484 7
  22666594.453 6 119113729.763 6  92815923.559 5  22666605.235 5  22666593.814 5
  22666605.220 6

  19292445.544 7 102839593.471 7


  20999444.265 8 110352831.012 8  85989244.115 6  20999449.132 6  20999443.264 6


  24768410.691 5 130158874.339 5 101422547.336 4  24768424.397 4  24768410.209 4
  24768425.222 5

  24014658.893 8 126197876.707 8
                  24014663.049 5  94238684.359 5  24014658.025 6 102433335.406 6
  24014665.999 8  96697098.663 8


  27121960.329 3
  27164031.973 6 142747901.717 6

  27164041.531 6 109378281.189 6
  24863469.729 7 130658453.442 7
                                                  24863471.492 5 106053922.143 5
  24863477.334 7 100114967.269 7
  37209296.496 8 195536139.862 8


  20075410.950 7 107465234.874 7  83584117.354 7
  20075422.607 7

  20303046.582 7 108721904.647 7  84561540.494 7
  20303057.439 7

  26957564.057 6 141662937.197 6

  26957574.835 6 108546949.698 6
  21136185.764 7 112866019.603 7  87784720.380 7
  21136197.577 7

  21403348.196 7 114373089.570 7  88956942.200 7
  21403360.756 7

  23129779.980 7 121547852.222 7  94712661.839 6  23129787.705 6  23129779.462 6
  23129787.948 6

 24 11 23 18 47  0.0000000  0 24G03G04G31S31S35G09E29E30G26R10G16G06
                                E02E07E08E26E27S33R07R08E33R09R11G07
  20755359.130 8 109070129.667 8  84989735.876 8  20755366.550 8  20755358.889 8
  20755367.636 7  20755361.357 5  81448472.242 5

  20686799.989 7 108709871.006 7  84709017.651 6  20686805.709 6  20686799.560 6
  20686805.961 7  20686804.487 5  81179466.331 5

  24097462.813 5 126632954.776 5  98675042.762 2  24097473.150 2  24097462.380 2
  24097473.553 4

  37076807.891 7 194839969.631 7


  37125659.831 7 195096656.072 7


  21816408.776 7 114646021.782 7  89334605.166 7  21816416.982 7  21816408.177 7
  21816417.064 7

  25110029.718 7 131954109.071 7

  25110036.489 7 101107721.314 7
  24828092.086 8 130472504.849 8
                                                  24828091.718 5 105903002.688 5
  24828099.238 7  99972465.387 7
  22681431.404 6 119191699.580 6  92876679.180 5  22681442.486 5  22681430.774 5
  22681442.534 6

  19293620.089 7 102845851.877 7


  21000152.532 8 110356551.543 8  85992143.205 6  21000157.111 6  21000151.526 6


  24770921.766 6 130172072.190 6 101432831.294 4  24770936.291 4  24770921.288 4
  24770936.776 5



  27970331.464 3
  24016006.817 8 126204960.416 8
                  24016010.658 5  94243974.126 5  24016005.891 6 102439085.180 6
  24016014.016 8  96702526.433 8


  27131488.180 3
  27178342.319 6 142823104.342 6

  27178352.436 6 109435903.755 6
  24850581.792 7 130590726.630 7
                                                  24850583.597 5 105998949.133 5
  24850589.316 7 100063072.755 7
  37209297.694 7 195536154.937 7


  20080702.284 7 107493557.209 7  83606145.784 7
  20080713.631 7

  20290577.275 7 108655131.922 7  84509606.161 7
  20290587.888 7

  26963939.096 6 141696433.555 6

  26963948.925 6 108572615.617 6
  21154326.714 7 112962893.979 7  87860066.991 7
  21154338.706 7

  21383846.647 7 114268874.383 7  88875886.034 7
  21383858.451 7

  23119199.945 7 121492250.985 7  94669336.230 6  23119207.184 6  23119199.440 6
  23119207.270 6

 24 11 23 18 47 30.0000000  0 24G03G04G31S31S35G09E29E30G26R10G16G06
                                E02E07E08E26E27S33R07R08E33R09R11G07
  20767040.878 8 109131516.679 8  85037569.829 8  20767048.132 8  20767040.637 8
  20767048.855 7  20767043.140 5  81494313.072 5

  20682135.300 7 108685358.217 7  84689916.802 6  20682141.154 6  20682134.867 6
  20682141.366 7  20682139.814 5  81161161.341 5

  24115587.128 5 126728191.644 5  98749253.037 2  24115596.229 2  24115586.762 2
  24115596.313 4

  37076812.479 8 194839983.384 8


  37125652.252 7 195096620.331 7


  21803996.017 7 114580791.826 7  89283776.652 7  21804004.102 7  21803995.423 7
  21804004.671 6

  25101283.012 7 131908144.352 7

  25101289.630 7 101072501.615 7
  24830021.851 8 130482645.819 8
                                                  24830021.925 5 105911233.988 5
  24830028.927 7  99980235.736 7
  22696347.896 6 119270085.069 6  92937758.697 5  22696358.486 5  22696347.262 5
  22696358.762 6

  19294934.003 7 102852858.281 7


  21000987.655 8 110360940.393 8  85995563.063 6  21000992.339 6  21000986.649 6


  24773522.575 6 130185737.119 6 101443479.234 4  24773536.325 4  24773522.084 4
  24773536.690 5



  27984247.565 4
  24017377.268 8 126212161.969 8
                  24017380.939 5  94249351.911 5  24017376.188 6 102444930.585 6
  24017384.346 8  96708044.504 8


  27141030.064 3
  27192663.766 6 142898362.794 6

  27192673.758 6 109493569.150 6
  24837746.006 7 130523275.197 7
                                                  24837747.913 5 105944199.625 5
  24837753.770 7 100011389.222 7
  37209300.802 7 195536168.910 7


  20086088.034 7 107522386.535 7  83628568.544 7
  20086099.235 7

  20278162.897 7 108588653.696 7  84457900.906 7
  20278173.480 7

  26970379.061 6 141730275.578 6

  26970388.933 6 108598546.412 6
  21172537.550 7 113060138.403 7  87935701.407 7
  21172549.612 7

  21364426.808 7 114165101.658 7  88795174.007 7
  21364438.113 7

  23108660.183 7 121436861.230 7  94626175.411 6  23108666.832 6  23108659.723 6
  23108666.964 6

 24 11 23 18 48  0.0000000  0 24G03G04G31S31S35G09E29E30G26R10G16G06
                                E02E07E08E26E27S33R07R08E33R09R11G07
  20778817.282 8 109193402.233 8  85085792.260 8  20778824.571 8  20778817.037 8
  20778825.555 7  20778819.702 5  81540526.266 5

  20677510.147 7 108661053.511 7  84670978.095 6  20677515.958 6  20677509.718 6
  20677516.514 7  20677514.545 5  81143011.774 5

  24133704.721 5 126823403.556 5  98823443.891 2  24133714.967 2  24133704.310 2
  24133715.890 4

  37076816.204 7 194839991.335 7


  37125645.656 7 195096578.951 7


  21791603.035 7 114515667.639 7  89233030.553 7  21791611.085 7  21791602.441 7
  21791611.626 6

  25092539.021 7 131862194.996 7

  25092545.790 7 101037293.688 7
  24832030.880 8 130493202.992 8
                                                  24832030.328 5 105919803.119 5
  24832038.049 7  99988324.999 7
  22711341.963 6 119348879.417 6  92999156.814 5  22711352.557 5  22711341.333 5
  22711353.231 6

  19296387.702 7 102860606.788 7


  21001949.039 8 110365993.227 8  85999500.308 6  21001953.961 6  21001948.038 6


  24776210.545 6 130199863.442 6 101454486.680 4  24776224.602 4  24776210.067 4
  24776225.359 5



  27998206.222 4
  24018769.401 8 126219477.772 8
                  24018773.092 5  94254814.992 5  24018768.308 5 102450868.717 5
  24018776.604 8  96713650.121 8


  27150590.831 3
  27206994.413 6 142973670.724 6

  27207004.700 6 109551272.414 6
  24824962.314 7 130456096.493 7
                                                  24824964.231 5 105889671.505 5
  24824970.144 7  99959914.671 7
  37209299.327 7 195536177.445 7


  20091567.590 8 107551719.459 8  83651382.984 7
  20091579.203 7

  20265803.341 7 108522468.757 7  84406423.764 7
  20265813.547 7

  26976883.327 6 141764457.465 6

  26976893.652 6 108624737.629 6
  21190816.479 7 113157745.091 7  88011617.603 7
  21190828.234 7

  21345088.405 7 114061769.947 7  88714804.975 7
  21345100.553 7

  23098158.505 7 121381678.391 7  94583175.832 6  23098165.825 6  23098158.027 6
  23098166.062 6

 24 11 23 18 48 30.0000000  0 24G03G04G31S31S35G09E29E30G26R10G16G06
                                E02E07E08E26E27S33R07R08E33R09R11G07
  20790690.510 8 109255796.691 8  85134411.242 8  20790697.891 8  20790690.265 8
  20790698.801 7  20790693.149 5  81587119.429 5

  20672927.362 8 108636970.243 8  84652211.931 6  20672933.238 6  20672926.933 6
  20672933.345 7  20672931.720 5  81125027.546 5

  24151820.455 5 126918601.629 5  98897624.005 2  24151830.659 2  24151820.075 2
  24151832.718 4

  37076818.306 7 194840006.157 7


  37125637.133 7 195096544.958 7


  21779233.481 7 114450662.604 7  89182377.300 7  21779241.209 7  21779232.896 7
  21779241.686 6

  25083800.483 7 131816273.615 7

  25083807.245 7 101002107.191 7
  24834121.245 7 130504188.150 7
                                                  24834120.769 5 105928719.656 5
  24834128.395 7  99996742.217 7
  22726415.675 6 119428092.154 6  93060880.943 5  22726426.276 5  22726415.032 5
  22726426.824 6

  19297982.965 7 102869108.443 7


  21003039.193 8 110371722.357 8  86003964.540 6  21003044.313 6  21003038.187 6


  24778988.725 6 130214461.911 6 101465862.043 4  24779002.579 4  24778988.189 4
  24779002.660 5



  28012203.152 4
  24020185.701 8 126226920.694 8
                  24020189.336 5  94260373.015 5  24020184.674 5 102456910.033 5
  24020192.939 8  96719353.134 8


  27160170.500 3
  27221336.537 6 143049038.077 6

  27221346.899 6 109609021.233 6
  24812233.270 7 130389204.261 7
                                                  24812234.914 5 105835375.887 5
  24812241.083 7  99908659.611 7
  37209303.217 7 195536192.827 7


  20097143.273 7 107581569.385 7  83674599.543 7
  20097155.476 7

  20253501.437 7 108456592.569 7  84355186.740 7
  20253512.132 7

  26983454.564 6 141798989.944 6

  26983465.017 6 108651197.468 6
  21209164.498 7 113255722.123 7  88087821.797 7
  21209176.735 7

  21325836.876 7 113958894.290 7  88634790.664 7
  21325849.298 7

  23087699.003 7 121326714.490 7  94540346.855 6  23087706.468 6  23087698.503 6
  23087707.081 6

 24 11 23 18 49  0.0000000  0 24G03G04G31S31S35G09E29E30G26R10G16G06
                                E02E07E08E26E27S33R07R08E33R09R11G07
  20802659.195 8 109318692.226 8  85183420.672 8  20802666.668 8  20802658.950 8
  20802667.471 7  20802661.824 5  81634086.775 5

  20668385.526 7 108613103.622 7  84633614.582 6  20668391.429 6  20668385.093 6
  20668391.810 7  20668389.811 5  81107205.081 5

  24169931.349 5 127013778.409 5  98971787.395 1  24169942.465 1  24169930.862 1
  24169942.058 4

  37076821.337 7 194840022.226 7


  37125632.715 7 195096512.240 7


  21766884.805 7 114385771.997 7  89131813.213 7  21766892.841 7  21766884.211 7
  21766892.967 7

  25075066.228 7 131770374.639 7

  25075072.997 7 100966937.861 7
  24836291.947 7 130515594.830 7
                                                  24836291.358 5 105937978.334 5
  24836299.001 7 100005482.417 7
  22741567.729 6 119507714.639 6  93122924.335 5  22741578.364 5  22741567.077 5
  22741578.235 6

  19299717.769 7 102878355.796 7


  21004257.332 7 110378121.769 7  86008951.070 6  21004262.110 6  21004256.322 6


  24781855.732 6 130229525.090 6 101477599.511 4  24781869.399 4  24781855.174 4
  24781871.013 5



  28026239.222 3
  24021625.260 8 126234485.395 8
                  24021628.838 5  94266022.002 5  24021624.460 6 102463050.229 6
  24021632.431 8  96725149.460 8
  27169763.470 3

  27169769.432 3
  27235688.496 6 143124456.732 6

  27235699.063 6 109666809.337 6
  24799557.955 7 130322594.066 7
                                                  24799559.352 5 105781309.170 5
  24799565.487 7  99857620.657 7
  37209304.080 7 195536209.360 7


  20102815.161 7 107611931.244 7  83698214.271 7
  20102826.845 7

  20241256.588 7 108391022.067 7  84304187.492 7
  20241267.300 7

  26990091.516 6 141833865.539 6

  26990101.619 6 108677920.207 6
  21227579.611 7 113354059.622 7  88164306.356 7
  21227592.547 7

  21306670.198 7 113856471.438 7  88555128.514 7
  21306682.978 7

  23077280.099 7 121271963.345 7  94497683.666 6  23077287.619 6  23077279.590 6
  23077287.640 6

 24 11 23 18 49 30.0000000  0 24G03G04G31S31S35G09E29E30G26R10G16G06
                                E02E07E08E26E27S33R07R08E33R09R11G07
  20814721.558 8 109382079.646 8  85232813.390 8  20814729.017 8  20814721.313 8
  20814729.718 7  20814723.683 5  81681421.473 5

  20663884.114 7 108589447.537 7  84615181.291 6  20663889.681 6  20663883.681 6
  20663890.200 7  20663888.544 5  81089539.855 5

  24188037.685 5 127108925.329 5  99045927.563 1  24188048.534 1  24188037.212 1
  24188047.712 4

  37076820.868 7 194840031.109 7


  37125624.805 7 195096473.027 7


  21754557.337 7 114320989.769 7  89081333.581 7  21754565.078 7  21754556.738 7
  21754565.438 6

  25066334.821 7 131724491.203 7

  25066341.599 7 100931780.431 7
  24838541.082 7 130527415.290 7
                                                  24838540.620 5 105947572.892 5
  24838548.210 7 100014539.679 7
  22756795.230 6 119587736.964 6  93185279.300 5  22756806.068 5  22756794.564 5
  22756806.062 6

  19301590.556 7 102888339.482 7


  21005601.081 7 110385183.802 7  86014453.927 6  21005605.855 6  21005600.066 6


  24784808.949 6 130245044.208 6 101489692.283 4  24784822.924 4  24784808.399 4
  24784822.857 5

  28040299.199 3

  28040312.956 3
  24023086.543 8 126242165.254 8
                  24023090.634 5  94271756.954 5  24023085.899 6 102469283.901 6
  24023093.894 8  96731034.029 8
  27179378.764 3

  27179388.143 3
  27250048.141 6 143199917.131 6

  27250059.107 6 109724629.436 6
  24786934.781 7 130256260.191 7
                                                  24786936.509 5 105727466.736 5
  24786942.509 7  99806793.418 7
  37209308.163 7 195536219.494 7


  20108581.549 7 107642797.846 7  83722221.559 7
  20108593.415 7

  20229067.953 7 108325753.045 7  84253422.738 7
  20229078.585 7

  26996792.215 6 141869075.439 6

  26996801.797 6 108704899.075 6
  21246061.039 7 113452746.690 7  88241062.813 7
  21246073.396 7

  21287587.104 7 113754497.045 7  88475815.181 7
  21287598.972 7

  23066900.276 7 121217417.699 7  94455180.615 6  23066907.677 6  23066899.731 6
  23066908.208 6

 24 11 23 18 50  0.0000000  0 24G03G04G31S31S35G09E29E30G26R10G16G06
                                E02E07E08E26E27S33R07R08E33R09R11G07
  20826879.479 8 109445969.459 8  85282597.583 8  20826886.890 8  20826879.234 8
  20826887.747 7  20826882.108 5  81729131.290 5

  20659424.986 8 108566015.465 8  84596922.555 6  20659430.736 6  20659424.553 6
  20659430.970 7  20659429.471 5  81072041.855 5

  24206140.422 4 127204053.562 4  99120053.213 1  24206151.308 1  24206140.029 1
  24206152.120 3

  37076825.612 7 194840046.206 7


  37125619.023 7 195096439.434 7


  21742252.736 7 114256329.465 7  89030948.949 7  21742260.506 7  21742252.151 7
  21742260.814 6

  25057608.826 7 131678636.067 7

  25057615.670 7 100896644.676 7
  24840871.588 7 130539661.394 7
                                                  24840870.926 5 105957512.921 5
  24840878.543 7 100023923.082 7
  22772100.758 6 119668168.782 6  93247953.332 5  22772111.614 5  22772100.092 5
  22772112.494 6

  19303603.463 7 102899070.541 7


  21007073.428 8 110392920.776 8  86020482.717 6  21007078.137 6  21007072.404 6


  24787850.854 6 130261030.113 6 101502148.761 4  24787864.186 4  24787850.291 4
  24787864.891 5



  28054428.782 3
  24024572.451 8 126249973.252 8
                  24024576.284 5  94277587.586 5  24024571.234 6 102475621.553 6
  24024579.756 8  96737016.785 8


  27189025.178 3
  27264418.153 6 143275429.443 6

  27264428.744 6 109782489.324 6
  24774367.179 7 130190216.468 7
                                                  24774368.581 5 105673859.854 5
  24774374.764 7  99756188.502 7
  37209310.018 7 195536235.009 7


  20114444.565 7 107674183.348 7  83746632.461 7
  20114456.669 7

  20216938.830 7 108260800.953 7  84202904.473 7
  20216949.352 7

  27003557.925 6 141904630.407 6

  27003567.628 6 108732142.363 6
  21264609.053 7 113551791.377 7  88318097.420 7
  21264620.816 7

  21268590.270 7 113652985.841 7  88396862.083 7
  21268602.648 7

  23056562.167 7 121163088.909 7  94412846.569 6  23056569.004 6  23056561.635 6
  23056569.110 6

 24 11 23 18 50 30.0000000  0 23G03G04G31S31S35G09E29E30G26R10G16G06
                                E07E08E26E27S33R07R08E33R09R11G07
  20839130.625 8 109510349.431 8  85332763.716 8  20839138.076 8  20839130.380 8
  20839138.753 7  20839132.980 5  81777207.155 5

  20655006.989 8 108542798.394 8  84578831.343 6  20655012.509 6  20655006.556 6
  20655013.049 7  20655011.267 5  81054704.498 5

  24224237.211 4 127299151.520 4  99194155.237 1  24224248.380 1  24224236.505 1
  24224250.996 3

  37076827.763 7 194840056.453 7


  37125611.600 7 195096402.521 7


  21729969.860 7 114191782.165 7  88980652.377 7  21729977.428 7  21729969.270 7
  21729978.085 6

  25048886.336 7 131632799.474 7

  25048893.367 7 100861523.129 7
  24843280.922 7 130552322.486 7
                                                  24843280.539 5 105967789.807 5
  24843287.940 7 100033624.470 7
  22787482.110 7 119748997.212 7  93310936.404 5  22787492.846 5  22787481.440 5
  22787493.727 6

  19305754.567 7 102910536.809 7


  21008672.193 8 110401321.729 8  86027028.887 6  21008676.541 6  21008671.183 6


  24790979.572 6 130277471.045 6 101514959.801 4  24790991.849 4  24790979.014 4
  24790993.414 5

  24026080.871 8 126257899.856 8
                  24026084.644 5  94283506.856 5  24026080.265 6 102482055.489 6
  24026088.051 8  96743090.421 8


  27198677.095 3
  27278795.459 6 143350981.254 6

  27278806.101 6 109840379.454 6
  24761853.048 7 130124454.227 7
                                                  24761854.474 5 105620481.400 5
  24761860.547 7  99705799.269 7
  37209312.853 7 195536246.641 7


  20120403.145 7 107706077.792 7  83771439.193 7
  20120414.264 7

  20204867.496 7 108196158.730 7  84152627.218 7
  20204877.785 7

  27010388.110 6 141940518.739 6

  27010397.301 6 108759641.077 6
  21283220.976 7 113651179.559 7  88395399.191 7
  21283233.659 7

  21249678.915 7 113551930.452 7  88318263.539 7
  21249691.695 7

  23046262.849 7 121108966.573 7  94370673.382 6  23046269.587 6  23046262.331 6
  23046270.283 6

 24 11 23 18 51  0.0000000  0 23G03G04G31S31S35G09E29E30G26R10G16G06
                                E07E08E26E27S33R07R08E33R09R11G07
  20851476.063 8 109575224.851 8  85383315.916 8  20851483.515 8  20851475.818 8
  20851484.162 7  20851478.603 5  81825652.996 5

  20650631.284 7 108519804.674 7  84560914.174 6  20650637.062 6  20650630.855 6
  20650637.293 7  20650635.582 5  81037533.889 5

  24242329.013 4 127394225.356 4
  24242342.654 3

  37076831.027 7 194840069.067 7


  37125604.383 7 195096367.618 7


  21717709.675 7 114127356.282 7  88930450.425 7  21717717.759 7  21717709.090 7
  21717718.308 7

  25040168.952 7 131586989.056 7

  25040175.838 7 100826421.636 7
  24845770.419 7 130565405.197 7
                                                  24845769.813 5 105978408.921 5
  24845777.476 7 100043648.915 7
  22802939.924 6 119830226.754 6  93374232.038 5  22802950.508 5  22802939.254 5
  22802950.717 6

  19308045.051 7 102922744.323 7


  21010398.474 7 110410393.962 7  86034098.149 6  21010402.878 6  21010397.464 6


  24794195.882 5 130294372.717 5 101528129.833 4  24794207.934 4  24794195.324 4
  24794209.715 5

  24027613.354 8 126265952.877 8
                  24027617.184 5  94289520.444 5  24027612.257 5 102488592.032 5
  24027620.462 8  96749260.925 8


  27208353.016 3
  27293180.604 6 143426577.543 6

  27293191.674 6 109898303.696 6
  24749393.959 7 130058982.149 7
                                                  24749395.834 5 105567338.493 5
  24749401.549 7  99655632.350 7
  37209313.010 7 195536261.022 7


  20126457.444 7 107738489.502 7  83796648.239 7
  20126469.671 7

  20192855.720 7 108131836.447 7  84102598.806 7
  20192865.900 7

  27017281.219 6 141976746.000 6

  27017290.947 6 108787399.483 6
  21301899.056 7 113750914.616 7  88472970.758 7
  21301911.066 7

  21230855.833 7 113451340.577 7  88240027.056 7
  21230867.508 7

  23036004.295 7 121055057.496 7  94328666.381 6  23036010.764 6  23036003.781 6
  23036011.651 6

 24 11 23 18 51 30.0000000  0 23G03G04G31S31S35G09E29E30G26R10G16G06
                                E07E08E26E27S33R07R08E33R09R11G07
  20863914.087 8 109640587.400 8  85434247.699 8  20863921.646 8  20863913.842 8
  20863922.354 7  20863916.349 5  81874462.596 5

  20646297.547 7 108497029.137 7  84543167.013 6  20646303.036 6  20646297.118 6
  20646303.345 7  20646301.688 5  81020526.156 5

  24260417.873 4


  37076828.063 7 194840078.850 7


  37125598.006 7 195096330.062 7


  21705472.185 7 114063046.762 7  88880339.147 7  21705479.818 7  21705471.600 7
  21705480.646 6

  25031455.223 7 131541198.886 7

  25031462.248 7 100791335.665 7
  24848338.756 7 130578902.671 7
                                                  24848338.005 5 105989364.683 5
  24848345.866 7 100053991.152 7
  22818472.107 6 119911848.395 6  93437833.186 5  22818482.738 5  22818471.428 5
  22818483.127 6

  19310472.162 7 102935684.521 7


  21012251.353 7 110420130.713 7  86041685.222 5  21012255.981 5  21012250.338 5


  24797498.781 6 130311727.064 6 101541652.623 4  24797510.384 4  24797498.258 4
  24797511.187 5

  24029168.685 8 126274126.627 8
                  24029172.358 5  94295624.219 5  24029167.396 5 102495226.562 5
  24029175.895 8  96755523.929 8


  27218047.699 3
  27307573.405 6 143502209.763 6

  27307584.212 6 109956255.440 6
  24736989.405 7 129993795.390 7
                                                  24736990.660 5 105514427.179 5
  24736996.889 7  99605684.062 7
  37209320.616 7 195536271.497 7


  20132608.289 7 107771412.750 7  83822255.157 7
  20132619.827 7

  20180902.477 7 108067831.019 7  84052816.840 7
  20180913.206 7

  27024238.380 6 142013304.270 6

  27024247.946 6 108815411.527 6
  21320639.351 7 113850986.506 7  88550804.287 7
  21320651.095 7

  21212118.209 7 113351212.622 7  88162149.834 7
  21212129.187 7

  23025785.053 7 121001355.089 7  94286820.428 6  23025791.170 6  23025784.544 6
  23025791.815 6

 24 11 23 18 52  0.0000000  0 23G03G04G31S31S35G09E29E30G26R10G16G06
                                E07E08E26E27S33R07R08E33R09R11G07
  20876445.814 8 109706442.007 8  85485562.903 8  20876453.641 8  20876445.564 8
  20876454.220 7  20876448.725 5  81923639.637 5

  20642006.475 7 108474479.859 7  84525596.152 6  20642011.924 6  20642006.046 6
  20642012.435 7  20642010.693 5  81003687.402 5

  24278498.647 4
  24278507.782 3

  37076832.355 7 194840090.382 7


  37125591.178 7 195096295.492 7


  21693258.160 7 113998861.765 7  88830324.901 7  21693265.903 7  21693257.575 7
  21693266.637 7

  25022747.106 7 131495436.345 7

  25022753.813 7 100756270.868 7
  24850987.402 7 130592821.257 7
                                                  24850986.667 5 106000662.228 5
  24850994.526 7 100064656.052 7
  22834079.849 6 119993866.279 6  93501743.089 5  22834090.239 5  22834079.165 5
  22834090.224 6

  19313038.189 7 102949362.308 7


  21014231.859 7 110430538.893 7  86049795.488 5  21014236.584 5  21014230.844 5


  24800888.286 6 130329539.491 6 101555532.370 3  24800899.275 3  24800887.853 3
  24800901.116 5

  24030748.622 8 126282428.628 8
                  24030752.180 5  94301823.791 5  24030747.567 5 102501965.236 5
  24030755.707 8  96761885.216 8


  27227755.882 3
  27321973.328 6 143577882.628 6

  27321984.667 6 110014238.351 6
  24724640.721 7 129928902.320 7
                                                  24724641.994 5 105461754.250 5
  24724648.228 7  99555960.809 7
  37209320.880 7 195536285.709 7


  20138855.593 7 107804855.267 7  83848265.944 7
  20138867.378 7

  20169011.257 7 108004152.596 7  84003289.213 7
  20169022.370 7

  27031259.071 6 142050198.894 6

  27031268.673 6 108843681.292 6
  21339442.952 7 113951398.199 7  88628902.137 7
  21339455.507 7

  21193468.125 7 113251556.048 7  88084639.256 7
  21193480.373 7

  23015606.548 7 120947865.983 7  94245140.680 6  23015612.362 6  23015606.057 6
  23015613.407 6

 24 11 23 18 52 30.0000000  0 23G03G04S31S35G09E29E30G26R10G16G06E07
                                E08E26E27S33R07R08E33R09R11R01G07
  20889069.855 8 109772781.418 8  85537255.869 8  20889077.604 8  20889069.605 8
  20889078.533 7  20889072.361 5  81973178.711 5

  20637757.713 8 108452152.635 8  84508198.320 6  20637763.283 6  20637757.284 6
  20637763.552 7  20637761.844 5  80987014.507 5

  37076837.672 7 194840100.045 7


  37125583.952 7 195096258.664 7


  21681067.082 7 113934797.149 7  88780404.470 7  21681074.986 7  21681066.497 7
  21681075.515 7

  25014042.823 7 131449696.473 7

  25014049.858 7 100721223.432 7
  24853714.985 7 130607154.963 7
                                                  24853714.751 5 106012296.755 5
  24853722.136 7 100075639.034 7
  22849761.039 6 120076272.320 6  93565955.447 5  22849771.754 5  22849760.369 5
  22849772.503 6

  19315741.171 7 102963770.835 7


  21016339.139 8 110441612.281 8  86058424.103 5  21016343.720 5  21016338.120 5


  24804364.426 6 130347802.962 6 101569763.574 3  24804375.179 3  24804363.984 3
  24804376.462 5

  24032351.865 8 126290854.162 8
                  24032355.525 5  94308115.576 5  24032350.915 6 102508804.119 6
  24032358.894 8  96768341.144 8
  27237479.012 3


  27336380.040 6 143653588.513 6

  27336391.473 6 110072246.540 6
  24712347.064 7 129864299.059 7
                                                  24712347.815 5 105409316.522 5
  24712354.591 7  99506459.607 7
  37209320.607 7 195536297.158 7


  20145199.210 7 107838812.425 7  83874677.010 7
  20145210.561 7

  20157180.402 7 107940798.614 7  83954013.921 7
  20157191.114 7

  27038342.463 6 142087422.863 6

  27038352.607 6 108872203.401 6
  21358309.040 7 114052140.357 7  88707257.005 7
  21358321.207 7

  21174906.768 7 113152368.118 7  88007493.172 7
  21174917.974 7

  24193467.816 5 129327977.62815


  23005467.257 7 120894584.482 7  94203622.703 6  23005473.267 6  23005466.788 6
  23005473.845 6

 24 11 23 18 53  0.0000000  0 25G03G04G31S31S35G09E29E30G26R10G16G06
                                E02E07E08E26E27S33R07R08E33R09R11R01
                                G07
  20901787.019 8 109839609.676 8  85589329.759 8  20901794.523 8  20901786.769 8
  20901795.310 7  20901789.313 5  82023082.859 5

  20633552.839 7 108430054.977 7  84490979.366 6  20633558.210 6  20633552.410 6
  20633558.622 7  20633557.314 5  80970513.009 5

  24314642.557 3


  37076834.869 7 194840114.452 7


  37125577.321 7 195096226.700 7


  21668900.324 7 113870860.570 7  88730583.806 7  21668908.143 7  21668899.748 7
  21668908.684 7

  25005344.462 7 131403986.077 7

  25005351.411 7 100686198.592 7
  24856522.777 7 130621909.673 7
                                                  24856522.239 5 106024272.971 5
  24856529.945 7 100086944.591 7
  22865517.355 6 120159070.186 6  93630473.113 5  22865528.218 5  22865516.680 5
  22865528.422 6

  19318581.853 7 102978914.516 7


  21018573.963 8 110453356.834 8  86067575.713 6  21018578.646 6  21018572.948 6


  24807925.950 5 130366522.183 5 101584349.906 3  24807938.284 3  24807925.593 3
  24807938.940 5

  28139884.488 3


  24033980.096 8 126299410.250 8
                  24033983.853 5  94314504.888 5  24033978.409 5 102515749.008 5
  24033987.073 8  96774897.107 8


  27247240.490 3
  27350793.624 6 143729331.560 6

  27350804.988 6 110130283.255 6
  24700110.032 7 129799993.405 7
                                                  24700111.378 5 105357120.386 5
  24700117.644 7  99457186.457 7
  37209329.756 7 195536312.932 7


  20151640.224 7 107873291.036 7  83901493.638 7
  20151651.814 7

  20145411.975 7 107877778.809 7  83904998.568 7
  20145422.524 7

  27045489.627 6 142124980.879 6

  27045499.732 6 108900981.474 6
  21377237.645 7 114153215.828 7  88785871.114 7
  21377249.369 7

  21156434.035 7 113053657.819 7  87930718.563 7
  21156446.629 7

  24172637.433 5 129216609.789 5


  22995368.613 7 120841516.451 7  94162271.064 6  22995374.903 6  22995368.135 6
  22995375.790 6

 24 11 23 18 53 30.0000000  0 24G03G04G31S31S35G09E29E30G26R10G16G06
                                E07E08E26E27S33R07R08E33R09R11R01G07
  20914596.114 8 109906921.883 8  85641780.752 8  20914603.490 8  20914595.864 8
  20914604.444 7  20914598.804 5  82073348.382 5

  20629390.842 7 108408185.077 7  84473937.879 6  20629396.515 6  20629390.413 6
  20629396.862 7  20629395.403 5  80954181.576 5

  24332701.482 3


  37076840.704 7 194840128.315 7


  37125572.147 7 195096195.631 7


  21656757.386 7 113807050.289 7  88680861.556 7  21656765.501 7  21656756.805 7
  21656766.010 7

  24996651.326 7 131358302.609 7

  24996658.043 7 100651194.389 7
  24859409.872 7 130637081.738 7
                                                  24859409.347 5 106036587.963 5
  24859416.932 7 100098569.929 7
  22881346.396 6 120242254.146 6  93695291.633 5  22881357.888 5  22881345.712 5
  22881358.072 6

  19321559.887 7 102994788.672 7


  21020936.155 8 110465769.323 8  86077247.789 6  21020940.503 6  21020935.145 6


  24811573.880 5 130385692.486 5 101599287.743 4  24811587.052 4  24811573.581 4
  24811586.930 5

  24035632.635 8 126308094.521 8
                  24035636.263 5  94320989.864 5  24035631.460 5 102522797.935 5
  24035639.598 8  96781551.294 8


  27257010.266 3
  27365213.337 6 143805106.613 6

  27365224.751 6 110188344.453 6
  24687929.351 7 129735983.829 7
                                                  24687930.799 5 105305164.550 5
  24687937.036 7  99408140.168 7
  37209327.990 7 195536329.637 7


  20158177.804 7 107908289.184 7  83928714.362 7
  20158189.859 7

  20133705.872 7 107815093.001 7  83856242.965 7
  20133716.011 7

  27052699.576 6 142162868.368 6

  27052709.820 6 108930012.005 6
  21396226.978 7 114254617.064 7  88864738.615 7
  21396238.686 7

  21138051.587 7 112955424.941 7  87854315.287 7
  21138063.346 7

  24151782.376 5 129105132.220 5


  22985310.092 7 120788658.649 7  94121083.232 6  22985316.636 6  22985309.610 6
  22985317.399 6

 24 11 23 18 54  0.0000000  0 24G03G04G31S31S35G09E29E30G26R10G16G06
                                E07E08E26E27S33R07R08E33R09R11R01G07
  20927495.718 8 109974709.022 8  85694601.822 8  20927503.102 8  20927495.473 8
  20927504.104 7  20927498.682 5  82123968.544 5

  20625271.636 8 108386537.122 8  84457069.328 6  20625277.118 6  20625271.207 6
  20625277.359 8  20625275.739 5  80938015.872 5


  24350780.999 3

  37076841.741 7 194840137.048 7


  37125564.277 7 195096158.568 7


  21644637.873 7 113743360.645 7  88631233.321 7  21644645.423 7  21644637.292 7
  21644645.806 7

  24987961.848 7 131312639.541 7

  24987968.739 7 100616205.834 7
  24862374.991 7 130652663.632 7
                                                  24862374.202 5 106049235.564 5
  24862382.053 7 100110509.301 7
  22897247.693 6 120325814.495 6  93760403.428 5  22897258.812 5  22897247.005 5
  22897258.921 6

  19324673.175 7 103011384.138 7


  21023423.774 8 110478842.256 8  86087434.499 6  21023428.174 6  21023422.768 6


  24815306.144 5 130405305.218 5 101614570.331 4  24815318.581 4  24815305.840 4
  24815319.997 5

  24037308.315 8 126316900.654 8
                  24037312.221 5  94327565.911 5  24037307.304 5 102529945.751 5
  24037315.327 8  96788298.853 8


  27266801.447 3
  27379637.546 6 143880904.444 6

  27379648.645 6 110246423.100 6
  24675804.216 7 129672264.781 7
                                                  24675805.442 5 105253444.584 5
  24675811.741 7  99359316.493 7
  37209331.938 7 195536340.240 7


  20164811.635 7 107943800.009 7  83956333.843 7
  20164823.846 7

  20122061.167 7 107752737.430 7  83807744.209 7
  20122071.838 7

  27059970.552 6 142201076.722 6

  27059980.859 6 108959288.400 6
  21415274.866 7 114356333.642 7  88943851.369 7
  21415287.280 7

  21119756.243 7 112857664.469 7  87778279.444 7
  21119768.349 7

  24130906.590 5 128993539.390 5


  22975290.367 7 120736003.678 7  94080053.448 6  22975296.817 6  22975289.902 6
  22975296.569 6

 24 11 23 18 54 30.0000000  0 23G03G04S31S35G09E29E30G26R10G16G06E07
                                E08E26E27S33R07R08E33R09R11R01G07
  20940486.875 8 110042978.391 8  85747798.656 8  20940494.561 8  20940486.630 8
  20940495.490 7  20940489.491 5  82174948.852 5

  20621196.071 8 108365121.733 8  84440382.001 6  20621201.807 6  20621195.642 6
  20621202.176 7  20621200.991 5  80922023.852 5

  37076843.834 8 194840149.006 8


  37125559.322 7 195096125.529 7


  21632543.076 7 113679802.361 7  88581707.443 7  21632550.364 7  21632542.504 7
  21632551.017 7

  24979278.206 7 131267006.783 7

  24979285.021 7 100581240.496 7
  24865419.760 7 130668664.126 7
                                                  24865419.035 5 106062222.999 5
  24865426.841 7 100122769.417 7
  22913221.223 6 120409757.857 6  93825813.679 5  22913232.360 5  22913220.557 5
  22913232.287 6

  19327923.402 7 103028708.359 7


  21026038.737 8 110492584.433 8  86098142.702 6  21026043.381 6  21026037.722 6


  24819124.880 5 130425368.102 5 101630203.681 4  24819136.748 4  24819124.630 4
  24819138.001 5

  24039009.151 8 126325838.709 8
                  24039013.102 5  94334240.430 5  24039007.888 5 102537200.677 5
  24039016.310 8  96795147.505 8


  27276613.448 4
  27394067.019 6 143956732.292 6

  27394078.476 6 110304524.767 6
  24663736.025 7 129608847.138 7
                                                  24663737.532 5 105201969.216 5
  24663743.798 7  99310723.767 7
  37209334.496 7 195536354.765 7


  20171543.007 7 107979834.127 7  83984360.325 7
  20171555.334 7

  20110480.488 7 107690724.669 7  83759512.104 7
  20110491.772 7

  27067304.025 6 142239613.653 6

  27067314.544 6 108988816.530 6
  21434382.736 7 114458370.808 7  89023213.478 7
  21434395.590 7

  21101552.505 7 112760389.006 7  87702620.839 7
  21101564.755 7

  24110012.022 5 128881842.807 5


  22965310.420 7 120683560.498 7  94039188.688 6  22965317.063 6  22965309.960 6
  22965317.772 6

 24 11 23 18 55  0.0000000  0 23G03G04S31S35G09E29E30G26R10G16G06E07
                                E08E26E27S33R07R08E33R09R11R01G07
  20953568.849 8 110111722.373 8  85801365.318 8  20953576.239 8  20953568.604 8
  20953576.823 7  20953571.149 5  82226283.558 5

  20617164.595 8 108343934.562 8  84423872.502 6  20617169.973 6  20617164.166 6
  20617170.367 8  20617168.877 5  80906202.255 5

  37076843.821 8 194840157.987 8


  37125551.296 7 195096089.884 7


  21620472.605 7 113616371.164 7  88532280.606 7  21620479.630 7  21620472.033 7
  21620480.564 7

  24970599.449 7 131221399.261 7

  24970606.219 7 100546294.517 7
  24868543.114 7 130685077.065 7
                                                  24868542.368 5 106075545.195 5
  24868550.318 8 100135345.562 8
  22929266.849 6 120494075.980 6  93891515.941 5  22929277.982 5  22929266.170 5
  22929277.568 6

  19331308.719 7 103046754.047 7


  21028779.957 8 110506989.799 8  86109367.680 6  21028784.521 6  21028778.947 6


  24823026.123 6 130445873.864 6 101646182.125 4  24823039.419 4  24823025.860 4
  24823039.830 5

  24040734.231 8 126334903.816 8
                  24040737.803 5  94341009.833 5  24040732.782 5 102544558.719 5
  24040741.389 8  96802093.504 8
  27286424.100 3

  27286437.468 3
  27408500.822 6 144032582.400 6

  27408512.578 6 110362643.483 6
  24651724.676 7 129545726.783 7
                                                  24651726.120 5 105150735.186 5
  24651732.273 8  99262358.848 8
  37209338.757 7 195536366.460 7


  20178371.944 7 108016386.192 7  84012789.649 7
  20178383.454 7

  20098963.853 7 107629052.222 7  83711544.687 7
  20098974.628 7

  27074697.818 6 142278471.980 6

  27074709.216 6 109018590.954 6
  21453550.358 7 114560719.525 7  89102817.899 7
  21453562.640 7

  21083438.128 7 112663594.933 7  87627336.662 7
  21083450.864 7

  24089094.615 5 128770038.349 5


  22955370.488 7 120631323.260 7  93998484.385 6  22955376.262 6  22955370.046 6
  22955377.341 6

 24 11 23 18 55 30.0000000  0 23G03G04S31S35G09E29E30G26R10G16G06E07
                                E08E26E27S33R07R08E33R09R11R01G07
  20966740.559 8 110180941.405 8  85855302.152 8  20966748.110 8  20966740.314 8
  20966749.333 7  20966743.120 5  82277972.991 5

  20613176.937 8 108322979.352 8  84407543.746 6  20613182.385 6  20613176.504 6
  20613182.552 7  20613181.008 5  80890553.862 5

  37076846.951 7 194840167.448 7


  37125546.440 7 195096054.813 7


  21608426.850 7 113553070.927 7  88482955.816 7  21608434.067 7  21608426.278 7
  21608434.844 7

  24961925.853 7 131175820.002 7

  24961932.623 7 100511370.200 7
  24871745.177 7 130701904.370 7
                                                  24871744.848 5 106089203.709 5
  24871752.412 7 100148239.212 7
  22945383.646 6 120578768.685 6  93957510.089 5  22945394.546 5  22945382.958 5
  22945394.933 6

  19334829.446 7 103065521.216 7


  21031647.851 8 110522060.347 8  86121110.976 6  21031652.258 6  21031646.841 6


  24827012.701 5 130466823.302 5 101662506.282 4  24827026.152 4  24827012.424 4
  24827026.786 5

  24042483.971 8 126344099.159 8
                  24042487.863 5  94347876.529 5  24042482.528 5 102552022.495 5
  24042491.161 8  96809139.299 8


  27296285.403 3
  27422938.599 6 144108455.139 6

  27422950.985 6 110420779.533 6
  24639770.614 7 129482907.687 7
                                                  24639771.217 5 105099745.664 5
  24639778.273 7  99214224.761 7
  37209338.927 7 195536378.296 7


  20185297.936 7 108053459.501 7  84041624.394 7
  20185308.962 7

  20087512.040 7 107567725.816 7  83663846.411 7
  20087522.184 7

  27082154.480 6 142317652.633 6

  27082165.431 6 109048612.328 6
  21472775.055 7 114663378.155 7  89182663.370 7
  21472787.319 7

  21065416.659 7 112567287.812 7  87552431.205 7
  21065428.010 7

  24068160.534 5 128658130.554 5 100067507.09815
  24068176.752 5

  22945468.967 7 120579293.963 7  93957942.115 6  22945475.410 6  22945468.534 6
  22945476.324 6

 24 11 23 18 56  0.0000000  0 23G03G04S31S35G09E29E30G26R10G16G06E07
                                E08E26E27S33R07R08E33R09R11R01G07
  20980003.828 8 110250638.900 8  85909611.814 8  20980011.193 8  20980003.583 8
  20980012.063 7  20980006.276 5  82330019.753 5

  20609234.675 8 108302262.820 8  84391400.972 6  20609239.912 6  20609234.246 6
  20609240.397 7  20609238.820 5  80875083.699 5

  37076852.227 7 194840181.850 7


  37125540.492 7 195096025.611 7


  21596407.213 7 113489908.522 7  88433738.433 7  21596414.601 7  21596406.637 7
  21596415.619 7

  24953259.126 7 131130275.010 7

  24953265.786 7 100476472.140 7
  24875027.188 7 130719150.905 7
                                                  24875026.135 5 106103202.513 5
  24875034.250 8 100161454.085 8
  22961571.857 6 120663838.725 6  94023798.275 5  22961582.343 5  22961571.160 5
  22961583.589 5

  19338485.881 7 103085013.567 7


  21034643.201 8 110537801.171 8  86133376.573 6  21034647.614 6  21034642.191 6


  24831085.378 6 130488220.257 6 101679179.140 4  24831096.684 4  24831085.106 4
  24831098.335 5

  24044259.680 8 126353430.923 8
                  24044263.865 5  94354845.044 5  24044258.198 6 102559596.977 6
  24044266.845 8  96816289.618 8


  27306151.555 3
  27437382.726 6 144184353.842 6

  27437394.227 6 110478935.462 6
  24627875.236 7 129420396.787 7
                                                  24627876.192 5 105049006.340 5
  24627882.980 8  99166326.837 8
  37209340.425 7 195536396.074 7


  20192321.292 7 108091060.325 7  84070869.420 7
  20192333.377 7

  20076125.606 7 107506754.152 7  83616424.029 7
  20076136.087 7

  27089672.531 6 142357159.422 6

  27089683.630 6 109078883.612 6
  21492058.340 7 114766348.803 7  89262751.513 7
  21492071.159 7

  21047486.376 7 112471475.253 7  87477910.420 7
  21047498.055 7

  24047208.589 5 128546127.217 5  99980393.494 5
  24047227.202 5

  22935608.639 7 120527477.915 7  93917565.980 6  22935615.124 6  22935608.183 6
  22935616.078 6

 24 11 23 18 56 30.0000000  0 22G03G04S31S35G09E29E30G26R10G16G06E07
                                E26E27S33R07R08E33R09R11R01G07
  20993355.081 8 110320800.747 8  85964283.312 8  20993362.514 8  20993354.831 8
  20993363.287 7  20993358.013 5  82382413.261 5

  20605335.813 8 108281774.205 8  84375435.799 6  20605341.113 6  20605335.380 6
  20605341.499 7  20605340.129 5  80859783.740 5

  37076851.651 8 194840189.955 8


  37125533.257 7 195095989.814 7


  21584412.176 7 113426873.308 7  88384620.166 7  21584419.433 7  21584411.600 7
  21584419.927 7

  24944596.240 7 131084752.803 7

  24944603.150 7 100441591.550 7
  24878386.454 7 130736804.055 7
                                                  24878385.397 5 106117531.343 5
  24878393.625 7 100174980.513 7
  22977829.514 6 120749271.382 6  94090369.010 5  22977840.000 5  22977828.812 5
  22977840.751 6

  19342275.928 7 103105217.250 7


  21037763.526 7 110554199.419 7  86146154.445 5  21037768.163 5  21037762.516 5


  24835238.736 6 130510050.954 6 101696190.006 4  24835252.033 4  24835238.406 4
  24835253.150 5

  24046059.314 8 126362887.799 8
                  24046063.303 5  94361906.998 5  24046058.110 6 102567273.017 6
  24046066.497 8  96823535.808 8
  27451828.139 6 144260264.303 6

  27451839.673 6 110537100.446 6
  24616036.346 7 129358183.537 7
                                                  24616037.336 5 104998508.588 5
  24616044.054 8  99118656.979 8
  37209345.657 7 195536407.599 7


  20199442.292 7 108129177.213 7  84100515.829 7
  20199453.986 7

  20064804.194 7 107446128.055 7  83569270.446 7
  20064814.772 7

  27097250.044 6 142396978.707 6

  27097261.009 6 109109394.341 6
  21511396.587 7 114869615.239 7  89343069.694 7
  21511409.488 7

  21029646.961 7 112376147.676 7  87403766.823 7
  21029658.630 7

  24026236.652 5 128434017.689 5  99893197.182 5
  24026253.498 5

  22925786.555 7 120475862.624 7  93877346.318 6  22925793.049 6  22925786.086 6
  22925793.799 6

 24 11 23 18 57  0.0000000  0 22G03G04S31S35G09E29E30G26R10G16G06E07
                                E26E27S33R07R08E33R09R11R01G07
  21006795.782 8 110391432.320 8  86019320.831 8  21006803.452 8  21006795.532 8
  21006804.369 7  21006798.614 5  82435157.508 5

  20601481.954 8 108261522.295 8  84359655.064 6  20601487.237 6  20601481.525 6
  20601487.725 7  20601486.333 5  80844660.517 5

  37076857.866 8 194840199.606 8


  37125527.332 7 195095956.369 7


  21572442.539 7 113363974.181 7  88335607.933 7  21572449.803 7  21572441.963 7
  21572450.750 7

  24935939.487 7 131039261.440 7

  24935946.284 7 100406734.597 7
  24881824.378 7 130754870.675 7
                                                  24881823.302 5 106132195.825 5
  24881831.660 8 100188823.771 8
  22994157.217 6 120835071.441 6  94157226.058 5  22994167.441 5  22994156.507 5
  22994168.117 6

  19346200.959 7 103126137.549 7


  21041010.630 7 110571262.077 7  86159450.038 6  21041014.803 6  21041009.620 6


  24839476.587 5 130532321.122 5 101713543.295 4  24839489.678 4  24839476.212 4
  24839490.458 5

  24047884.260 8 126372477.996 8
                  24047888.104 5  94369068.504 5  24047882.732 5 102575057.281 5
  24047891.524 8  96830884.148 8
  27466276.501 6 144336191.988 6

  27466288.338 6 110595278.586 6
  24604255.931 7 129296276.881 7
                                                  24604256.927 5 104948259.698 5
  24604263.553 8  99071222.051 8
  37209343.461 7 195536420.744 7


  20206660.827 7 108167817.983 7  84130569.713 7
  20206672.895 7

  20053549.341 7 107385858.474 7  83522394.143 7
  20053559.506 7

  27104888.054 6 142437116.347 6

  27104899.088 6 109140149.001 6
  21530791.203 7 114973181.315 7  89423620.954 7
  21530804.260 7

  21011900.284 7 112281315.515 7  87330008.576 7
  21011912.146 7

  24005243.269 5 128321811.746 5  99805926.016 4
  24005264.954 4

  22916004.049 7 120424455.313 7  93837288.687 6  22916010.333 6  22916003.553 6
  22916010.604 6

 24 11 23 18 57 30.0000000  0 22G03G04S31S35G09E29E30G26R10G16G06E07
                                E26E27S33R07R08E33R09R11R01G07
  21020325.449 8 110462531.861 8  86074723.002 8  21020333.276 8  21020325.204 8
  21020334.020 7  21020328.573 5  82488251.275 5

  20597673.579 8 108241508.634 8  84344059.979 6  20597678.774 6  20597673.146 6
  20597679.260 7  20597678.188 5  80829715.221 5

  37076857.294 7 194840210.078 7


  37125519.561 7 195095923.781 7


  21560499.636 7 113301212.856 7  88286703.081 7  21560506.671 7  21560499.051 7
  21560507.244 7

  24927288.986 7 130993801.794 7

  24927295.696 7 100371901.951 7
  24885341.016 8 130773350.458 8
                                                  24885339.856 5 106147195.661 5
  24885348.245 8 100202983.588 8
  23010553.709 6 120921236.544 6  94224367.541 5  23010563.946 5  23010553.007 5
  23010564.552 6

  19350259.406 7 103147772.621 7


  21044383.883 8 110588989.041 8  86173263.275 6  21044388.146 6  21044382.873 6


  24843797.698 6 130555029.370 6 101731237.961 4  24843810.647 4  24843797.350 4
  24843812.002 5

  24049734.806 8 126382202.569 8
                  24049738.983 5  94376330.399 5  24049733.310 5 102582950.597 5
  24049742.085 8  96838335.448 8
  27480728.071 6 144412135.012 6

  27480739.993 6 110653468.478 6
  24592534.081 7 129234678.598 7
                                                  24592535.216 5 104898261.166 5
  24592541.698 8  99024023.421 8
  37209347.016 7 195536435.173 7


  20213977.621 7 108206983.699 7  84161031.891 7
  20213989.096 7

  20042361.895 7 107325949.006 7  83475797.911 7
  20042372.303 7

  27112586.502 6 142477571.030 6

  27112597.333 6 109171146.589 6
  21550241.812 7 115077043.620 7  89504402.591 7
  21550254.684 7

  20994247.082 7 112186981.178 7  87256637.526 7
  20994259.185 7

  23984237.036 5 128209511.564 5  99718581.586 5
  23984254.322 5

  22906261.063 7 120373255.944 7  93797393.095 6  22906267.324 6  22906260.554 6
  22906267.919 6

 24 11 23 18 58  0.0000000  0 23G03G04S31S35G09E29E30G26R10G16G06E07
                                E08E26E27S33R07R08E33R09R11R01G07
  21033944.040 8 110534096.266 8  86130487.403 8  21033951.585 8  21033943.790 8
  21033952.543 7  21033946.800 5  82541692.137 5

  20593910.594 8 108221733.527 8  84328650.778 6  20593915.662 6  20593910.161 6
  20593916.388 7  20593914.673 5  80814948.075 5

  37076858.586 7 194840220.948 7


  37125514.629 7 195095892.380 7


  21548582.719 7 113238589.806 7  88237905.977 7  21548589.905 7  21548582.134 7
  21548590.647 7

  24918644.087 7 130948373.485 7

  24918650.906 7 100337093.315 7
  24888935.975 7 130792241.814 7
                                                  24888934.935 5 106162529.543 5
  24888943.166 8 100217458.776 8
  23027019.071 6 121007762.973 6  94291790.578 5  23027029.534 5  23027018.361 5
  23027030.189 6

  19354451.764 7 103170119.557 7


  21047883.147 8 110607378.322 8  86187592.597 6  21047887.566 6  21047882.128 6


  24848201.512 6 130578172.999 6 101749271.895 4  24848214.855 4  24848201.141 4
  24848216.363 5

  24051610.806 8 126392061.281 8
                  24051614.964 5  94383692.397 5  24051609.405 6 102590952.803 6
  24051618.135 8  96845889.534 8
  27345808.817 3


  27495181.949 6 144488090.350 6

  27495193.638 6 110711667.821 6
  24580871.196 7 129173389.164 7
                                                  24580871.816 5 104848513.269 5
  24580878.859 8  98977061.443 8
  37209351.385 7 195536449.727 7


  20221391.783 7 108246674.033 7  84191902.094 7
  20221403.634 7

  20031241.752 7 107266401.742 7  83429483.422 7
  20031252.100 7

  27120344.892 6 142518340.131 6

  27120355.583 6 109202385.097 6
  21569746.613 7 115181197.274 7  89585410.823 7
  21569759.003 7

  20976686.969 7 112093146.625 7  87183655.207 7
  20976699.282 7

  23963211.403 5 128097117.885 5  99631164.417 5
  23963230.127 5

  22896557.306 7 120322263.159 7  93757658.474 6  22896563.586 6  22896556.783 6
  22896564.607 6

 24 11 23 18 58 30.0000000  0 23G03G04S31S35G09E29E30G26R10G16G06E07
                                E08E26E27S33R07R08E33R09R11R01G07
  21047649.859 8 110606121.184 8  86186610.651 8  21047657.233 8  21047649.614 8
  21047658.370 7  21047652.959 5  82595476.889 5

  20590192.719 8 108202196.112 8  84313426.788 6  20590197.879 6  20590192.286 6
  20590198.493 8  20590197.094 5  80800358.404 5

  37076859.145 7 194840230.298 7


  37125508.672 7 195095859.314 7


  21536691.799 7 113176104.305 7  88189216.054 7  21536699.024 7  21536691.214 7
  21536699.757 7  21536694.750 5  84514616.36015

  24910005.024 7 130902974.914 7

  24910011.737 7 100302307.469 7
  24892608.586 7 130811541.937 7
                                                  24892607.339 5 106178195.205 5
  24892615.951 8 100232247.170 8
  23043552.294 6 121094645.868 6  94359491.375 5  23043563.139 5  23043551.579 5
  23043563.737 6

  19358776.445 7 103193173.760 7


  21051508.167 8 110626427.164 8  86202435.868 6  21051512.393 6  21051507.152 6


  24852688.202 5 130601748.004 5 101767641.948 4  24852701.020 4  24852687.800 4
  24852703.015 5

  24053511.998 8 126402052.692 8
                  24053516.317 5  94391153.578 5  24053510.615 6 102599062.716 6
  24053519.391 8  96853545.295 8


  27355788.064 3
  27509637.355 6 144564053.694 6

  27509649.250 6 110769873.299 6
  24569266.464 7 129112407.845 7
                                                  24569267.129 5 104799015.497 5
  24569274.434 8  98930335.559 8
  37209353.389 7 195536462.576 7


  20228903.788 7 108286887.387 7  84223179.127 7
  20228916.244 7

  20020188.890 7 107207217.681 7  83383451.414 7
  20020200.088 7

  27128161.956 6 142559419.832 6

  27128172.570 6 109233861.593 6
  21589304.782 7 115285636.478 7  89666641.128 7
  21589317.153 7

  20959220.779 7 111999811.632 7  87111061.408 7
  20959232.530 7

  23942166.115 5 127984630.804 5  99543674.445 5
  23942185.619 5

  22886892.815 7 120271474.423 7  93718082.855 6  22886898.769 6  22886892.283 6
  22886899.464 6

 24 11 23 18 59  0.0000000  0 23G03G04S31S35G09E29E30G26R10G16G06E07
                                E08E26E27S33R07R08E33R09R11R01G07
  21061442.927 8 110678603.419 8  86243090.248 8  21061450.042 8  21061442.682 8
  21061451.352 7  21061445.779 5  82649603.158 5

  20586520.081 8 108182896.585 8  84298388.167 6  20586525.335 6  20586519.648 6
  20586525.723 8  20586524.617 5  80785946.381 5

  37076860.021 7 194840236.741 7


  37125501.267 7 195095823.826 7


  21524827.504 7 113113756.720 7  88140633.595 7  21524834.441 7  21524826.923 7
  21524835.024 7  21524830.074 5  84468058.186 5

  24901371.405 7 130857605.608 7

  24901378.276 7 100267544.042 7
  24896358.818 7 130831249.089 7
                                                  24896357.656 5 106194191.227 5
  24896366.180 8 100247347.433 8
  23060152.693 6 121181881.420 6  94427466.985 5  23060163.850 5  23060151.974 5
  23060164.454 6

  19363233.437 7 103216931.854 7


  21055258.135 7 110646134.099 7  86217791.937 6  21055262.435 6  21055257.116 6


  24857256.423 6 130625751.566 6 101786345.956 4  24857269.288 4  24857256.048 4
  24857271.042 5

  24055438.527 8 126412176.455 8
                  24055442.511 5  94398713.511 5  24055436.925 6 102607280.046 6
  24055445.879 8  96861302.467 8


  27365776.886 3
  27524093.827 6 144640021.841 6

  27524106.023 6 110828082.438 6
  24557720.930 7 129051734.986 7
                                                  24557722.102 5 104749768.093 5
  24557728.700 8  98883846.032 8
  37209357.695 7 195536473.397 7


  20236514.094 7 108327623.083 7  84254862.402 7
  20236525.869 7

  20009205.609 7 107148399.008 7  83337703.596 7
  20009215.871 7

  27136038.322 6 142600807.453 6

  27136048.677 6 109265574.017 6
  21608915.707 7 115390356.516 7  89748089.858 7
  21608928.620 7

  20941847.889 7 111906977.672 7  87038857.328 7
  20941859.865 7

  23921109.581 5 127872051.042 5  99456112.597 5
  23921123.605 5

  22877266.601 7 120220888.412 7  93678665.204 6  22877272.546 6  22877266.069 6
  22877273.190 6

 24 11 23 18 59 30.0000000  0 23G03G04S31S35G09E29E30G26R10G16G06E07
                                E08E26E27S33R07R08E33R09R11R01G07
  21075323.821 8 110751547.640 8  86299929.832 8  21075330.849 8  21075323.576 8
  21075332.117 7  21075326.614 5  82704074.406 5

  20582894.518 8 108163843.073 8  84283541.250 6  20582899.417 6  20582894.085 6
  20582900.242 8  20582898.731 5  80771718.092 5

  37076860.768 8 194840247.266 8


  37125495.736 7 195095793.359 7


  21512990.919 7 113051555.299 7  88092165.029 7  21512997.658 7  21512990.334 7
  21512998.665 7  21512993.495 5  84421609.208 5

  24892744.810 7 130812272.976 7

  24892751.735 8 100232808.720 8
  24900187.591 7 130851369.437 7
                                                  24900186.496 5 106210522.660 5
  24900194.843 8 100262764.305 8
  23076821.196 6 121269473.786 6  94495720.624 5  23076832.150 5  23076820.494 5
  23076832.866 6

  19367823.068 7 103241398.715 7


  21059134.683 8 110666504.868 8  86233665.268 6  21059138.665 6  21059133.668 6


  24861906.302 6 130650188.632 6 101805387.754 4  24861919.686 4  24861905.900 4
  24861920.394 5

  24057391.726 8 126422440.123 8
                  24057395.744 5  94406377.933 5  24057390.416 5 102615610.935 5
  24057399.114 8  96869166.833 8  24057397.835 8  95637778.44618


  27375781.699 3
  27538551.946 6 144715999.554 6

  27538564.397 6 110886298.915 6
  24546235.482 7 128991378.845 7
                                                  24546236.213 5 104700777.778 5
  24546243.241 8  98837599.195 8
  37209362.122 7 195536487.951 7


  20244222.807 7 108368888.505 7  84286957.693 7
  20244234.790 7

  19998291.553 7 107089955.774 7  83292247.798 7
  19998302.005 7

  27143973.506 6 142642508.062 6

  27143984.005 6 109297526.266 6
  21628579.708 7 115495360.699 7  89829759.595 7
  21628592.533 7

  20924570.977 7 111814654.539 7  86967050.551 7
  20924582.821 7

  23900033.239 6 127759387.793 6  99368485.742 5
  23900048.922 5

  22867680.376 7 120170511.485 7  93639410.475 6  22867685.928 6  22867679.844 6
  22867686.937 6

 24 11 23 19  0  0.0000000  0 24G03G04S31S35G09E29E30G26R10G16G06E07
                                E08E26E27S33E21R07R08E33R09R11R01G07
  21089290.711 8 110824944.008 8  86357121.737 8  21089297.680 8  21089290.461 8
  21089299.012 7  21089293.644 5  82758883.317 5

  20579314.232 8 108145029.214 8  84268881.078 6  20579319.307 6  20579313.799 6
  20579319.734 8  20579318.605 6  80757668.767 6

  37076864.797 8 194840254.230 8


  37125489.176 7 195095758.631 7


  21501181.060 7 112989493.860 7  88043805.536 7  21501187.759 7  21501180.475 7
  21501188.766 7  21501183.519 5  84375264.668 5

  24884123.935 7 130766969.972 7

  24884131.002 8 100198096.110 8
  24904093.363 7 130871894.621 7
                                                  24904091.927 5 106227182.724 5
  24904100.777 8 100278491.373 8
  23093556.046 6 121357412.530 6  94564244.152 5  23093566.513 5  23093555.376 5
  23093566.792 6

  19372544.293 7 103266564.118 7


  21063135.817 7 110687530.978 7  86250049.255 6  21063139.609 6  21063134.802 6


  24866636.212 5 130675049.786 5 101824759.985 4  24866650.251 4  24866635.859 4
  24866651.387 6

  24059370.213 8 126432836.796 8
                  24059374.384 5  94414141.690 5  24059368.278 5 102624049.789 5
  24059377.630 8  96877133.114 8  24059376.233 8  95645643.462 8


  27385807.466 3
  27553010.173 6 144791977.086 6

  27553022.707 6 110944515.250 6
  24534809.165 7 128931333.200 7
                  24534813.416 5  96279878.72815  24534809.991 5 104652039.487 5
  24534816.830 8  98791590.264 8
  37209361.138 7 195536499.114 7


  28107900.132 5 147708010.86715

  28107916.486 5 113178933.85915
  20252029.223 7 108410675.951 7  84319459.007 7
  20252041.456 7

  19987446.722 7 107031883.521 7  83247080.544 7
  19987457.803 7

  27151966.441 6 142684512.407 6

  27151977.294 6 109329711.264 6
  21648294.840 7 115600636.935 7  89911640.925 7
  21648307.742 7

  20907388.600 7 111722836.191 7  86895636.392 7
  20907400.372 7

  23878938.513 6 127646635.109 6  99280789.324 5
  23878958.607 5

  22858132.274 7 120120335.674 7  93600312.466 6  22858137.851 6  22858131.738 6
  22858138.861 6

 24 11 23 19  0 30.0000000  0 24G03G04G31S31S35G09E29E30G26R10G16G06
                                E07E26E27S33E21R07R08E33R09R11R01G07
  21103344.514 8 110898797.313 8  86414669.702 8  21103351.368 8  21103344.264 8
  21103352.783 7  21103347.100 6  82814033.459 6

  20575781.488 8 108126463.292 8  84254414.111 6  20575785.822 6  20575781.059 6
  20575786.838 8  20575785.207 6  80743804.598 6

  24584810.856 3


  37076864.900 8 194840264.511 8


  37125483.072 7 195095728.415 7


  21489399.499 7 112927580.863 7  87995561.708 8  21489405.726 8  21489398.914 8
  21489406.781 7  21489401.383 5  84329031.041 5

  24875510.166 7 130721704.208 7

  24875517.158 8 100163412.010 8
  24908077.537 7 130892830.986 7
                  24908081.273 5  97744663.24415  24908075.778 5 106244176.495 5
  24908085.097 8 100294533.508 8
  23110356.884 6 121445701.954 6  94633040.952 5  23110367.141 5  23110356.214 5
  23110367.837 6

  19377397.593 7 103292433.409 7


  21067262.844 8 110709218.720 8  86266948.793 6  21067266.255 6  21067261.820 6


  24871450.583 5 130700340.154 5 101844466.682 4  24871462.661 4  24871450.302 4
  24871464.509 5

  24061375.405 8 126443374.221 8
                  24061379.259 5  94422010.531 5  24061373.308 6 102632602.869 6
  24061382.878 8  96885207.237 8  24061381.299 8  95653614.955 8
  27567469.514 6 144867959.303 6

  27567481.917 6 111002735.190 6
  24523443.520 7 128871606.445 7
                  24523447.582 5  96235277.672 5  24523443.773 5 104603560.039 5
  24523451.297 8  98745825.677 8  24523449.702 8  97490519.23218
  37209366.173 8 195536514.090 8


  28090213.309 4 147615068.006 4

  28090229.611 6 113107718.401 6
  20259934.643 7 108452993.667 7  84352372.753 7
  20259947.094 7

  19976673.970 7 106974192.463 7  83202209.767 8
  19976684.714 8

  27160018.975 6 142726825.735 6

  27160029.587 6 109362133.025 6
  21668061.664 7 115706189.096 7  89993736.847 7
  21668074.879 7

  20890302.430 7 111631532.339 7  86824622.393 7
  20890314.275 7

  23857832.835 5 127533802.283 5  99193030.472 5
  23857848.607 5

  22848623.556 7 120070367.878 7  93561376.554 6  22848629.071 6  22848623.029 6
  22848630.044 6

 24 11 23 19  1  0.0000000  0 24G03G04S31S35G09E29E30G26R10G16G06G30
                                E07E26E27S33E21R07R08E33R09R11R01G07
  21117483.660 8 110973097.818 8  86472566.131 8  21117490.460 8  21117483.406 8
  21117491.790 7  21117485.953 5  82869517.524 5

  20572294.304 8 108108139.090 8  84240135.499 6  20572298.935 6  20572293.871 6
  20572299.805 8  20572298.501 6  80730120.934 6

  37076867.766 8 194840270.559 8


  37125476.392 7 195095694.100 7


  21477644.668 7 112865810.308 7  87947428.869 8  21477651.092 8  21477644.083 8
  21477652.365 7  21477646.866 5  84282903.755 5

  24866902.182 7 130676468.760 7

  24866909.059 8 100128751.145 8
  24912138.240 7 130914170.290 7
                  24912142.186 5  97760598.407 5  24912136.553 5 106261497.333 5
  24912145.839 8 100310884.381 8
  23127222.491 6 121534331.842 6  94702103.039 5  23127232.935 5  23127221.839 5
  23127233.807 6

  19382380.569 7 103318996.147 7


  21071514.049 8 110731559.894 8  86284357.495 6  21071517.727 6  21071513.030 6


  24876343.093 5 130726050.397 5 101864500.564 4  24876355.179 4  24876342.879 4
  24876356.770 5

  25707359.306 5 135093081.52115


  24063406.077 8 126454045.617 8
                  24063409.990 5  94429979.412 5  24063404.073 6 102641264.719 6
  24063413.623 8  96893384.008 8  24063411.971 8  95661687.784 8
  27581927.860 6 144943936.637 6

  27581940.085 6 111060951.370 6
  24512137.275 7 128812192.446 7
                  24512141.824 5  96190910.159 5  24512137.493 5 104555334.405 5
  24512145.071 8  98700300.742 8  24512143.495 8  97445573.010 8
  37209365.833 7 195536525.472 7


  28072525.478 5 147522121.029 5

  28072542.173 6 113036499.717 6
  20267937.617 7 108495834.406 7  84385693.284 7
  20267950.131 7

  19965970.255 7 106916878.362 7  83157632.195 8
  19965981.397 8

  27168127.608 6 142769438.888 6

  27168138.825 6 109394784.502 6
  21687877.918 7 115812005.686 7  90076038.453 7
  21687891.482 7

  20873311.048 7 111540737.791 7  86754004.517 7
  20873323.375 7

  23836706.117 6 127420883.807 6  99105205.076 5
  23836727.945 5

  22839152.814 7 120020599.477 7  93522596.024 6  22839158.385 6  22839152.305 6
  22839159.627 6

 24 11 23 19  1 30.0000000  0 24G03G04S31S35G09E29E30G26R10G16G06G30
                                E07E26E27S33E21R07R08E33R09R11R01G07
  21131708.542 8 111047849.190 8  86530813.887 8  21131715.210 8  21131708.288 8
  21131716.537 7  21131710.883 6  82925338.280 6

  20568854.700 8 108090063.817 8  84226050.860 6  20568859.475 6  20568854.271 6
  20568860.149 8  20568858.806 6  80716623.150 6

  37076866.040 8 194840279.050 8


  37125471.088 8 195095661.959 8


  21465918.545 7 112804189.536 7  87899412.751 8  21465925.223 8  21465917.960 8
  21465926.007 7  21465920.588 5  84236888.330 5

  24858300.963 7 130631270.175 7

  24858307.997 8 100094118.523 8
  24916276.618 7 130935917.694 7
                  24916280.418 5  97776838.320 5  24916274.688 5 106279149.436 5
  24916284.094 8 100327547.952 8  24916282.554 8  99052185.19918
  23144153.830 6 121623305.325 6  94771432.861 6  23144164.139 6  23144153.178 6
  23144165.513 6

  19387494.586 7 103346256.127 7


  21075890.739 8 110754559.481 8  86302279.235 6  21075894.524 6  21075889.720 6


  24881315.874 5 130752184.516 5 101884864.708 4  24881328.182 4  24881315.687 4
  24881329.250 6

  25692365.393 5 135014295.412 5 105206008.06213  25692380.753 3  25692365.067 3


  24065463.482 8 126464857.604 8
                  24065467.266 5  94438053.298 5  24065461.669 5 102650040.663 5
  24065471.031 8  96901668.504 8  24065469.404 8  95669866.972 8
  27596385.840 6 145019912.890 6

  27596397.854 6 111119166.732 6
  24500891.980 7 128753098.482 7
                  24500896.235 5  96146781.630 5  24500892.063 5 104507368.607 5
  24500899.754 8  98655021.030 8  24500898.272 8  97400868.889 8
  37209372.049 8 195536537.624 8


  28054838.306 5 147429177.447 5

  28054855.092 6 112965283.649 6
  20276039.158 7 108539204.297 7  84419425.390 7
  20276051.678 7

  19955339.083 7 106859950.059 7  83113354.686 8
  19955350.583 8

  27176294.631 6 142812356.077 6

  27176305.564 6 109427668.951 6
  21707744.372 7 115918089.271 7  90158547.694 7
  21707757.537 7

  20856416.467 7 111450460.819 7  86683789.204 7
  20856429.595 7

  23815569.362 5 127307887.656 5  99017319.240 5
  23815588.024 5

  22829721.703 7 119971036.310 7  93483975.421 6  22829726.830 6  22829721.230 6
  22829727.978 6

 24 11 23 19  2  0.0000000  0 24G03G04S31S35G09E29E30G26R10G16G06G30
                                E07E26E27S33E21R07R08E33R09R11R01G07
  21146018.167 8 111123048.038 8  86589410.321 8  21146024.997 8  21146017.917 8
  21146026.587 7  21146021.029 6  82981493.163 6

  20565462.443 8 108072237.586 8  84212160.284 6  20565467.012 6  20565462.014 6
  20565467.922 8  20565466.642 6  80703311.357 6

  37076871.786 8 194840287.400 8


  37125465.016 7 195095630.617 7


  21454221.238 7 112742718.898 7  87851513.615 8  21454227.722 8  21454220.653 8
  21454228.863 7  21454223.220 5  84190984.993 5

  24849707.089 7 130586107.890 7
                                                  24849707.129 5 105995209.09315
  24849713.899 8 100059513.718 8
  24920492.251 7 130958071.297 7
                  24920496.343 5  97793381.569 5  24920490.899 5 106297131.223 5
  24920499.901 8 100344522.759 8  24920498.252 8  99068944.222 8
  23161149.997 6 121712618.529 6  94841027.381 5  23161160.226 5  23161149.345 5
  23161161.162 6

  19392738.308 7 103374209.858 7


  21080392.498 8 110778215.277 8  86320712.301 6  21080396.254 6  21080391.474 6


  24886369.315 5 130778739.414 5 101905556.737 4  24886381.357 4  24886369.231 4
  24886382.477 6

  25677394.188 5 134935616.561 5 105144700.044 2  25677408.437 2  25677393.375 2


  24067547.618 8 126475809.763 8
                  24067551.210 5  94446231.831 5  24067545.532 6 102658930.395 6
  24067555.203 8  96910060.403 8  24067553.579 8  95678152.191 8
  27610842.601 6 145095884.766 6

  27610855.240 6 111177378.728 6
  24489707.776 7 128694324.817 7
                  24489711.957 5  96102892.283 5  24489707.782 5 104459662.769 5
  24489715.539 8  98609986.736 8  24489713.939 8  97356407.072 8
  37209368.664 8 195536551.457 8


  28037152.764 5 147336237.889 5

  28037169.092 6 112894070.553 6
  20284239.487 7 108583102.474 7  84453568.381 7
  20284252.459 7

  19944780.413 7 106803409.595 7  83069378.805 8
  19944792.246 8

  27184518.950 6 142855574.428 6

  27184529.706 6 109460784.172 6
  21727658.812 7 116024434.452 7  90241260.407 7
  21727672.362 7

  20839619.522 7 111360702.482 7  86613977.271 7
  20839631.948 7

  23794416.358 5 127194814.993 5  98929373.830 5
  23794436.001 5

  22820328.632 7 119921676.931 7  93445513.624 6  22820334.231 6  22820328.185 6
  22820335.147 6

 24 11 23 19  2 30.0000000  0 24G03G04S31S35G09E29E30G26R10G16G06G30
                                E07E26E27S33E21R07R08E33R09R11R01G07
  21160412.145 8 111198689.104 8  86648351.343 8  21160419.141 8  21160411.895 8
  21160420.554 7  21160414.969 6  83037978.281 6

  20562117.319 8 108054658.724 8  84198462.466 6  20562121.943 6  20562116.890 6
  20562122.723 8  20562121.313 6  80690184.265 6

  37076871.545 8 194840294.247 8


  37125458.188 7 195095597.393 7


  21442551.838 7 112681396.904 7  87803730.307 8  21442558.478 8  21442551.244 8
  21442559.353 7  21442554.299 5  84145192.685 5

  24841119.331 7 130540979.589 7
                                                  24841119.382 5 105958579.011 5
  24841126.202 8 100024934.942 8
  24924784.601 7 130980627.433 7
                  24924788.508 5  97810225.377 5  24924782.776 5 106315439.756 5
  24924792.386 8 100361805.996 8  24924790.562 8  99086007.753 8
  23178208.743 6 121802265.722 6  94910882.162 6  23178219.641 6  23178208.086 6
  23178220.494 6

  19398111.987 7 103402851.958 7


  21085018.270 8 110802523.628 8  86339653.847 6  21085022.139 6  21085017.251 6


  24891501.743 5 130805710.201 5 101926572.830 4  24891514.364 4  24891501.681 4
  24891515.416 5

  25662441.358 5 134857042.336 5 105083473.552 2  25662455.304 2  25662440.455 2


  24069658.074 8 126486899.870 8
                  24069661.816 5  94454513.386 5  24069656.126 6 102667932.095 6
  24069665.701 8  96918557.995 8  24069663.938 8  95686541.761 8
  27625297.845 6 145171847.246 6

  27625310.815 6 111235583.548 6
  24478584.131 7 128635869.799 7
                  24478588.533 5  96059240.911 5  24478584.198 5 104412215.583 5
  24478591.831 8  98565196.614 8  24478590.224 8  97312186.322 8
  37209372.728 8 195536563.543 8


  28019467.092 5 147243300.944 5

  28019483.602 6 112822859.463 6
  20292538.603 7 108627526.355 7  84488120.258 7
  20292550.864 7

  19934295.447 7 106747257.377 7  83025704.925 8
  19934305.932 8

  27192800.038 6 142899089.216 6

  27192810.342 6 109494126.514 6
  21747622.080 7 116131034.906 7  90324171.671 7
  21747636.055 7

  20822919.720 7 111271462.223 7  86544568.286 7
  20822931.613 7

  23773250.945 5 127081664.648 5  98841367.999 5
  23773268.213 5

  22810973.766 7 119872517.852 7  93407207.917 6  22810979.579 6  22810973.310 6
  22810980.452 6

 24 11 23 19  3  0.0000000  0 24G03G04S31S35G09E29E30G26R10G16G06G30
                                E07E26E27S33E21R07R08E33R09R11R01G07
  21174891.718 8 111274779.316 8  86707642.347 8  21174898.792 8  21174891.468 8
  21174900.107 7  21174894.480 6  83094798.835 6

  20558821.340 8 108037337.706 8  84184965.567 6  20558825.977 6  20558820.907 6
  20558826.671 8  20558825.455 6  80677249.749 6

  37076874.022 8 194840307.167 8


  37125453.072 7 195095571.340 7


  21430913.016 7 112620234.240 7  87756071.145 8  21430919.542 8  21430912.422 8
  21430920.526 7  21430915.074 5  84099519.327 5

  24832539.801 7 130495895.042 7
                                                  24832540.415 5 105921984.458 5
  24832546.771 8  99990389.696 8
  24929155.064 7 131003594.448 7
                  24929158.736 5  97827376.031 5  24929153.552 5 106334081.777 5
  24929162.801 8 100379404.059 8  24929161.064 8  99103382.113 8
  23195332.958 6 121892253.327 6  94981002.184 5  23195343.639 5  23195332.288 5
  23195345.089 6

  19403615.754 7 103432189.126 7


  21089769.687 8 110827492.691 8  86359110.229 6  21089773.435 6  21089768.663 6


  24896714.098 6 130833104.173 6 101947918.676 4  24896727.293 4  24896714.018 4
  24896729.570 5

  25647510.016 5 134778582.202 5 105022335.978 3  25647524.593 3  25647509.073 3


  24071796.632 8 126498137.831 8
                  24071800.246 5  94462905.341 5  24071794.578 6 102677053.795 6
  24071804.223 8  96927168.879 8  24071802.456 8  95695043.186 8
  27639752.865 6 145247807.386 6

  27639765.715 6 111293786.582 6
  24467523.081 7 128577743.987 7
                  24467526.706 5  96015835.372 5  24467523.096 5 104365035.595 5
  24467530.890 8  98520658.743 8  24467529.129 8  97268214.617 8
  37209379.020 8 195536581.980 8


  28001783.998 5 147150377.441 5

  28001800.592 6 112751658.652 6
  20300938.061 7 108672485.762 7  84523088.646 7
  20300950.076 7

  19923883.096 7 106691505.982 7  82982342.769 8
  19923894.720 8

  27201138.068 6 142942907.865 6

  27201148.749 6 109527701.699 6
  21767633.728 7 116237896.023 7  90407285.673 7
  21767647.544 7

  20806318.309 7 111182751.374 7  86475571.052 7
  20806330.471 7

  23752068.127 5 126968448.251 5  98753310.913 5
  23752088.273 5

  22801658.720 7 119823568.110 7  93369065.345 7  22801664.626 7  22801658.255 7
  22801665.673 6

 24 11 23 19  3 30.0000000  0 26G08G03G04S31S35G09E29E30G26R10G16G06
                                G30E07E08E26E27S33E21R07R08E33R09R11
                                R01G07
  25040217.814 5 131587232.54615


  21189453.149 8 111351299.425 8  86767268.338 8  21189460.184 8  21189452.895 8
  21189461.237 7  21189456.037 6  83151940.398 6

  20555571.441 8 108020258.905 8  84171657.421 6  20555575.930 6  20555571.008 6
  20555576.834 8  20555575.334 6  80664496.096 6

  37076872.037 8 194840310.238 8


  37125446.964 7 195095535.785 7


  21419301.497 7 112559215.471 7  87708524.105 8  21419308.111 8  21419300.898 8
  21419308.786 7  21419303.759 5  84053953.406 5

  24823965.929 7 130450838.006 7
                  24823968.691 5  97414587.89015  24823965.543 5 105885412.206 5
  24823972.716 8  99955865.513 8
  24933600.467 7 131026954.681 7
                  24933604.442 5  97844820.323 5  24933599.082 5 106353042.962 5
  24933608.053 8 100397303.420 8  24933606.433 8  99121053.936 8
  23212518.534 6 121982561.693 6  95051372.133 5  23212528.997 5  23212517.864 5
  23212530.385 6

  19409245.534 7 103462201.549 7


  21094643.547 8 110853104.439 8  86379067.398 6  21094646.985 6  21094642.523 6


  24902004.052 6 130860902.432 6 101969579.567 4  24902016.972 4  24902003.900 4
  24902017.759 5

  25632598.781 5 134700219.337 5 104961274.128 3  25632612.053 3  25632597.789 3


  24073960.149 8 126509507.460 8
                  24073963.748 5  94471395.627 5  24073958.241 5 102686282.367 5
  24073967.849 8  96935880.641 8  24073966.064 8  95703644.203 8


  27456562.956 4
  27654203.259 6 145323746.186 6

  27654216.227 6 111351973.260 6
  24456521.661 7 128519931.796 7
                  24456525.714 5  95972664.036 5  24456521.822 5 104318110.204 5
  24456529.466 8  98476361.192 8  24456527.734 8  97224480.176 8
  37209381.980 8 195536590.720 8


  27984100.611 5 147057452.198 5

  27984117.173 6 112680456.422 6
  20309433.418 7 108717963.595 7  84558460.259 7
  20309445.548 7

  19913544.930 7 106636141.286 7  82939281.387 8
  19913555.811 8

  27209530.728 6 142987011.702 6

  27209541.945 6 109561495.386 6
  21787690.606 7 116344997.417 7  90490586.554 7
  21787704.337 7

  20789813.288 7 111094555.453 7  86406974.321 7
  20789825.875 7

  23730878.476 5 126855150.675 5  98665190.604 5
  23730894.433 5

  22792380.468 7 119774809.869 7  93331071.998 7  22792386.022 7  22792379.999 7
  22792386.996 6

 24 11 23 19  4  0.0000000  0 26G08G03G04S31S35G09E29E30G26R10G16G06
                                G30E07E08E26E27S33E21R07R08E33R09R11
                                R01G07
  25024700.949 5 131505684.583 5 102472035.36413  25024719.090 3  25024700.511 3
  25024721.135 5

  21204098.784 8 111428262.999 8  86827239.888 8  21204105.915 8  21204098.530 8
  21204107.284 7  21204101.502 5  83209413.116 5

  20552370.581 8 108003439.446 8  84158551.363 6  20552375.393 6  20552370.148 6
  20552376.025 8  20552374.626 6  80651936.140 6

  37076875.618 8 194840319.621 8


  37125441.692 7 195095506.513 7


  21407720.436 8 112498357.951 8  87661102.708 8  21407726.984 8  21407719.842 8
  21407728.109 7  21407722.813 5  84008507.924 5

  24815399.954 7 130405824.926 7
                  24815402.908 5  97380974.287 5  24815400.155 5 105848875.672 5
  24815406.891 8  99921375.014 8
  24938123.461 7 131050723.190 7
                  24938127.496 5  97862569.485 5  24938121.770 5 106372335.573 5
  24938131.079 8 100415515.622 8  24938129.502 8  99139034.620 8
  23229767.385 6 122073203.916 6  95122002.236 5  23229777.869 5  23229766.710 5
  23229779.131 6

  19415005.363 7 103492903.026 7


  21099642.317 8 110879373.823 8  86399537.010 6  21099646.053 6  21099641.289 6


  24907374.272 5 130889118.832 5 101991566.281 4  24907386.724 4  24907374.040 4
  24907387.956 6

  25617707.532 5 134621969.848 5 104900300.608 3  25617721.188 3  25617706.531 3


  24076151.985 8 126521025.322 8
                  24076155.714 5  94479996.594 5  24076150.179 5 102695631.265 5
  24076159.596 8  96944705.991 8  24076157.897 8  95712357.364 8


  27466752.192 3
  27668652.912 6 145399677.481 6

  27668665.775 6 111410154.184 6
  24445583.334 7 128462450.400 7
                  24445587.513 5  95929739.717 5  24445583.801 5 104271453.308 5
  24445590.946 8  98432317.098 8  24445589.309 8  97180995.970 8
  37209382.870 8 195536605.224 8


  27966420.070 5 146964542.614 5

  27966436.951 6 112609266.205 6
  20318028.373 7 108763976.313 7  84594247.922 7
  20318041.503 7

  19903281.469 7 106581182.412 7  82896535.655 8
  19903292.635 8

  27217980.804 6 143031414.845 6

  27217991.892 6 109595518.420 6
  21807794.388 7 116452351.014 7  90574083.608 7
  21807808.253 7

  20773408.549 7 111006892.075 7  86338791.789 7
  20773420.888 7

  23709667.084 6 126741790.264 6  98577021.420 5
  23709688.140 5

  22783141.134 7 119726259.014 7  93293240.255 7  22783147.158 7  22783140.665 7
  22783147.752 7

 24 11 23 19  4 30.0000000  0 26G08G03G04S31S35G09E29E30G26R10G16G06
                                G30E07E08E26E27S33E21R07R08E33R09R11
                                R01G07
  25009155.555 5 131423996.889 5 102408383.056 3  25009175.149 3  25009154.438 3
  25009175.948 4

  21218827.708 8 111505664.122 8  86887552.388 8  21218835.077 8  21218827.454 8
  21218836.196 7  21218830.749 5  83267212.569 5

  20549218.978 8 107986877.078 8  84145645.633 7  20549223.713 7  20549218.545 7
  20549224.332 8  20549222.870 6  80639568.156 6

  37076880.537 8 194840330.785 8


  37125435.745 7 195095480.178 7


  21396170.313 7 112437659.641 7  87613805.366 8  21396176.457 8  21396169.719 8
  21396177.380 7  21396172.269 5  83963181.307 5

  24806842.122 7 130360852.916 7
                  24806844.814 5  97347391.372 5  24806842.240 5 105812372.459 5
  24806848.866 8  99886915.987 8  24806847.151 8  98617135.73218
  24942723.361 7 131074895.576 7
                  24942727.366 5  97880620.259 5  24942722.161 5 106391955.968 5
  24942731.099 8 100434037.272 8  24942729.420 8  99157320.824 8
  23247078.751 6 122164173.678 6  95192887.566 5  23247089.085 5  23247078.085 5
  23247089.582 6

  19420893.073 7 103524287.434 7


  21104765.551 7 110906296.274 7  86420515.505 6  21104769.513 6  21104764.523 6


  24912820.977 5 130917747.822 5 102013874.486 4  24912835.101 4  24912820.741 4
  24912836.300 6

  25602837.870 5 134543830.491 5 104839412.878 3  25602852.050 3  25602836.864 3


  24078371.480 8 126532688.619 8
                  24078375.386 5  94488706.150 5  24078369.563 5 102705098.205 5
  24078379.017 8  96953642.774 8  24078377.369 8  95721180.541 8


  27476966.066 3
  27683100.049 6 145475595.519 6

  27683113.022 6 111468324.945 6
  24434707.273 7 128405297.549 7
                  24434711.346 5  95887060.750 5  24434707.833 5 104225063.069 5
  24434714.976 8  98388524.753 8  24434713.358 8  97137760.314 8
  37209383.067 8 195536622.898 8


  27948742.712 5 146871646.827 5

  27948759.438 6 112538086.542 6
  20326723.280 7 108810520.522 7  84630448.935 7
  20326736.393 7

  19893094.670 7 106526629.299 7  82854105.485 8
  19893105.224 8

  27226486.392 6 143076111.943 6

  27226497.742 6 109629766.709 6
  21827944.759 7 116559949.892 7  90657771.427 7
  21827958.556 7

  20757102.826 8 110919760.242 8  86271022.666 8
  20757115.256 8

  23688450.559 5 126628365.593 5  98488802.335 5
  23688469.047 5

  22773940.897 7 119677911.212 7  93255566.744 7  22773946.925 7  22773940.410 7
  22773947.703 6

 24 11 23 19  5  0.0000000  0 25G08G03G04S31S35G09E29E30G26R10G16G06
                                G30E07E26E27S33E21R07R08E33R09R11R01
                                G07
  24993584.094 5 131342167.302 5 102344620.152 2  24993602.549 2  24993583.307 2
  24993601.964 4

  21233638.837 7 111583495.563 7  86948200.195 8  21233645.950 8  21233638.578 8
  21233647.119 7  21233641.770 6  83325333.385 6

  20546115.353 8 107970568.175 8  84132937.408 7  20546120.193 7  20546114.920 7
  20546121.018 8  20546119.577 6  80627389.444 6

  37076882.545 8 194840339.966 8


  37125431.215 7 195095450.687 7


  21384649.263 7 112377117.160 7  87566629.444 8  21384655.643 8  21384648.664 8
  21384656.653 7  21384651.310 5  83917971.085 5

  24798291.266 7 130315917.713 7
                  24798294.277 5  97313835.857 5  24798290.869 5 105775899.085 5
  24798297.975 8  99852485.145 8  24798296.183 8  98583142.571 8
  24947399.074 7 131099466.155 7
                  24947402.969 5  97898968.363 5  24947397.312 5 106411899.571 5
  24947406.677 8 100452864.035 8  24947405.114 8  99175908.260 8
  23264450.122 6 122255463.321 6  95264022.158 5  23264460.972 5  23264449.443 5
  23264461.680 6

  19426907.431 7 103556348.003 7


  21110011.718 7 110933865.483 7  86441997.954 6  21110015.594 6  21110010.690 6


  24918346.255 5 130946782.593 5 102036498.874 4  24918360.833 4  24918345.987 4
  24918361.950 5

  25587989.119 5 134465796.538 5 104778607.195 3  25588002.856 3  25587988.248 3


  24080617.810 8 126544493.170 8
                  24080621.788 5  94497521.226 5  24080615.652 5 102714679.801 5
  24080625.370 8  96962687.789 8  24080623.787 8  95730110.573 8
  27697542.915 6 145551493.392 6

  27697556.055 6 111526480.251 6
  24423893.229 8 128348469.651 8
                  24423897.358 5  95844624.438 5  24423893.642 5 104178936.621 5
  24423900.943 8  98344981.405 8  24423899.284 8  97094770.488 8
  37209385.522 7 195536637.168 7


  27931067.355 5 146778761.624 5

  27931083.430 6 112466914.966 6
  20335516.492 7 108857591.236 7  84667059.467 7
  20335529.231 7

  19882981.442 7 106472479.929 7  82811989.346 7
  19882992.990 7

  27235047.106 6 143121096.363 6

  27235057.991 6 109664235.149 6
  21848138.923 7 116667784.897 7  90741642.897 7
  21848152.759 7

  20740896.432 8 110833157.054 8  86203664.711 7
  20740908.526 7

  23667215.589 5 126514874.263 5  98400531.286 5
  23667239.789 5

  22764778.050 7 119629761.327 7  93218047.459 6  22764784.096 6  22764777.550 6
  22764785.061 6

 24 11 23 19  5 30.0000000  0 25G08G03G04S31S35G09E29E30G26R10G16G06
                                G30E07E26E27S33E21R07R08E33R09R11R01
                                G07
  24977983.917 5 131260194.760 5 102280745.875 2  24978002.663 2  24977983.086 2
  24978003.653 4

  21248530.311 8 111661751.356 8  87009178.668 8  21248537.374 8  21248530.052 8
  21248538.609 7  21248533.004 6  83383771.077 6

  20543059.816 8 107954510.463 8  84120424.922 6  20543064.313 6  20543059.378 6
  20543065.306 8  20543063.824 6  80615398.305 6

  37076879.129 8 194840342.826 8


  37125422.795 7 195095415.986 7


  21373157.625 8 112316728.449 8  87519573.344 8  21373164.025 8  21373157.022 8
  21373165.097 7  21373159.688 5  83872875.646 5

  24789746.743 7 130271016.355 7
                  24789749.983 5  97280305.659 5  24789746.531 5 105739453.219 5
  24789753.464 8  99818080.230 8  24789751.668 7  98549175.010 7
  24952149.614 7 131124430.492 7
                  24952153.801 5  97917610.504 5  24952148.180 5 106432162.808 5
  24952157.179 8 100471992.512 8  24952155.668 8  99194793.576 8
  23281881.958 6 122347066.493 6  95335401.057 5  23281892.788 5  23281881.274 5
  23281893.965 6

  19433047.094 7 103589077.125 7


  21115380.233 8 110962076.789 8  86463980.743 6  21115384.135 6  21115379.214 6


  24923947.947 6 130976217.404 6 102059435.009 4  24923961.379 4  24923947.634 4
  24923962.595 5

  25573158.486 5 134387864.662 5 104717881.024 3  25573172.961 3  25573157.677 3


  24082890.462 8 126556436.102 8
                  24082894.336 5  94506439.621 5  24082888.587 5 102724373.728 5
  24082898.144 8  96971838.842 8  24082896.498 8  95739145.296 8
  27711980.850 5 145627365.395 5

  27711994.256 6 111584615.727 6
  24413140.590 7 128291964.410 7
                  24413144.681 5  95802429.077 5  24413140.976 5 104133072.081 5
  24413148.320 8  98301685.283 8  24413146.619 8  97052024.748 8
  37209390.937 8 195536646.303 8
                  37209369.341 4 146017557.31714

  27913392.852 5 146685885.034 5

  27913409.560 6 112395750.040 6
  20344408.009 7 108905185.478 7  84704077.184 7
  20344420.503 7

  19872945.378 7 106418733.835 7  82770186.874 7
  19872956.083 7

  27243660.900 6 143166362.704 6

  27243672.346 6 109698919.628 6
  21868375.968 7 116775849.222 7  90825692.723 7
  21868389.839 7

  20724788.223 8 110747081.103 8  86136716.811 8
  20724800.911 8

  23645975.758 5 126401314.310 5  98312207.016 5
  23645995.766 5

  22755652.461 7 119581805.430 7  93180679.332 6  22755658.038 6  22755651.956 6
  22755658.916 6

 24 11 23 19  6  0.0000000  0 25G08G03G04S31S35G09E29E30G26R10G16G06
                                G30E07E26E27S33E21R07R08E33R09R11R01
                                G07
  24962360.000 5 131178089.507 5 102216768.161 3  24962378.071 3  24962359.137 3
  24962377.897 4

  21263503.564 8 111740436.737 8  87070491.889 8  21263510.638 8  21263503.305 8
  21263512.079 7  21263506.380 6  83442529.563 6

  20540053.588 8 107938712.811 8  84108115.087 7  20540058.032 7  20540053.155 7
  20540058.959 8  20540057.762 6  80603601.395 6

  37076884.843 8 194840347.111 8


  37125417.796 7 195095382.523 7


  21361697.024 7 112256502.668 7  87472644.204 8  21361703.274 8  21361696.421 8
  21361704.358 7  21361699.332 6  83827901.892 6

  24781210.298 7 130226157.111 7
                  24781213.401 5  97246806.912 5  24781209.967 5 105703041.493 5
  24781217.006 8  99783707.602 8  24781215.229 8  98515239.323 8
  24956976.377 7 131149795.317 7
                  24956980.795 5  97936551.736 5  24956974.897 5 106452751.106 5
  24956983.915 8 100491427.855 8  24956982.462 8  99213981.855 8
  23299374.237 6 122438988.012 6  95407028.034 5  23299385.127 5  23299373.567 5
  23299386.111 6

  19439313.841 7 103622480.582 7


  21120872.154 8 110990936.887 8  86486469.085 6  21120876.253 6  21120871.130 6


  24929626.154 5 131006057.866 5 102082687.221 4  24929639.692 4  24929625.824 4
  24929641.559 5

  25558348.801 5 134310042.714 5 104657240.484 2  25558363.716 2  25558348.064 2
  25558365.415 4

  24085191.082 8 126568525.757 8
                  24085194.976 5  94515467.575 5  24085189.026 5 102734186.724 5
  24085198.798 8  96981102.313 8  24085197.090 8  95748291.010 8
  27726414.880 6 145703217.025 6

  27726428.432 6 111642735.594 6
  24402451.122 7 128235790.695 7
                  24402454.933 5  95760481.294 5  24402451.501 5 104087476.611 5
  24402458.677 8  98258643.202 8  24402456.960 8  97009529.820 8
  37209388.764 8 195536656.251 8


  27895722.230 6 146593026.273 6

  27895738.771 6 112324598.767 6
  20353398.413 7 108953310.841 7  84741507.999 7
  20353410.949 7

  19862985.934 7 106365401.770 7  82728706.430 8
  19862997.243 8

  27252329.666 6 143211916.759 6

  27252341.123 6 109733824.548 6
  21888656.833 7 116884146.749 7  90909923.943 7
  21888670.661 7

  20708780.502 8 110661541.838 8  86070186.342 8
  20708792.888 8

  23624721.842 5 126287695.654 5  98223837.004 5
  23624737.776 5

  22746565.118 7 119534050.308 7  93143467.655 7  22746570.413 7  22746564.618 7
  22746571.237 6

 24 11 23 19  6 30.0000000  0 25G08G03G04S31S35G09E29E30G26R10G16G06
                                G30E07E26E27S33E21R07R08E33R09R11R01
                                G07
  24946712.022 5 131095860.912 5 102152694.300 2  24946730.174 2  24946711.280 2
  24946730.546 4

  21278559.640 8 111819556.111 8  87132143.285 8  21278566.667 8  21278559.386 8
  21278568.262 7  21278562.459 6  83501612.139 6

  20537098.331 8 107923183.331 8  84096014.211 6  20537103.067 6  20537097.893 6
  20537103.668 8  20537102.699 6  80592004.717 6

  37076882.603 8 194840359.866 8


  37125412.850 7 195095358.439 7


  21350269.017 7 112196448.109 7  87425848.476 8  21350275.175 8  21350268.414 8
  21350276.191 7  21350271.259 5  83783055.983 5

  24772683.281 7 130181347.473 7
                  24772686.193 5  97213345.203 5  24772683.385 5 105666670.048 5
  24772689.974 8  99749372.967 8  24772688.171 8  98481341.151 8
  24961880.533 7 131175566.613 7
                  24961884.533 5  97955796.509 5  24961878.882 5 106473669.345 5
  24961888.197 8 100511174.653 8  24961886.540 7  99233477.641 7
  23316927.808 6 122531231.880 6  95478906.178 5  23316938.978 5  23316927.142 5
  23316939.477 6

  19445707.313 7 103656562.703 7


  21126488.759 8 111020451.390 8  86509467.357 6  21126492.571 6  21126487.735 6


  24935383.912 5 131036308.684 5 102106259.207 4  24935397.026 4  24935383.564 4
  24935397.779 5

  25543562.369 5 134232337.802 5 104596691.197 3  25543576.714 3  25543561.636 3
  25543577.747 4

  24087521.010 8 126580769.673 8
                  24087524.840 5  94524610.726 5  24087519.331 5 102744124.932 5
  24087528.704 8  96990483.989 8  24087527.065 8  95757553.426 8
  27740846.484 6 145779053.039 6

  27740859.733 6 111700843.518 6
  24391826.069 7 128179956.591 7
                  24391830.024 5  95718787.151 5  24391826.530 5 104042156.801 5
  24391833.626 8  98215861.340 8  24391831.964 8  96967291.805 8
  37209397.264 8 195536674.384 8


  27878056.813 6 146500193.833 6

  27878073.175 6 112253467.643 6
  20362489.377 7 109001974.356 7  84779357.374 7
  20362501.535 7

  19853105.945 7 106312494.071 7  82687556.036 8
  19853116.771 8

  27261054.113 6 143257763.550 6

  27261065.606 6 109768953.808 6
  21908981.755 7 116992680.805 7  90994339.121 7
  21908995.497 7

  20692875.765 7 110576548.232 7  86004080.290 8
  20692887.354 8

  23603455.224 5 126174027.851 5  98135428.777 5
  23603476.467 5

  22737516.888 7 119486502.585 7  93106417.589 7  22737522.277 7  22737516.392 7
  22737522.874 6

 24 11 23 19  7  0.0000000  0 25G08G03G04S31S35G09E29E30G26R10G16G06
                                G30E07E26E27S33E21R07R08E33R09R11R01
                                G07
  24931037.706 5 131013494.024 5 102088512.667 3  24931055.478 3  24931036.942 3
  24931056.521 4

  21293694.461 8 111899089.495 8  87194117.289 8  21293701.742 8  21293694.198 8
  21293702.932 7  21293697.420 5  83561003.880 5

  20534191.036 8 107907905.732 8  84084109.611 6  20534195.636 6  20534190.603 6
  20534196.465 8  20534195.312 6  80580596.150 6

  37076884.852 8 194840363.728 8


  37125405.606 7 195095324.538 7


  21338870.577 8 112136548.772 8  87379173.704 8  21338876.947 8  21338869.978 8
  21338877.758 7  21338872.462 5  83738326.007 5

  24764162.539 7 130136570.481 7
                  24764165.674 5  97179907.889 5  24764162.418 5 105630325.121 5
  24764169.224 8  99715063.362 8  24764167.387 8  98447467.685 8
  24966858.592 7 131201725.915 7
                  24966862.861 5  97975331.000 5  24966857.389 5 106494902.504 5
  24966866.131 8 100531218.750 8  24966864.467 7  99253266.941 7
  23334539.028 6 122623777.782 6  95551019.697 5  23334549.672 5  23334538.371 5
  23334550.696 6

  19452225.142 7 103691303.019 7


  21132226.144 8 111050601.410 8  86532960.833 6  21132229.891 6  21132225.120 6


  24941214.347 6 131066950.235 6 102130135.649 4  24941227.656 4  24941213.891 4
  24941229.696 5

  25528794.047 5 134154732.597 5 104536219.550 2  25528808.943 2  25528793.153 2
  25528809.954 4

  24089877.167 8 126593150.990 8
                  24089881.125 5  94533856.486 5  24089875.140 5 102754174.704 5
  24089884.801 8  96999970.949 8  24089883.181 8  95766919.787 8
  27755271.172 6 145854853.787 6

  27755284.249 6 111758924.352 6
  24381262.677 8 128124445.772 8
                  24381266.565 5  95677334.368 5  24381262.710 5 103997099.393 5
  24381270.222 8  98173327.183 8  24381268.521 8  96925298.340 8
  37209395.748 7 195536684.171 7


  27860392.954 6 146407371.752 6

  27860409.229 6 112182344.493 6
  20371676.429 7 109051158.294 7  84817611.537 7
  20371689.631 7

  19843302.908 7 106259995.888 7  82646724.135 8
  19843313.069 8

  27269830.472 6 143303883.703 6

  27269842.443 6 109804292.496 6
  21929347.225 7 117101429.870 7  91078921.538 7
  21929361.058 7

  20677069.033 7 110492085.077 7  85938386.788 8
  20677081.380 8

  23582180.884 5 126060295.270 5  98046970.251 5
  23582200.410 5

  22728504.981 7 119439144.099 7  93069514.978 7  22728510.079 7  22728504.490 7
  22728511.231 6

 24 11 23 19  7 30.0000000  0 25G08G03G04S31S35G09E29E30G26R10G16G06
                                G30E07E26E27S33E21R07R08E33R09R11R01
                                G07
  24915339.351 5 130931004.170 5 102024235.295 2  24915357.820 2  24915338.560 2
  24915358.233 4

  21308909.797 7 111979047.166 7  87256421.905 8  21308917.408 8  21308909.534 8
  21308918.232 7  21308913.090 5  83620712.448 5

  20531334.463 8 107892893.983 8  84072412.172 6  20531338.958 6  20531334.030 6
  20531339.672 8  20531338.592 6  80569386.115 6

  37076885.076 8 194840370.278 8


  37125400.271 7 195095294.112 7


  21327504.283 8 112076818.864 8  87332630.946 8  21327510.721 8  21327503.689 8
  21327511.421 7  21327506.279 5  83693722.530 5

  24755650.475 7 130091839.506 7
                  24755653.514 5  97146504.893 5  24755650.540 5 105594017.515 5
  24755657.201 8  99680789.000 8  24755655.381 8  98413629.013 8
  24971912.549 7 131228285.007 7
                  24971916.358 5  97995164.052 5  24971911.748 5 106516460.208 5
  24971920.167 8 100551569.189 8  24971918.518 7  99273358.686 7
  23352209.487 6 122716635.607 6  95623376.249 6  23352220.366 6  23352208.839 6
  23352221.557 6

  19458867.128 7 103726710.908 7


  21138086.688 8 111081398.508 8  86556958.530 6  21138090.520 6  21138085.660 6


  24947121.029 5 131097993.036 5 102154324.755 4  24947134.589 4  24947120.412 4
  24947137.284 5

  25514048.540 5 134077239.939 5 104475835.678 2  25514063.057 2  25514047.525 2
  25514063.599 4

  24092261.963 8 126605683.092 8
                  24092265.975 5  94543214.860 5  24092260.231 5 102764346.831 5
  24092269.700 8  97009573.448 8  24092267.959 8  95776400.222 8
  27769691.115 5 145930629.818 5

  27769704.291 6 111816986.292 6
  24370763.339 8 128069272.166 8
                  24370767.270 5  95636133.436 5  24370763.884 5 103952315.727 5
  24370770.982 8  98131051.421 8  24370769.231 8  96883559.987 8
  37209400.823 7 195536696.794 7


  27842734.266 6 146314574.356 6

  27842749.890 6 112111240.252 6
  20380964.253 7 109100875.913 7  84856280.788 7
  20380977.148 7

  19833577.449 7 106207923.361 7  82606223.322 8
  19833588.707 8

  27278661.345 6 143350288.069 6

  27278672.909 6 109839848.958 6
  21949754.568 7 117210403.305 7  91163678.458 7
  21949768.507 7

  20661364.462 7 110408167.027 7  85873117.255 8
  20661377.275 8

  23560894.624 5 125946512.877 5  97958472.968 5
  23560915.438 5

  22719530.912 7 119391986.968 7  93032769.261 7  22719536.298 7  22719530.421 7
  22719537.340 6

 24 11 23 19  8  0.0000000  0 25G08G03G04S31S35G09E29E30G26R10G16G06
                                G30E07E26E27S33E21R07R08E33R09R11R01
                                G07
  24899620.688 5 130848394.990 5 101959864.940 2  24899637.138 2  24899619.910 2
  24899638.461 4

  21324205.687 8 112059427.644 8  87319055.986 8  21324213.035 8  21324205.428 8
  21324214.300 7  21324209.053 5  83680736.772 5

  20528528.752 8 107878150.338 8  84060923.644 6  20528533.467 6  20528528.319 6
  20528534.090 8  20528532.965 6  80558376.288 6

  37076889.592 8 194840382.274 8


  37125397.450 7 195095268.668 7


  21316170.784 7 112017260.924 7  87286222.189 8  21316176.871 8  21316170.185 8
  21316177.863 7  21316172.910 5  83649247.477 5

  24747147.589 7 130047156.181 7
                  24747150.278 5  97113137.504 5  24747147.219 5 105557748.638 5
  24747154.308 8  99646551.150 8  24747152.398 8  98379826.393 8
  24977042.693 7 131255243.983 7
                  24977046.546 5  98015295.714 5  24977041.217 5 106538342.433 5
  24977050.347 8 100572226.028 8  24977048.699 7  99293752.934 7
  23369938.890 6 122809803.547 6  95695974.465 5  23369949.930 5  23369938.233 5
  23369950.778 6

  19465634.864 7 103762785.510 7


  21144070.090 7 111112842.088 7  86581459.981 6  21144074.066 6  21144069.053 6


  24953106.247 5 131129436.060 5 102178825.747 4  24953118.483 4  24953105.613 4
  24953119.027 5

  25499323.742 5 133999861.079 5 104415540.488 3  25499338.889 3  25499322.651 3
  25499339.808 5

  24094675.717 8 126618367.675 8
                  24094679.589 5  94552687.086 5  24094673.572 5 102774642.744 5
  24094683.450 8  97019292.778 8  24094681.732 8  95785995.998 8
  27784105.758 5 146006380.102 5

  27784119.233 6 111875028.493 6
  24360328.624 8 128014437.981 8
                  24360332.436 5  95595185.966 5  24360328.735 5 103907807.535 5
  24360336.254 8  98089035.735 8  24360334.503 8  96842078.410 8
  37209400.734 7 195536713.701 7


  27825080.848 6 146221804.218 6

  27825096.066 6 112040156.960 6
  20390352.544 7 109151128.034 7  84895365.769 7
  20390364.753 7

  19823933.852 7 106156280.658 7  82566056.805 8
  19823945.060 8

  27287545.911 6 143396975.760 6

  27287557.151 6 109875622.513 6
  21970203.244 7 117319598.206 7  91248607.625 7
  21970217.297 7

  20645762.785 8 110324796.868 8  85808273.881 8
  20645775.386 8

  23539600.802 5 125832684.094 5  97869939.603 5
  23539619.829 5

  22710595.317 7 119345031.830 7  92996180.940 7  22710601.151 7  22710594.776 7
  22710601.662 6

 24 11 23 19  8 30.0000000  0 26G08G03G04S31S35G09E29E30G26R10G16G06
                                G30E07E26E27S33E21R07R08E33E19R09R11
                                R01G07
  24883874.356 5 130765659.887 5 101895396.458 3  24883893.216 3  24883873.596 3
  24883895.567 5

  21339580.113 8 112140219.326 8  87382010.487 8  21339586.988 8  21339579.854 8
  21339588.513 7  21339583.021 5  83741068.153 5

  20525772.617 8 107863666.894 8  84049637.873 6  20525777.293 6  20525772.179 6
  20525777.962 8  20525776.771 6  80547560.760 6

  37076888.461 8 194840388.871 8


  37125390.264 7 195095238.647 7


  21304868.509 8 111957867.338 8  87239941.511 8  21304874.970 8  21304867.910 8
  21304875.672 7  21304870.472 6  83604895.175 6

  24738651.892 7 130002512.019 7
                  24738654.889 5  97079799.380 5  24738652.165 5 105521511.486 5
  24738658.740 8  99612343.309 8  24738656.901 8  98346053.400 8
  24982246.985 7 131282592.739 7
                  24982251.087 5  98035718.432 5  24982245.560 5 106560541.124 5
  24982254.773 8 100593181.538 8  24982253.033 7  99314442.055 7
  23387724.910 6 122903269.608 6  95768804.992 6  23387736.166 6  23387724.240 6
  23387736.337 6

  19472525.144 7 103799514.826 7


  21150174.892 7 111144922.110 7  86606457.363 6  21150178.600 6  21150173.864 6


  24959162.574 6 131161267.878 6 102203629.704 4  24959175.385 4  24959161.814 4
  24959177.388 5

  25484619.682 5 133922587.079 5 104355327.064 3  25484634.262 3  25484618.663 3
  25484635.470 5

  24097116.924 8 126631196.304 8
                  24097121.112 5  94562266.870 5  24097115.350 6 102785055.571 6
  24097124.716 8  97029122.481 8  24097123.006 8  95795700.743 8
  27798513.636 6 146082093.352 6

  27798527.270 6 111933042.332 6
  24349957.058 8 127959935.275 8
                  24349960.978 5  95554485.996 5  24349956.923 5 103863568.426 5
  24349964.641 8  98047274.039 8  24349962.888 8  96800847.588 8
  37209406.176 7 195536726.334 7


  27807430.758 6 146129053.851 6

  27807446.219 6 111969088.753 6
  20399837.721 7 109201905.455 7  84934859.296 7
  20399850.576 7

  19814369.377 7 106105061.647 7  82526219.831 8
  19814379.898 8

  27296481.967 6 143443935.765 6

  27296493.435 6 109911604.747 6


  27973412.188 5 112637342.55915
  21990690.986 7 117429001.964 7  91333699.228 7
  21990705.516 7

  20630263.153 8 110241967.763 8  85743851.342 8
  20630275.070 8

  23518295.342 5 125718801.944 5  97781364.800 5
  23518315.873 5

  22701696.768 7 119298268.829 7  92959742.333 7  22701702.286 7  22701696.196 7
  22701702.884 6

 24 11 23 19  9  0.0000000  0 26G08G03G04S31S35G09E29E30G26R10G16G06
                                G30E07E26E27S33E21R07R08E33E19R09R11
                                R01G07
  24868108.659 5 130682806.527 5 101830835.798 3  24868127.169 3  24868107.926 3
  24868127.719 5

  21355032.971 8 112221424.694 8  87445287.343 8  21355040.030 8  21355032.712 8
  21355041.411 7  21355035.992 5  83801708.456 5

  20523067.318 8 107849449.927 8  84038559.748 6  20523071.908 6  20523066.885 6
  20523072.642 8  20523071.477 6  80536944.212 6

  37076888.877 8 194840395.569 8


  37125385.443 7 195095208.442 7


  21293598.699 7 111898644.647 7  87193793.990 8  21293605.238 8  21293598.100 8
  21293605.820 7  21293600.812 5  83560670.471 5

  24730165.005 7 129957912.644 7
                  24730167.800 5  97046494.634 5  24730165.244 5 105485310.746 5
  24730171.720 8  99578169.786 8  24730169.945 8  98312314.279 8
  24987526.250 7 131310335.285 7
                  24987530.362 5  98056435.257 5  24987525.064 5 106583059.380 5
  24987534.043 8 100614438.794 8  24987532.320 7  99335429.092 7
  23405568.150 6 122997036.027 6  95841869.540 6  23405579.286 6  23405567.471 6
  23405580.171 6

  19479538.658 7 103836900.678 7


  21156401.364 8 111177642.115 8  86631953.432 6  21156405.137 6  21156400.336 6


  24965294.354 6 131193491.377 6 102228738.854 4  24965306.637 4  24965293.402 4
  24965309.170 5

  25469935.234 5 133845422.991 5 104295199.363 3  25469950.482 3  25469934.210 3
  25469950.427 4

  24099586.587 8 126644174.644 8
                  24099590.567 5  94571958.454 5  24099584.788 5 102795589.925 5
  24099594.474 8  97039066.897 8  24099592.746 8  95805518.747 8
  27812915.405 6 146157772.494 6

  27812928.732 6 111991030.024 6
  24339649.763 7 127905770.210 7
                  24339653.382 5  95514038.196 5  24339649.830 5 103819603.352 5
  24339657.194 8  98005771.049 8  24339655.525 8  96759872.184 8
  37209409.087 8 195536738.206 8


  27789785.586 5 146036329.756 5

  27789800.798 6 111898040.740 6
  20409421.767 7 109253213.370 7  84974765.437 7
  20409434.790 7

  19804884.184 7 106054274.264 7  82486718.551 8
  19804895.777 8

  27305470.630 6 143491171.196 6

  27305482.209 6 109947798.026 6
  27961420.814 5 146938271.06815

  27961434.462 5 112589113.994 5
  22011218.426 7 117538615.740 7  91418954.195 7
  22011233.055 7

  20614864.470 8 110159686.452 8  85679854.849 8
  20614876.979 8

  23496984.549 5 125604873.852 5  97692754.192 5
  23497001.796 5

  22692835.481 7 119251702.534 7  92923457.005 7  22692840.751 7  22692834.878 7
  22692841.817 6

