     3.04           OBSERVATION DATA    M                   RINEX VERSION / TYPE
sbf2rin-13.8.0                          20241124 005301 UTC PGM / RUN BY / DATE 
MGRD                                                        MARKER NAME         
Unknown                                                     MARKER NUMBER       
Unknown             Unknown                                 OBSERVER / AGENCY   
3055064             SEPT POLARX5        5.4.0               REC # / TYPE / VERS 
Unknown             Unknown                                 ANT # / TYPE        
 -2455586.1536 -4767123.7993  3441726.2510                  APPROX POSITION XYZ 
        0.0000        0.0000        0.0000                  ANTENNA: DELTA H/E/N
G   11 C1C L1C C1W C2W L2W C2L L2L C5Q L5Q C1L L1L          SYS / # / OBS TYPES 
E   10 C1C L1C C6C L6C C5Q L5Q C7Q L7Q C8Q L8Q              SYS / # / OBS TYPES 
S    4 C1C L1C C5I L5I                                      SYS / # / OBS TYPES 
R   10 C1C L1C C1P L1P C2P L2P C2C L2C C3Q L3Q              SYS / # / OBS TYPES 
C   12 C1P L1P C5P L5P C2I L2I C7I L7I C6I L6I C7D L7D      SYS / # / OBS TYPES 
SEPTENTRIO RECEIVERS OUTPUT ALIGNED CARRIER PHASES.         COMMENT             
NO FURTHER PHASE SHIFT APPLIED IN THE RINEX ENCODER.        COMMENT             
G L1C                                                       SYS / PHASE SHIFT   
G L2W                                                       SYS / PHASE SHIFT   
G L2L  0.00000                                              SYS / PHASE SHIFT   
G L5Q  0.00000                                              SYS / PHASE SHIFT   
G L1L  0.00000                                              SYS / PHASE SHIFT   
E L1C  0.00000                                              SYS / PHASE SHIFT   
E L6C  0.00000                                              SYS / PHASE SHIFT   
E L5Q  0.00000                                              SYS / PHASE SHIFT   
E L7Q  0.00000                                              SYS / PHASE SHIFT   
E L8Q  0.00000                                              SYS / PHASE SHIFT   
S L1C                                                       SYS / PHASE SHIFT   
S L5I                                                       SYS / PHASE SHIFT   
R L1C                                                       SYS / PHASE SHIFT   
R L1P  0.00000                                              SYS / PHASE SHIFT   
R L2P  0.00000                                              SYS / PHASE SHIFT   
R L2C                                                       SYS / PHASE SHIFT   
R L3Q  0.00000                                              SYS / PHASE SHIFT   
C L1P  0.00000                                              SYS / PHASE SHIFT   
C L5P  0.00000                                              SYS / PHASE SHIFT   
C L2I                                                       SYS / PHASE SHIFT   
C L7I                                                       SYS / PHASE SHIFT   
C L6I                                                       SYS / PHASE SHIFT   
C L7D                                                       SYS / PHASE SHIFT   
    30.000                                                  INTERVAL            
  2024    11    23    17     9   30.0000000     GPS         TIME OF FIRST OBS   
  2024    11    23    18    59   30.0000000     GPS         TIME OF LAST OBS    
    44                                                      # OF SATELLITES     
 C1C    0.000 C1P    0.000 C2C    0.000 C2P    0.000        GLONASS COD/PHS/BIS 
  8 R07  5 R08  6 R09 -2 R10 -7 R11  0 R22 -3 R23  3 R24  2 GLONASS SLOT / FRQ #
                                                            END OF HEADER       
> 2024 11 23 17 09 30.0000000  0 29
C14                                                                  16103338.988 7  83854310.30307  16103341.512 8  64841482.50008  16103333.992 6  68138475.18706
C21  16727620.237 6  87904236.18206  16727623.581 5  65642784.95405  16727620.616 7  87105109.23807                                  16727616.526 6  70780019.37906  16727625.869 7  67355217.17707
C24  16087768.556 7  84541794.43807  16087769.595 5  63131863.10905  16087768.948 8  83773233.17008                                  16087767.574 6  68072609.05806  16087772.401 8  64778793.03908
C26  15095837.292 7  79329159.34607  15095839.503 5  59239317.26105  15095837.124 7  78607983.67307                                  15095836.531 6  63875424.18806  15095842.390 8  60784701.46408
C33  18135122.970 6  95300717.02306  18135154.028 5  71166236.82305  18135124.765 7  94434351.37607                                  18135138.230 5  76735706.86105  18135156.674 7  73022761.15207
E07  16996758.630 7  89318569.42007  16996756.221 5  72498825.88005  16996763.366 6  66698949.31206  16996765.568 8  68438932.36408  16996764.201 8  67568939.40808
E08  18459666.205 6  97006201.90006                                  18459670.547 5  72439710.50505  18459672.829 7  74329451.64007
E13  19034727.171 7 100028166.49607                                  19034735.704 5  74696393.64805  19034737.886 7  76645001.60607  19034736.485 7  75670691.20207
E26  18024112.583 7  94717351.30907  18024111.343 5  76880954.01705  18024115.271 5  70730500.34805  18024117.979 8  72575653.32108  18024116.896 7  71653069.89807
E29  19785050.509 6 103971142.00106                                                                  19785058.372 7  79666230.65607
E33  20098569.757 6 105618699.46006                                                                  20098578.672 6  80928648.35806
G02  16142844.865 7  84831223.10107  16142843.949 5  16142848.393 5  66102263.08105
G03  13416278.251 8  70503017.97108  13416278.202 8  13416283.655 8  54937437.65408  13416284.684 7  54937437.65207  13416280.474 6  52648367.30906
G04  15092869.109 7  79313564.07707  15092868.640 5  15092874.407 5  61802796.66405  15092874.780 7  61802797.66507  15092875.536 5  59227685.16205  15092868.916 7  79313565.08807
G09  17377560.187 6  91319696.55906  17377559.830 4  17377569.309 4  71158240.94404  17377569.806 5  71158246.93005
G16  15884743.406 6  83474890.54506  15884743.080 3  15884749.276 3  65045391.93403
G21  16966183.997 7  89157897.62907  16966183.407 4  16966190.388 4  69473712.23004
G26  14653355.099 6  77003898.06406  14653354.581 6  14653364.218 6  60003077.29406  14653364.720 7  60003074.30807  14653359.682 5  57502928.61505
G28  16380757.414 6  86081460.75106                                                  16380765.181 6  67076492.19706                                  16380757.522 6  86081464.74606
G31  13857312.450 7  72820668.27107  13857311.972 7  13857315.160 7  56743386.63807  13857316.289 7  56743388.64707
R07  13404344.745 7  71754510.29307  13404345.339 7  71754511.30107  13404358.535 7  55809118.86807  13404358.494 7  55809120.86007
R08  16110943.123 6  86273371.44106  16110943.767 6  86273371.46406  16110960.134 6  67101578.32206  16110960.737 6  67101576.32706
R09  12646691.851 7  67532625.77807  12646692.200 7  67532629.77707  12646704.031 8  52525428.23608  12646703.875 8  52525427.22708  12646688.099 7  50707195.95207
R10  14548421.926 7  77551278.00207  14548422.122 7  77551278.00007
R22  15519778.099 7  82845630.06407  15519778.774 7  82845632.06807  15519792.549 7  64435547.24507  15519792.393 7  64435544.22907
R23  15794966.998 6  84492418.34906  15794967.029 6  84492422.35406
S31  30014162.209 8 157725503.26608
S33  30146688.273 8 158421912.49108
S35  30065481.072 8 157995172.83608
> 2024 11 23 17 10  0.0000000  0 33
C11                                                                  26086767.748 6 135840647.81016  26086777.783 6 105040644.61816
C14                                                                  22989646.935 7 119713120.49007  22989649.203 8  92569789.21408  22989641.659 6  97276695.77906
C21  23632779.498 6 124191093.36706  23632782.817 5  92740113.23905  23632779.873 6 123062085.91006                                  23632776.468 6  99998008.17006  23632785.126 7  95159432.30707
C24  22968539.033 7 120700487.27207  22968540.211 5  90133484.50805  22968539.375 8 119603210.61208                                  22968537.864 6  97187400.76706  22968542.747 8  92484804.52808
C26  21992428.562 7 115570991.62207  21992430.690 5  86303023.19205  21992428.415 7 114520344.74507                                  21992428.007 6  93057159.22906  21992433.841 8  88554417.07208
C33  25017715.035 6 131468982.86206  25017746.381 4  98175006.82104  25017716.957 7 130273814.79407                                  25017730.266 5 105858206.63105  25017748.770 7 100736107.70907
C42  22082477.909 8 116044203.11218  22082490.479 6  86656434.80616  22082477.625 8 114989254.32418                                  22082485.099 6  93438220.49516  22082493.400 8  88917050.19418
C43  26156965.383 6 137455791.15516                                  26156966.603 6 136206188.59016                                                                  26156976.473 6 105323306.48616
E02  26206392.728 6 137715527.59916                                                                  26206401.748 7 105522322.04617
E07  23891847.400 7 125552506.43407  23891845.179 5 101909489.03005  23891852.250 6  93756759.40906  23891854.418 8  96202598.37808  23891853.250 8  94979677.46008
E08  25363646.303 6 133286861.81006                                  25363650.219 5  99532410.99505  25363652.857 7 102128918.23207
E13  25947607.967 7 136355599.79107                                  25947616.742 5 101824022.26005  25947618.768 7 104480307.48007  25947617.373 7 103152158.43307
E26  24925537.258 7 130984582.73207  24925535.576 4 106318641.79504  24925540.284 5  97813173.06905  24925542.915 8 100364830.56108  24925541.626 7  99088994.87807
E29  26672434.136 7 140164586.56407                                                                  26672442.152 7 107398869.94307
E33  26986541.989 6 141815235.86806                                                                  26986550.881 6 108663656.76006
G02  23052672.101 7 121142608.38607  23052670.890 5  23052675.656 5  94396848.88505
G03  20304540.972 8 106701081.68608  20304540.673 8  20304546.097 8  83143721.05408  20304547.076 7  83143721.05807  20304543.279 6  79679388.89406
G04  21979717.041 7 115504192.61107  21979716.357 5  21979721.544 5  90003286.42005  21979722.511 7  90003287.42307  21979723.248 5  86253154.45105  21979716.463 7 115504193.61007
G09  24260152.904 6 127487965.94606  24260152.359 5  24260162.230 5  99341307.97105  24260162.949 5  99341313.98805
G16  22763541.678 6 119623218.75006  22763540.668 3  22763548.227 3  93212920.50203
G21  23877711.826 6 125478221.38506  23877710.454 4  23877718.987 4  97775262.96104
G26  21544048.678 6 113214737.09206  21544047.959 6  21544057.649 6  88219315.53606  21544057.914 7  88219312.54607  21544053.334 5  84543490.27305
G28  23295134.355 6 122416753.20406  23295133.980 2  23295140.629 2  95389706.92712  23295140.838 6  95389706.91406                                  23295133.998 6 122416757.20706
G31  20765642.114 7 109124184.37707  20765641.497 7  20765644.880 7  85031840.69807  20765645.649 7  85031842.69107
R07  20293873.104 7 108634689.49907  20293872.683 7 108634690.49907  20293886.142 7  84493702.68307  20293885.795 7  84493704.69007
R08  22992583.994 6 123124240.49906  22992584.612 6 123124240.49406  22992599.714 6  95763365.31406  22992598.833 6  95763363.31406
R09  19537267.117 7 104327912.74707  19537267.378 7 104327916.74807  19537279.223 8  81143984.77308  19537279.144 8  81143983.77108  19537263.484 8  78335121.19508
R10  21422573.755 7 114194370.63107  21422573.121 7 114194370.64007
R22  22431793.443 7 119742434.34607  22431793.688 7 119742436.35207  22431807.691 7  93133061.53807  22431807.529 7  93133058.52407  22431792.917 6  89940803.70916
R23  22692936.419 6 121391898.73206  22692935.467 6 121391902.73506
S31  36910670.372 8 193966909.77008
S33  37043200.080 8 194663317.33408
S35  36961977.327 8 194236499.76208
> 2024 11 23 17 10 30.0000000  0 34
C11                                                                  26101302.236 6 135916325.04806  26101311.255 6 105099162.73706
C14                                                                  22979799.074 7 119661842.48107  22979801.913 8  92530137.80508  22979794.199 6  97235028.19506
C21  23641820.816 6 124238606.50406  23641824.456 5  92775593.68205  23641820.648 6 123109167.12506                                  23641817.890 6 100036265.42206  23641827.064 7  95195838.34807
C24  22953184.606 7 120619799.80807  22953185.462 5  90073231.01705  22953185.064 8 119523256.67608                                  22953183.259 6  97122431.71906  22953188.629 8  92422979.17408
C26  21992948.508 7 115573724.97907  21992950.946 5  86305064.26705  21992948.738 7 114523053.24907                                  21992948.134 6  93059360.10206  21992953.999 8  88556511.42308
C33  25004128.563 7 131397584.69907  25004159.510 4  98121689.97904  25004130.004 7 130203065.70807                                  25004143.460 5 105800717.19605  25004162.120 7 100681400.02307
C42  22078821.857 8 116024991.84808  22078834.890 6  86642088.73706  22078821.750 8 114970217.70608                                  22078829.313 6  93422751.67806  22078837.749 8  88902329.87108
C43  26169502.080 6 137521667.75106                                  26169502.292 6 136271466.27906                                                                  26169513.208 6 105373783.13806
E02  26208067.691 6 137724333.53306                                                                  26208077.571 7 105529069.45907
E07  23890781.329 7 125546904.19207  23890779.044 5 101904941.76105  23890786.356 5  93752575.91405  23890788.318 8  96198305.74408  23890787.281 8  94975439.39108
E08  25371470.684 6 133327979.03206                                  25371474.849 5  99563115.30905  25371477.644 7 102160423.54007
E13  25964357.330 7 136443617.91007                                  25964365.885 5 101889749.88905  25964368.075 7 104547749.76107  25964366.841 7 103218743.38707
E26  24930878.314 7 131012650.18307  24930877.494 5 106341423.75505  24930881.333 5  97834132.41505  24930884.297 8 100386336.69708  24930882.787 7  99110227.62307
E29  26663650.390 7 140118427.86607                                                                  26663658.904 7 107363501.52407
E33  26978412.629 6 141772516.37806                                                                  26978421.442 6 108630923.66206
G02  23066385.985 7 121214676.22607  23066384.729 5  23066389.553 5  94453005.50005
G03  20296714.137 8 106659952.61608  20296713.820 8  20296719.496 8  83111672.41708  20296720.320 7  83111672.41907  20296716.717 6  79648675.61206
G04  21970410.131 7 115455287.88707  21970409.452 5  21970415.377 5  89965178.84005  21970415.826 7  89965179.82807  21970416.822 5  86216634.71805  21970410.471 7 115455288.89307
G07  25710583.417 5 135110031.68615  25710583.051 3  25710597.587 3 105280600.35013  25710598.539 4 105280604.44314
G09  24246572.636 6 127416601.36706  24246572.002 4  24246581.052 4  99285699.16204  24246582.184 5  99285705.16205
G16  22746200.485 6 119532095.43806  22746199.265 3  22746207.734 3  93141915.45203
G21  23893093.059 6 125559048.49906  23893091.678 4  23893100.075 4  97838244.87004
G26  21538677.641 6 113186511.35706  21538676.913 6  21538686.058 6  88197321.49606  21538686.598 7  88197318.50007  21538681.627 5  84522412.67405
G28  23313380.721 5 122512640.14005  23313380.060 2  23313387.947 2  95464423.83302  23313388.390 6  95464423.83406                                  23313380.815 5 122512644.15505
G31  20777891.517 7 109188557.32707  20777890.883 7  20777894.701 7  85082001.39107  20777895.356 7  85082003.39707
R07  20287258.748 7 108599280.23407  20287258.235 7 108599281.24407  20287271.350 7  84466162.15907  20287271.490 7  84466164.15807
R08  22978032.030 6 123046324.53006  22978034.283 6 123046324.51106  22978049.357 6  95702764.04306  22978049.011 6  95702762.01106
R09  19531817.179 8 104298811.58608  19531817.597 7 104298815.58307  19531829.249 8  81121350.55208  19531829.194 8  81121349.55208  19531813.647 8  78313270.46808
R10  21400608.125 7 114077283.50707  21400607.830 7 114077283.50907
R22  22447725.712 7 119827483.00107  22447726.575 7 119827484.99907  22447740.811 7  93199210.35507  22447739.981 7  93199207.34407  22447725.791 6  90004685.19706
R23  22694874.491 6 121402272.75306  22694874.917 6 121402276.76506
S31  36911016.676 8 193968722.00408
S33  37043543.674 8 194665128.31108
S35  36962305.601 8 194238232.31508
> 2024 11 23 17 11  0.0000000  0 34
C11                                                                  26115461.840 6 135990059.86806  26115471.997 6 105156178.84106
C14                                                                  22969609.238 7 119608782.51607  22969612.456 8  92489108.48408  22969604.608 6  97191912.64806
C21  23650542.495 6 124284439.18906  23650545.956 5  92809819.24205  23650543.191 6 123154583.12706                                  23650539.688 6 100073169.54006  23650548.966 7  95230956.76507
C24  22937522.832 8 120537495.56608  22937523.850 5  90011770.15005  22937523.222 8 119441700.64008                                  22937521.314 6  97056160.84806  22937526.546 8  92359914.98708
C26  21993202.290 7 115575056.91707  21993204.387 5  86306058.82805  21993202.136 7 114524373.07707                                  21993201.544 6  93060432.53306  21993207.497 8  88557531.95908
C33  24990179.064 7 131324277.41807  24990209.585 4  98066947.54804  24990179.462 7 130130424.86107                                  24990193.525 5 105741690.57405  24990212.461 7 100625229.54907
C42  22074842.415 8 116004079.50908  22074855.311 6  86626472.35306  22074842.515 8 114949495.48108                                  22074849.983 6  93405913.15306  22074858.346 8  88886306.12908
C43  26181686.309 6 137585695.06106                                  26181687.232 6 136334911.55706                                                                  26181694.784 5 105422842.84705
E02  26209461.789 6 137731655.81106                                                                  26209470.866 7 105534680.06707
E07  23889366.008 7 125539466.27207  23889363.945 5 101898904.46705  23889370.789 5  93747021.60205  23889373.077 8  96192606.56208  23889371.861 8  94969812.65508
E08  25378938.432 6 133367221.61906                                  25378942.756 5  99592419.78105  25378944.952 7 102190492.45707
E13  25980767.048 7 136529850.78507                                  25980775.996 5 101954144.34205  25980777.936 7 104613824.11907  25980776.600 7 103283977.79907
E26  24935936.693 8 131039231.05708  24935935.783 5 106362999.05405  24935939.627 5  97853981.67205  24935942.448 8 100406703.77308  24935941.104 7  99130335.79307
E29  26654511.236 7 140070400.29707                                                                  26654519.667 7 107326701.13707
E33  26969993.821 6 141728274.74906                                                                  26970002.580 6 108597024.25206
G02  23079781.407 7 121285068.47707  23079780.142 5  23079785.265 5  94507856.46505
G03  20288609.989 8 106617364.34708  20288609.668 8  20288615.189 8  83078486.74408  20288616.183 7  83078486.75207  20288612.205 6  79616872.68506
G04  21960762.074 7 115404586.79107  21960761.395 5  21960767.842 5  89925671.48905  21960767.803 7  89925672.48807  21960768.782 5  86178773.51205  21960762.232 7 115404587.79307
G07  25693228.946 5 135018820.72915                                                  25693241.134 4 105209528.96914
G09  24232634.815 6 127343356.79606  24232634.163 4  24232643.483 4  99228625.46704  24232644.023 5  99228631.46905
G16  22728541.737 6 119439293.75106  22728540.544 3  22728548.344 3  93069602.53003
G21  23908119.866 7 125638013.92307  23908118.476 4  23908126.404 4  97899776.09404
G26  21533051.093 6 113156944.23906  21533050.342 6  21533059.214 6  88174282.23106  21533060.178 7  88174279.23507  21533055.071 5  84500333.39405
G28  23331288.332 5 122606745.43805  23331287.613 3  23331295.699 3  95537752.40603  23331296.078 6  95537752.39106                                  23331288.358 5 122606749.43805
G31  20789856.905 7 109251434.88907  20789856.266 7  20789859.874 7  85130996.84207  20789860.678 7  85130998.85407
R07  20280310.957 7 108562095.06507  20280312.004 7 108562096.04507  20280324.778 7  84437240.34907  20280325.071 7  84437242.33807
R08  22963109.540 6 122966405.91306  22963110.238 6 122966405.88106  22963124.914 6  95640605.13806  22963125.447 6  95640603.09606
R09  19526152.196 7 104268560.16807  19526152.207 7 104268564.17507  19526164.160 8  81097821.69108  19526164.023 8  81097820.68708  19526148.435 8  78290556.07208
R10  21378348.770 7 113958631.07707  21378348.782 7 113958631.07507
R22  22463367.753 7 119910981.70307  22463368.642 7 119910983.70907  22463382.569 7  93264153.64607  22463382.543 7  93264150.63607  22463367.866 6  90067402.48406
R23  22696587.760 6 121411438.15906  22696588.420 6 121411442.16406
S31  36910999.331 8 193968638.69208
S33  37043528.399 8 194665043.02708
S35  36962275.659 8 194238069.17508
> 2024 11 23 17 11 30.0000000  0 34
C11                                                                  26129613.999 6 136063746.57706  26129623.916 6 105213157.72406
C14                                                                  22959442.479 7 119555838.62307  22959445.102 8  92448168.90808  22959437.411 6  97148891.39706
C21  23659309.085 6 124330505.91606  23659312.264 5  92844219.59705  23659309.405 6 123200231.05306                                  23659306.227 5 100110262.09405  23659315.177 7  95266254.51807
C24  22921917.602 8 120455490.57208  22921918.748 5  89950532.75805  22921918.112 8 119360441.15508                                  22921915.954 6  96990130.92906  22921921.407 8  92297080.09308
C26  21993553.084 7 115576901.25207  21993555.524 5  86307436.04205  21993552.755 7 114526200.64807                                  21993552.762 6  93061917.55006  21993558.555 8  88558945.11108
C33  24976229.952 7 131250975.99607  24976261.118 4  98012209.55904  24976230.776 7 130057789.80507                                  24976245.217 5 105682668.67205  24976263.888 7 100569063.56107
C42  22070903.772 8 115983381.44008  22070916.543 6  86611016.02006  22070903.740 8 114928985.58208                                  22070911.304 6  93389247.18306  22070919.679 8  88870446.57108
C43  26193882.273 6 137649784.84606                                  26193883.637 6 136398418.69006                                                                  26193893.389 6 105471950.44206
E02  26210936.701 5 137739408.66705                                                                  26210945.805 6 105540620.52206
E07  23887965.474 7 125532106.64807  23887963.284 5 101892930.75905  23887970.041 5  93741525.77205  23887972.656 8  96186967.36508  23887971.385 8  94964245.14108
E08  25386413.360 6 133406503.93206                                  25386418.371 5  99621753.87405  25386420.088 7 102220591.82507
E13  25997200.863 7 136616210.42307                                  25997209.457 5 102018633.50005  25997211.909 7 104679995.62007  25997210.426 7 103349308.13107
E26  24941076.027 7 131066238.51407  24941074.821 5 106384920.60405  24941079.259 5  97874149.48105  24941081.786 8 100427397.70108  24941080.581 7  99150766.65607
E29  26645380.412 7 140022417.68207                                                                  26645388.724 7 107289935.18707
E33  26961650.207 6 141684426.27906                                                                  26961658.436 6 108563426.07706
G02  23093221.403 7 121355696.69807  23093220.125 5  23093225.714 5  94562891.30205
G03  20280592.558 8 106575233.10408  20280592.237 8  20280597.843 8  83045657.20308  20280598.807 7  83045657.20407  20280594.852 6  79585411.03406
G04  21951136.826 7 115354003.48807  21951136.138 5  21951142.138 5  89886255.93505  21951142.100 7  89886256.94907  21951143.307 5  86141000.28805  21951136.661 7 115354004.49607
G07  25675895.228 5 134927742.80905  25675894.562 4  25675908.930 4 105138576.83214  25675908.500 5 105138558.88815
G09  24218703.141 6 127270146.29806  24218702.466 5  24218712.389 5  99171578.32805  24218712.261 5  99171584.32605
G16  22710927.249 6 119346731.15806  22710926.056 3  22710934.001 3  92997475.89703
G21  23923156.197 7 125717029.27207  23923154.811 4  23923162.887 4  97961346.25204
G26  21527533.555 6 113127951.58306  21527532.791 6  21527542.636 6  88151690.59706  21527543.229 7  88151687.60007  21527538.356 5  84478683.07705
G28  23349220.961 5 122700980.92505  23349220.282 2  23349228.319 2  95611182.46702  23349228.693 6  95611182.44606                                  23349220.754 5 122700984.90905
G31  20801901.076 7 109314728.78207  20801900.442 7  20801904.457 7  85180316.70507  20801905.445 7  85180318.70407
R07  20273397.363 7 108525085.15207  20273398.178 7 108525086.15107  20273411.122 8  84408454.83908  20273411.126 7  84408456.85507
R08  22948175.576 6 122886435.48206  22948176.329 6 122886435.46606  22948191.627 6  95578405.94406  22948191.545 6  95578403.94406
R09  19520636.134 7 104239104.74007  19520636.354 7 104239108.73807  19520647.939 8  81074911.90508  19520647.920 8  81074910.92008  19520632.500 8  78268439.32008
R10  21356161.108 7 113840359.54407  21356161.029 7 113840359.54207
R22  22479084.318 7 119994870.40907  22479084.150 7 119994872.40107  22479097.693 7  93329400.22607  22479098.009 7  93329397.22707  22479083.434 6  90130412.70706
R23  22698439.599 6 121421342.29106  22698440.079 6 121421346.27106
S31  36910988.514 8 193968572.82508
S33  37043514.877 8 194664975.67608
S35  36962248.020 8 194237923.96408
> 2024 11 23 17 12  0.0000000  0 34
C11                                                                  26143754.940 6 136137376.20306  26143763.667 6 105270092.46406
C14                                                                  22949296.755 7 119503005.20207  22949298.933 8  92407314.75908  22949291.226 6  97105959.92006
C21  23668118.081 6 124376800.39006  23668121.517 5  92878790.02305  23668119.023 6 123246104.70206                                  23668115.727 6 100147538.07406  23668124.786 7  95301726.78807
C24  22906368.499 8 120373780.05308  22906369.843 5  89889515.27905  22906368.777 8 119279473.46508                                  22906366.792 6  96924338.13606  22906372.333 8  92234470.84208
C26  21994000.335 7 115579250.95407  21994002.868 5  86309190.63805  21993999.615 7 114528528.99607                                  21993999.997 6  93063809.45506  21994005.679 8  88560745.47708
C33  24962281.154 6 131177674.50406  24962312.168 4  97957471.50404  24962282.179 7 129985154.69307                                  24962296.014 5 105623646.74905  24962314.858 7 100512897.53407
C42  22067004.792 8 115962892.16708  22067017.467 6  86595715.58606  22067004.383 8 114908682.56508                                  22067012.259 6  93372749.31606  22067020.638 8  88854747.00008
C43  26206088.229 6 137713927.99406                                  26206088.964 6 136461978.66706                                                                  26206099.606 6 105521098.86106
E02  26212492.344 5 137747585.35105                                                                  26212501.765 7 105546885.75907
E07  23886578.643 7 125524818.41007  23886576.242 5 101887014.97505  23886583.212 6  93736083.28506  23886585.913 8  96181382.86708  23886584.430 8  94958731.63808
E08  25393894.949 6 133445819.41306                                  25393900.071 5  99651112.78905  25393901.609 7 102250716.59307
E13  26013657.261 7 136702688.00507                                  26013665.285 4 102083210.76704  26013668.097 7 104746257.47507  26013666.645 7 103414727.67307
E26  24946295.192 7 131093664.85907  24946294.161 5 106407182.16305  24946298.644 5  97894630.06805  24946301.010 8 100448412.60208  24946299.738 7  99171514.40607
E29  26636256.973 7 139974472.89507                                                                  26636265.118 7 107253198.20907
E33  26953379.718 6 141640965.41006                                                                  26953388.288 6 108530124.90506
G02  23106705.152 7 121426551.35407  23106703.856 5  23106708.596 5  94618102.57605
G03  20272661.207 8 106533554.31508  20272660.886 8  20272666.710 8  83013180.23308  20272667.585 7  83013180.23107  20272663.840 6  79554287.26706
G04  21941532.154 7 115303531.22307  21941531.457 5  21941536.959 5  89846926.90705  21941537.902 7  89846927.91407  21941538.311 5  86103309.95105  21941532.073 7 115303532.23207
G07  25658586.768 6 134836778.54916  25658586.590 2  25658597.862 2 105067658.56712  25658599.910 4
G09  24204777.001 6 127196963.10506  24204776.322 4  24204785.315 4  99114552.48704  24204786.954 5  99114558.51205
G16  22693358.011 6 119254404.77706  22693356.849 3  22693364.487 3  92925533.34103
G21  23938200.242 7 125796085.38207  23938198.856 4  23938206.884 4  98022948.14104
G26  21522124.685 6 113099528.36306  21522123.916 6  21522134.182 6  88129542.67706  21522134.329 7  88129539.68007  21522129.114 5  84457457.99105
G28  23367177.535 5 122795337.79105  23367176.874 2  23367183.426 2  95684707.09702  23367184.205 6  95684707.06206                                  23367176.520 5 122795341.77205
G31  20814023.099 7 109378429.48707  20814022.465 7  20814026.297 7  85229953.56007  20814027.150 7  85229955.56607
R07  20266515.826 7 108488245.35207  20266516.529 7 108488246.34407  20266529.130 7  84379801.66407  20266529.050 7  84379803.65907
R08  22933232.824 6 122806407.08406  22933231.679 6 122806407.10206  22933246.887 6  95516161.72906  22933246.317 6  95516159.73906
R09  19515268.145 7 104210439.72307  19515268.475 7 104210443.73207  19515279.935 8  81052616.92508  19515279.818 8  81052615.92808  19515264.312 8  78246916.07308
R10  21334044.539 7 113722466.36307  21334044.469 7 113722466.35907
R22  22494870.216 7 120079137.93007  22494870.570 7 120079139.94007  22494884.261 7  93394941.50707  22494884.260 7  93394938.51207  22494869.374 6  90193707.47206
R23  22700426.927 6 121431976.97306  22700427.622 6 121431980.96506
S31  36910983.264 8 193968518.13308
S33  37043501.699 8 194664920.06508
S35  36962222.755 8 194237790.01308
> 2024 11 23 17 12 30.0000000  0 34
C11                                                                  26157881.306 6 136210943.70206  26157892.086 6 105326979.16106
C14                                                                  22939171.391 7 119450280.81607  22939173.698 8  92366544.92808  22939165.868 6  97063117.03206
C21  23676970.725 6 124423320.24806  23676974.512 5  92913528.77305  23676970.711 6 123292201.63306                                  23676967.886 6 100184995.53606  23676977.150 7  95337371.75607
C24  22890875.321 8 120292363.14908  22890876.561 5  89828717.06005  22890875.880 8 119198796.71908                                  22890873.629 6  96858781.73506  22890879.086 8  92172086.55608
C26  21994542.978 7 115582102.88907  21994545.458 5  86311320.29105  21994543.067 7 114531354.99507                                  21994542.692 6  93066105.76406  21994548.519 8  88562930.67208
C33  24948331.892 6 131104371.03206  24948362.305 4  97902731.94004  24948333.257 7 129912517.63007                                  24948346.505 5 105564623.22405  24948365.603 7 100456730.01207
C42  22063145.398 8 115942610.16508  22063157.852 6  86580569.96006  22063145.034 8 114888584.95308                                  22063152.701 6  93356418.36806  22063161.122 8  88839206.25808
C43  26218303.543 6 137778119.24806                                  26218304.726 6 136525586.38006                                                                  26218315.706 6 105570284.20906
E02  26214128.961 5 137756183.21305                                                                  26214137.900 7 105553473.69707
E07  23885204.891 7 125517598.64507  23885202.492 5 101881154.76405  23885209.404 5  93730691.89105  23885212.055 8  96175850.82408  23885210.497 8  94953269.92008
E08  25401382.506 6 133485165.51506                                  25401387.013 5  99680494.55305  25401388.691 7 102280864.85207
E13  26030134.944 7 136789278.67307                                  26030143.046 4 102147872.43604  26030145.877 7 104812606.01407  26030144.315 7 103480232.79007
E26  24951593.366 7 131121506.37907  24951592.824 5 106429780.75405  24951596.559 5  97915420.74705  24951599.148 8 100469745.62008  24951597.860 7  99192576.24307
E29  26627140.066 7 139926562.84107                                                                  26627148.145 7 107216487.89907
E33  26945182.814 6 141597890.53306                                                                  26945191.240 6 108497119.48406
G02  23120229.935 7 121497626.18407  23120228.630 5  23120233.501 5  94673485.42605
G03  20264816.088 8 106492327.31108  20264815.767 8  20264821.449 8  82981055.31208  20264822.330 7  82981055.31807  20264818.733 6  79523500.88106
G04  21931948.103 7 115253167.18907  21931947.401 5  21931953.230 5  89807682.21105  21931953.612 7  89807683.20807  21931954.529 5  86065700.45205  21931947.996 7 115253168.19507
G07  25641300.691 6 134745946.50416  25641300.477 4  25641314.347 4 104996896.43014  25641313.580 5 104996895.47615
G09  24190854.772 6 127123804.41606  24190854.093 4  24190862.784 4  99057545.78204  24190865.235 5  99057551.76005
G16  22675833.926 6 119162315.21506  22675832.764 3  22675839.889 3  92853775.34203
G21  23953250.521 7 125875176.88207  23953249.131 4  23953257.815 4  98084577.64004
G26  21516824.592 6 113071673.49806  21516823.770 6  21516832.805 6  88107837.64806  21516833.374 7  88107834.65207  21516828.843 5  84436657.35805
G28  23385153.879 4 122889811.16704  23385153.155 1  23385161.039 1  95758322.51001  23385161.757 6  95758322.45006                                  23385153.040 4 122889815.15604
G31  20826221.300 7 109442531.75307  20826220.666 7  20826224.705 7  85279903.31607  20826225.514 7  85279905.31707
R07  20259665.286 7 108451574.82307  20259666.317 7 108451575.80307  20259678.921 8  84351280.12008  20259679.259 8  84351282.11108
R08  22918275.729 6 122726318.41706  22918275.841 6 122726318.44406  22918290.683 6  95453870.60706  22918290.620 6  95453868.60906
R09  19510048.233 7 104182563.73807  19510048.156 7 104182567.75307  19510059.665 8  81030935.62508  19510059.761 8  81030934.62208  19510044.099 8  78225985.25808
R10  21311999.663 7 113604952.74507  21311999.195 7 113604952.74507
R22  22510725.409 7 120163777.14807  22510726.443 7 120163779.14107  22510740.826 7  93460771.85007  22510739.966 7  93460768.85307  22510725.244 6  90257281.41306
R23  22702550.891 6 121443337.63106  22702551.929 6 121443341.62206
S31  36910967.989 8 193968472.54508  36910947.149 5 144846485.14015
S33  37043496.119 8 194664872.14008
S35  36962198.823 8 194237664.99808
> 2024 11 23 17 13  0.0000000  0 34
C11                                                                  26171999.083 6 136284450.94806  26172008.455 6 105383819.29406
C14                                                                  22929067.568 7 119397670.81807  22929070.844 8  92325863.54808  22929062.646 6  97020367.10306
C21  23685866.905 6 124470070.13306  23685870.684 5  92948439.25105  23685867.021 6 123338526.53406                                  23685864.273 5 100222638.19105  23685873.418 7  95373192.97107
C24  22875439.289 8 120211246.00308  22875440.479 5  89768142.67005  22875439.802 8 119118416.99608                                  22875437.603 6  96793466.70906  22875442.748 8  92109931.94908
C26  21995181.964 7 115585460.92807  21995184.277 5  86313827.84505  21995182.296 7 114534682.51007                                  21995181.494 6  93068809.61506  21995187.502 8  88565503.67508
C33  24934382.948 6 131031070.66806  24934414.006 4  97847994.73004  24934384.325 7 129839883.64507                                  24934398.014 5 105505602.21005  24934416.992 7 100400564.87107
C42  22059326.237 8 115922540.88908  22059338.874 6  86565583.15506  22059325.854 8 114868698.13108                                  22059333.610 6  93340258.69306  22059342.086 8  88823828.50608
C43  26230528.684 6 137842360.53706                                  26230530.350 6 136589243.65706                                                                  26230540.580 6 105619507.84406
E02  26215846.382 6 137765206.46906                                                                  26215855.389 7 105560387.58607
E07  23883844.769 7 125510451.45507  23883841.844 5 101875353.45705  23883849.106 5  93725354.66705  23883851.991 8  96170374.38308  23883850.453 8  94947863.09108
E08  25408876.391 6 133524546.67606                                  25408880.361 5  99709902.46205  25408883.119 7 102311039.94507
E13  26046634.860 7 136875984.62507                                  26046642.660 4 102212620.13704  26046645.486 7 104879042.86007  26046644.146 7 103545825.07907
E26  24956971.211 7 131149766.30807  24956970.044 5 106452718.91905  24956974.360 5  97936523.80605  24956976.831 8 100491399.24008  24956975.608 7  99213954.59607
E29  26618030.503 7 139878691.44807                                                                  26618038.478 7 107179807.20607
E33  26937060.363 6 141555207.03106                                                                  26937068.797 6 108464413.92606
G02  23133797.410 7 121568923.60507  23133796.078 5  23133801.133 5  94729041.72705
G03  20257058.138 8 106451558.45308  20257057.812 8  20257063.510 8  82949287.38708  20257064.178 7  82949287.38907  20257060.747 6  79493056.61606
G04  21922385.586 7 115202915.62407  21922384.898 5  21922391.233 5  89768525.13705  21922391.273 7  89768526.14207  21922392.073 5  86028174.91405  21922385.537 7 115202916.63007
G07  25624038.408 6 134655232.96906  25624037.966 4  25624050.888 4 104926211.08104  25624051.234 5 104926204.11715
G09  24176938.721 6 127050674.35706  24176938.037 5  24176947.868 5  99000561.43105  24176948.416 5  99000567.42605
G16  22658355.889 6 119070469.94006  22658354.691 3  22658362.535 3  92782207.69303
G21  23968308.724 7 125954305.68607  23968307.347 4  23968316.424 4  98146236.19004
G26  21511632.556 6 113044392.91106  21511631.702 6  21511641.193 6  88086580.09906  21511641.858 7  88086577.10407  21511637.388 5  84416285.54005
G28  23403154.675 4 122984403.08904  23403153.987 1  23403161.185 1  95832030.24201  23403162.284 5  95832030.22205                                  23403154.211 4 122984407.09804
G31  20838496.470 7 109507037.31607  20838495.831 7  20838499.528 7  85330167.32907  20838500.447 7  85330169.33307
R07  20252847.828 7 108415079.10407  20252848.447 7 108415080.09507  20252861.271 8  84322894.54008  20252860.998 8  84322896.54708
R08  22903308.917 6 122646174.37906  22903308.985 6 122646174.38506  22903324.095 6  95391536.44306  22903324.406 6  95391534.46606
R09  19504975.705 7 104155482.04207  19504976.204 7 104155486.04907  19504988.317 8  81009872.10508  19504988.105 8  81009871.10408  19504972.581 8  78205650.85708
R10  21290027.009 7 113487827.50007  21290026.984 7 113487827.49507
R22  22526650.880 7 120248787.86107  22526651.317 7 120248789.84807  22526666.152 7  93526891.12807  22526665.698 7  93526888.13707  22526650.454 6  90321134.39206
R23  22704811.850 6 121455427.58506  22704812.008 6 121455431.61006
S31  36910956.363 8 193968438.88308
S33  37043492.269 8 194664837.28808
S35  36962178.227 8 194237552.37408
> 2024 11 23 17 13 30.0000000  0 34
C11                                                                  26186101.300 6 136357885.10106  26186109.797 6 105440602.86706
C14                                                                  22918984.667 7 119345165.75607  22918987.689 8  92285263.31008  22918979.784 6  96977702.42706
C21  23694805.390 6 124517039.68106  23694809.096 5  92983513.75005  23694806.189 6 123385069.05306                                  23694802.294 5 100260457.72005  23694811.368 7  95409182.49907
C24  22860058.442 8 120130419.76908  22860059.428 5  89707785.53205  22860058.985 8 119038325.55008                                  22860056.555 6  96728385.91106  22860061.946 8  92048000.25508
C26  21995915.112 7 115589313.93207  21995917.848 5  86316705.06205  21995914.556 7 114538500.48607                                  21995914.725 6  93071911.99506  21995920.570 8  88568455.93708
C33  24920433.234 6 130957763.47806  24920463.909 4  97793252.40904  24920433.624 7 129767242.89507                                  24920447.981 5 105446575.72505  24920467.083 7 100344394.49207
C42  22055545.828 8 115902674.83208  22055558.068 6  86550748.10806  22055545.318 8 114849012.66808                                  22055553.175 6  93324262.62806  22055561.699 8  88808606.46308
C43  26242760.241 6 137906638.66606                                  26242761.588 6 136652937.45406                                                                  26242773.091 6 105668759.72906
E02  26217641.273 5 137774644.34905                                                                  26217651.606 7 105567619.19807
E07  23882496.502 7 125503365.96607  23882493.793 5 101869602.23205  23882501.103 5  93720063.53905  23882503.455 8  96164945.22008  23882502.134 8  94942502.94408
E08  25416375.019 6 133563952.32706                                  25416379.776 5  99739328.70605  25416382.159 7 102341233.81307
E13  26063153.864 7 136962792.97907                                  26063162.078 4 102277444.40404  26063164.589 7 104945558.18007  26063163.362 7 103611494.86407
E26  24962426.406 7 131178432.90307  24962425.276 4 106475987.18604  24962429.422 5  97957930.57905  24962431.891 8 100513364.46508  24962430.719 7  99235640.60007
E29  26608925.997 7 139830847.56107                                                                  26608934.165 7 107143147.60407
E33  26929010.728 6 141512905.28606                                                                  26929019.276 6 108432000.91006
G02  23147404.599 7 121640429.69307  23147403.267 5  23147408.499 5  94784760.61705
G03  20249385.440 8 106411239.10208  20249385.110 8  20249391.087 8  82917869.72208  20249391.752 7  82917869.71907  20249388.195 6  79462948.03006
G04  21912842.218 7 115152765.80007  21912841.539 5  21912848.035 5  89729447.35305  21912847.698 7  89729448.35107  21912848.488 5  85990725.39205  21912842.434 7 115152766.80107
G07  25606796.571 6 134564617.18116  25606796.008 4  25606809.689 4 104855606.01414  25606811.198 5 104855608.03605
G09  24163026.236 6 126977562.15906  24163025.530 5  24163035.501 5  98943590.97805  24163035.352 5  98943596.98505
G16  22640923.939 5 118978862.06805  22640922.746 2  22640930.402 2  92710825.05302
G21  23983371.665 7 126033458.49207  23983370.284 4  23983379.013 4  98207913.43204
G26  21506549.203 6 113017677.45106  21506548.349 6  21506557.651 6  88065762.88806  21506558.366 7  88065759.89707  21506553.403 5  84396335.72405
G28  23421175.119 4 123079100.54904  23421174.489 1  23421181.408 1  95905820.29001  23421182.575 5  95905820.40005                                  23421174.630 4 123079104.63204
G31  20850845.818 7 109571932.71507  20850845.179 7  20850848.884 7  85380735.11607  20850849.706 7  85380737.11907
R07  20246061.691 7 108378749.25307  20246061.924 7 108378750.24207  20246074.274 7  84294637.98207  20246074.488 7  84294639.97807
R08  22888330.078 6 122565964.62906  22888330.735 6 122565964.63906  22888345.282 6  95329151.15306  22888345.192 6  95329149.13906
R09  19500051.298 7 104129185.27707  19500051.799 7 104129189.27907  19500063.635 8  80989419.08308  19500063.603 8  80989418.08108  19500048.062 8  78185905.81208
R10  21268125.886 7 113371082.89607  21268125.746 7 113371082.89407
R22  22542644.258 7 120334154.76307  22542643.981 7 120334156.76607  22542658.266 7  93593287.47507  22542658.248 7  93593284.45507  22542643.382 6  90385254.91006
R23  22707205.451 6 121468234.06306  22707206.249 6 121468238.06606
S31  36910957.213 8 193968407.59808
S33  37043483.142 8 194664804.98408
S35  36962155.721 8 194237441.53408
> 2024 11 23 17 14  0.0000000  0 34
C11                                                                  26200190.684 6 136431252.62606  26200201.886 6 105497334.94306
C14                                                                  22908923.844 7 119292775.83607  22908926.710 8  92244752.10908  22908919.042 6  96935131.34806
C21  23703786.934 6 124564238.26306  23703790.720 5  93018759.32005  23703787.534 6 123431838.57106                                  23703784.166 5 100298461.66405  23703793.015 7  95445347.56007
C24  22844735.216 8 120049895.42208  22844735.861 5  89647653.78205  22844735.683 8 118958533.24108                                  22844733.191 6  96663548.18406  22844738.789 8  91986299.86708
C26  21996744.258 7 115593670.54007  21996746.902 5  86319958.33105  21996744.038 7 114542817.48707                                  21996743.976 6  93075419.88206  21996749.805 8  88571794.07208
C33  24906484.013 6 130884459.43306  24906514.175 4  97738512.50704  24906484.061 7 129694605.23407                                  24906498.363 5 105387551.74405  24906517.645 7 100288226.53907
C42  22051806.046 8 115883022.28608  22051818.509 6  86536072.50706  22051805.780 8 114829538.79108                                  22051813.778 6  93308438.50506  22051821.899 8  88793548.01708
C43  26255000.972 6 137970960.31306                                  26255002.216 6 136716674.31506                                                                  26255011.820 5 105718044.95505
E02  26219518.479 5 137784505.94705                                                                  26219528.225 7 105575175.49407
E07  23881161.719 7 125496351.10407  23881159.207 5 101863908.32305  23881166.162 5  93714825.13505  23881168.617 8  96159570.18408  23881167.323 8  94937196.22908
E08  25423880.109 6 133603391.76106                                  25423884.786 5  99768780.14405  25423887.065 7 102371453.55607
E13  26079693.970 7 137049710.71607                                  26079701.791 4 102342350.31404  26079704.571 7 105012157.30907  26079703.482 7 103677247.38207
E26  24967960.334 7 131207514.15907  24967959.802 5 106499592.05205  24967963.463 5  97979647.02205  24967966.031 8 100535647.42908  24967964.826 7  99257640.29907
E29  26599828.462 7 139783039.85707                                                                  26599836.499 7 107106515.72407
E33  26921035.454 6 141470995.44706                                                                  26921044.175 7 108399888.15307
G02  23161053.154 7 121712151.12507  23161051.826 5  23161056.728 5  94840647.30205
G03  20241800.450 8 106371380.36508  20241800.120 8  20241806.035 8  82886810.97908  20241806.642 7  82886810.98207  20241802.986 6  79433183.39206
G04  21903320.096 7 115102726.74007  21903319.426 5  21903325.679 5  89690455.88205  21903325.884 7  89690456.89307  21903326.868 5  85953358.57105  21903320.177 7 115102727.74207
G07  25589580.549 6 134474154.37216  25589579.901 4  25589593.669 4 104785115.34214  25589592.467 5
G09  24149118.040 6 126904476.77006  24149117.343 5  24149126.680 5  98886641.45105  24149128.063 5  98886647.46905
G16  22623538.696 5 118887504.04605  22623537.471 2  22623545.587 2  92639637.11202
G21  23998440.060 7 126112641.99107  23998438.683 4  23998447.174 4  98269614.61304
G26  21501574.481 6 112991537.79206  21501573.610 6  21501583.682 6  88045394.37206  21501583.980 7  88045391.36607  21501579.247 5  84376815.89605
G28  23439216.239 4 123173910.84004                                                  23439224.700 5  95979698.22105                                  23439216.126 4 123173914.78904
G31  20863270.383 7 109637224.44507  20863269.749 7  20863273.784 7  85431611.72707  20863274.437 7  85431613.72507
R07  20239307.935 7 108342596.08207  20239307.963 7 108342597.09707  20239320.559 7  84266518.86607  20239320.778 7  84266520.85907
R08  22873341.215 6 122485698.88806  22873341.530 6 122485698.90206  22873356.018 6  95266722.33706  22873355.517 6  95266720.32806
R09  19495276.139 7 104103683.25507  19495276.432 7 104103687.25407  19495287.678 8  80969584.18208  19495287.865 8  80969583.17108  19495272.197 8  78166757.49908
R10  21246299.144 7 113254733.72407  21246298.580 7 113254733.72207
R22  22558704.202 7 120419882.61707  22558704.082 7 120419884.62807  22558718.448 7  93659964.52907  22558717.150 7  93659961.51407  22558703.113 6  90449646.54806
R23  22709734.627 6 121481765.09106  22709735.890 6 121481769.09306
S31  36910952.567 8 193968387.37408  36910931.064 5 144846421.41415
S33  37043478.867 8 194664782.97708
S35  36962137.343 8 194237343.29108
> 2024 11 23 17 14 30.0000000  0 36
C11                                                                  26214263.801 6 136504538.55306  26214277.261 7 105554003.91007
C14                                                                  22898882.985 7 119240489.50507  22898885.657 8  92204321.01908  22898877.784 6  96892644.42006
C21  23712809.906 6 124611653.47006  23712813.802 5  93054166.67605  23712810.233 6 123478822.72006                                  23712807.361 5 100336640.06405  23712816.324 7  95481678.57307
C24  22829467.296 8 119969661.92808  22829468.130 5  89587739.22905  22829467.652 8 118879029.16008                                  22829465.209 6  96598944.66406  22829470.946 8  91924822.33808
C26  21997666.682 7 115598517.46307  21997669.231 5  86323577.73505  21997667.043 7 114547620.33607                                  21997666.484 6  93079322.55906  21997672.254 8  88575507.90208
C33  24892532.856 7 130811146.44207  24892563.555 4  97683765.86804  24892533.359 7 129621958.73407                                  24892547.357 5 105328520.57405  24892566.482 7 100232051.74407
C42  22048104.772 8 115863571.63408  22048117.568 6  86521547.67206  22048104.530 8 114810264.95508                                  22048112.144 6  93292776.92606  22048120.532 8  88778644.26108
C43  26267245.508 6 138035310.11006                                  26267247.492 6 136780439.14206                                                                  26267259.131 6 105767351.77106
E02  26221473.100 5 137794778.34805                                                                  26221483.344 7 105583046.53307
E07  23879837.700 7 125489393.85907  23879835.061 5 101858261.18205  23879842.063 5  93709629.75305  23879844.806 8  96154239.28808  23879843.415 8  94931933.09708
E08  25431389.107 6 133642852.29906                                  25431394.829 5  99798247.37205  25431396.239 7 102401689.49607
E13  26096252.065 7 137136722.86607                                  26096260.667 4 102407326.69704  26096262.549 7 105078828.79607  26096261.565 7 103743071.33307
E26  24973570.687 7 131236996.22407  24973569.504 5 106523522.25605  24973574.194 5  98001662.77505  24973576.340 8 100558237.50908  24973575.103 7  99279943.21107
E27  27600440.366 6 145041294.38816                                                                  27600455.915 6 111135597.96016
E29  26590735.283 7 139735255.17607                                                                  26590743.477 7 107069901.50707
E30  25629410.088 5 134683455.59815                                                                  25629418.321 7 103199046.89217
E33  26913132.824 6 141429465.69006                                                                  26913141.193 7 108368066.64407
G02  23174739.652 7 121784071.84507  23174738.324 5  23174743.291 5  94896689.27505
G03  20234301.299 8 106331971.49208  20234300.969 8  20234306.672 8  82856102.78008  20234307.521 7  82856102.78307  20234303.997 6  79403754.71906
G04  21893816.637 7 115052785.58307  21893815.967 5  21893822.117 5  89651540.69805  21893822.532 7  89651541.69907  21893823.241 5  85916064.83005  21893816.539 7 115052786.58607
G07  25572384.610 6 134383785.00816  25572384.204 2  25572397.938 2 104714702.16712  25572394.579 3
G09  24135213.041 6 126831405.22806  24135212.380 5  24135221.155 5  98829702.71505  24135222.702 5  98829708.73605
G16  22606199.546 5 118796386.35005  22606198.375 2  22606206.160 2  92568636.47302
G21  24013511.206 7 126191840.72207  24013509.843 4  24013518.523 4  98331327.65604
G26  21496707.209 6 112965962.61106  21496706.329 6  21496716.742 6  88025465.69806  21496717.163 7  88025462.71007  21496712.838 5  84357717.59705
G28  23457274.025 3                                                                  23457285.009 4  96053652.19504                                  23457275.915 3 123268822.54603
G31  20875767.468 7 109702897.16807  20875766.825 7  20875771.052 7  85482785.21307  20875771.622 7  85482787.21807
R07  20232584.744 7 108306608.35007  20232585.026 7 108306609.35907  20232597.966 8  84238528.38908  20232597.823 8  84238530.39908
R08  22858338.145 6 122405364.57806  22858338.860 6 122405364.61406  22858354.002 6  95204240.19506  22858354.368 6  95204238.19106
R09  19490646.668 7 104078963.98107  19490646.881 7 104078967.98707  19490658.959 8  80950358.09308  19490658.939 8  80950357.08508  19490643.137 8  78148196.93508
R10  21224543.663 7 113138770.03807  21224543.506 7 113138770.04307
R22  22574828.418 7 120505954.04207  22574828.015 7 120505956.03907  22574842.108 7  93726908.77707  22574841.713 7  93726905.78607  22574827.142 6  90514296.21506
R23  22712398.139 6 121496005.68906  22712398.361 6 121496009.69706
S31  36910950.858 8 193968365.64908
S33  37043471.672 8 194664759.52508
S35  36962118.549 8 194237241.85808
> 2024 11 23 17 15  0.0000000  0 36
C11                                                                  26228324.623 5 136577754.60705  26228336.101 6 105610618.85606
C14                                                                  22888864.657 7 119188321.88907  22888867.375 8  92163981.72308  22888859.453 6  96850253.95506
C21  23721876.439 6 124659299.68706  23721880.848 5  93089746.52305  23721877.310 6 123526035.77706                                  23721873.712 5 100375004.46105  23721883.428 7  95518186.60707
C24  22814257.684 8 119889735.24308  22814258.447 5  89528053.82605  22814257.953 8 118799829.08308                                  22814255.718 6  96534588.17106  22814261.366 8  91863579.89708
C26  21998684.903 7 115603868.29807  21998687.490 5  86327573.48105  21998685.237 7 114552922.53107                                  21998684.374 6  93083631.00106  21998690.578 8  88579607.87108
C33  24878582.836 7 130737839.52907  24878613.502 5  97629023.79305  24878583.246 7 129549318.25407                                  24878597.178 5 105269494.28305  24878616.524 7 100175881.60007
C42  22044444.704 8 115844338.16308  22044457.414 6  86507184.99306  22044444.357 8 114791206.33908                                  22044452.204 6  93277290.23006  22044460.506 8  88763906.91608
C43  26279498.762 6 138099699.81306                                  26279499.490 6 136844243.43906                                                                  26279510.123 5 105816689.11905
E02  26223509.117 6 137805475.62406                                                                  26223518.754 7 105591243.09907
E07  23878527.402 7 125482508.16607  23878524.216 5 101852672.13505  23878532.108 5  93704487.85605  23878534.563 8  96148963.22308  23878533.126 8  94926724.10308
E08  25438905.166 6 133682348.24106                                  25438910.309 5  99827741.00105  25438911.756 7 102431952.57507
E13  26112830.170 7 137223841.41307                                  26112838.958 4 102472382.60404  26112840.891 7 105145581.78707  26112839.865 7 103808975.76007
E26  24979259.731 7 131266892.05507  24979258.199 5 106547788.18105  24979262.987 5  98023987.50205  24979265.460 8 100581144.62408  24979264.116 7  99302559.13107
E27  27583847.089 6 144954099.92306                                                                  27583863.109 6 111068786.77906
E29  26581649.125 7 139687507.18007                                                                  26581657.468 7 107033315.39707
E30  25618075.227 5 134623892.05305                                  25618081.131 4 100530859.91814  25618083.867 7 103153407.34707
E33  26905304.990 6 141388331.29706                                                                  26905313.700 6 108336548.04606
G02  23188465.457 7 121856203.14807  23188464.134 5  23188470.010 5  94952895.33505
G03  20226890.575 8 106293028.57208  20226890.240 8  20226896.049 8  82825757.66908  20226896.902 7  82825757.67707  20226893.137 6  79374673.97706
G04  21884334.407 7 115002956.41907  21884333.750 5  21884339.782 5  89612712.77305  21884340.119 7  89612713.77307  21884341.086 5  85878854.76105  21884334.560 7 115002957.41807
G07  25555213.710 6 134293553.17506  25555213.138 4  25555226.496 4 104644392.35204  25555227.182 4 104644378.29014
G09  24121313.092 6 126758361.50006  24121312.458 5  24121322.265 5  98772785.60705  24121322.329 6  98772791.62106
G16  22588908.788 6 118705526.61906  22588907.657 3  22588916.278 3  92497836.82203
G21  24028587.550 7 126271066.57607  24028586.182 4  24028594.648 4  98393061.84904
G26  21491951.020 6 112940967.59106  21491950.149 6  21491960.187 6  88005989.07806  21491960.563 7  88005986.07607  21491956.194 5  84339052.48105
G28  23475358.787 3                                                                  23475367.006 5  96127691.52405                                  23475356.268 3
G31  20888339.390 7 109768962.34507  20888338.756 7  20888342.796 7  85534264.50707  20888343.161 7  85534266.51007
R07  20225895.974 7 108270801.69107  20225896.341 7 108270802.70607  20225909.009 8  84210678.75008  20225908.966 8  84210680.75608
R08  22843326.712 6 122324976.67806  22843326.541 6 122324976.66006  22843342.255 6  95141716.29606  22843343.140 6  95141714.28406
R09  19486167.390 7 104055043.05107  19486167.586 7 104055047.05007  19486178.970 8  80931752.91508  19486178.952 8  80931751.92408  19486163.528 8  78130235.77608
R10  21202865.064 7 113023210.83107  21202864.838 7 113023210.82507
R22  22591017.748 7 120592378.80707  22591018.030 7 120592380.80107  22591032.190 7  93794127.88207  22591032.863 7  93794124.88407  22591017.551 6  90579211.30606
R23  22715195.089 6 121510968.63506  22715194.874 6 121510972.63406
S31  36910947.648 8 193968355.72508
S33  37043471.847 8 194664748.03708
S35  36962100.510 8 194237153.71308
> 2024 11 23 17 15 30.0000000  0 36
C11                                                                  26242377.670 6 136650923.75706  26242387.329 6 105667197.53906
C14                                                                  22878874.524 7 119136299.74007  22878876.851 8  92123754.91208  22878869.030 6  96807981.72306
C21  23730992.358 6 124707202.98106  23730996.377 5  93125518.36605  23730993.154 6 123573503.60406                                  23730989.904 5 100413575.90905  23730999.134 7  95554891.63807
C24  22799111.717 8 119810142.95608  22799112.234 5  89468618.11005  22799112.048 8 118720960.36108                                  22799109.772 6  96470500.94006  22799115.221 8  91802593.66508
C26  21999803.831 7 115609748.35507  21999806.313 5  86331964.39905  21999803.782 7 114558749.13607                                  21999803.402 6  93088365.57706  21999809.450 8  88584113.34508
C33  24864639.613 6 130664565.21406  24864669.821 4  97574306.09704  24864640.065 7 129476710.07407                                  24864653.642 5 105210494.27005  24864672.966 7 100119736.44207
C42  22040831.220 8 115825348.82908  22040843.879 6  86493004.62506  22040830.882 8 114772389.61908                                  22040838.653 6  93262000.09306  22040846.997 8  88749356.63008
C43  26291764.061 6 138164152.68506                                  26291764.969 6 136908110.41206                                                                  26291776.048 6 105866074.90906
E02  26225630.204 6 137816623.32706                                                                  26225640.335 7 105599784.85207
E07  23877235.712 7 125475719.59407  23877232.930 5 101847161.87705  23877240.142 5  93699418.42305  23877242.737 8  96143761.56908  23877241.337 8  94921588.56508
E08  25446432.315 6 133721905.49506                                  25446438.062 5  99857280.45705  25446439.544 7 102462262.61707
E13  26129433.251 7 137311089.94107                                  26129441.714 4 102537535.57204  26129444.077 7 105212434.38907  26129442.870 7 103874978.53407
E26  24985032.112 7 131297226.32807  24985030.927 5 106572410.15305  24985035.364 5  98046639.63405  24985037.849 8 100604387.70108  24985036.587 7  99325506.74307
E27  27567248.375 6 144866874.90506                                                                  27567264.030 6 111001952.16506
E29  26572574.788 7 139639821.23807                                                                  26572583.255 7 106996776.82507
E30  25606797.423 5 134564627.69105                                                                  25606805.872 7 103107997.05707
E33  26897557.826 6 141347618.94606                                                                  26897566.267 7 108305352.82507
G02  23202235.702 7 121928568.07907  23202234.388 5  23202240.617 5  95009283.44305
G03  20219573.991 8 106254579.37808  20219573.656 8  20219579.406 8  82795797.27808  20219580.422 7  82795797.28207  20219576.506 6  79345961.95506
G04  21874878.679 7 114953264.96807  21874878.031 5  21874883.655 5  89573992.16805  21874884.358 7  89573993.17007  21874884.969 5  85841747.50205  21874878.581 7 114953265.96507
G07  25538072.196 6 134203462.49616  25538072.094 4  25538084.150 4 104574179.20214  25538085.707 5 104574189.21805
G09  24107423.351 6 126685371.27906  24107422.708 5  24107433.120 5  98715910.17905  24107433.852 5  98715916.22405
G16  22571674.237 6 118614954.39406  22571673.155 3  22571680.990 3  92427261.24303
G21  24043673.407 7 126350342.70307  24043672.035 4  24043680.230 4  98454835.20804
G26  21487310.617 6 112916579.90706  21487309.750 6  21487319.359 6  87986985.70106  21487320.038 7  87986982.71607  21487315.566 5  84320840.93505
G28  23493465.840 3                                                                  23493473.468 4  96201834.59004                                  23493463.983 3
G31  20900990.376 7 109835442.98407  20900989.746 7  20900993.619 7  85586067.53607  20900993.982 7  85586069.54007
R07  20219246.443 7 108235204.01907  20219246.565 7 108235205.02907  20219258.933 7  84182991.65407  20219258.978 7  84182993.66307
R08  22828310.739 6 122244562.00606  22828309.442 6 122244562.01706  22828325.970 6  95079171.62006  22828325.350 6  95079169.61906
R09  19481842.328 7 104031947.35707  19481842.659 7 104031951.36007  19481853.632 8  80913789.60908  19481853.682 8  80913788.61508  19481838.401 8  78112894.26708
R10  21181267.630 7 112908086.29307  21181267.952 7 112908086.29507
R22  22607278.466 7 120679178.56307  22607278.934 7 120679180.57107  22607293.089 7  93861638.63407  22607293.121 7  93861635.62307  22607278.111 6  90644408.05006
R23  22718132.305 6 121526678.84706  22718132.444 6 121526682.84206
S31  36910950.657 8 193968384.30508
S33  37043477.781 8 194664774.54908
S35  36962091.835 8 194237103.59908
> 2024 11 23 17 16  0.0000000  0 36
C11                                                                  26256412.632 6 136724009.50806  26256425.028 6 105723711.69806
C14                                                                  22868905.471 7 119084389.82207  22868908.291 8  92083614.88008  22868900.356 6  96765800.67306
C21  23740150.319 6 124755328.94506  23740154.927 5  93161456.50105  23740150.800 6 123621192.06906                                  23740147.863 5 100452326.60105  23740157.055 7  95591767.27507
C24  22784023.085 8 119730852.12108  22784023.978 5  89409407.49905  22784023.047 8 118642390.35308                                  22784021.252 6  96406656.42306  22784026.509 8  91741838.41508
C26  22001016.705 7 115616122.29307  22001019.270 5  86336724.13305  22001016.825 7 114565065.12607                                  22001016.600 6  93093497.82206  22001022.197 8  88588997.26208
C33  24850695.606 6 130591289.65706  24850726.163 5  97519587.41005  24850696.503 7 129404100.66407                                  24850709.594 5 105151493.23105  24850729.090 7 100063590.29907
C42  22037257.641 8 115806570.10108  22037270.126 6  86478981.53106  22037257.456 8 114753781.61308                                  22037265.234 6  93246879.54206  22037273.699 8  88734967.71508
C43  26304034.249 6 138228631.60706                                  26304034.443 6 136972003.16106                                                                  26304046.475 6 105915480.65606
E02  26227830.137 5 137828186.69205                                                                  26227840.275 7 105608645.07007
E07  23875955.584 7 125468993.24507  23875953.131 5 101841702.17805  23875960.254 5  93694395.46905  23875962.729 8  96138607.58308  23875961.389 8  94916500.09608
E08  25453964.981 6 133761489.51706                                  25453970.402 5  99886839.85105  25453972.584 7 102492593.15807
E13  26146053.814 7 137398431.60407                                  26146062.397 4 102602757.99504  26146064.890 7 105279358.35007  26146063.618 7 103941051.74707
E26  24990880.832 7 131327963.15307  24990880.072 4 106597358.85804  24990884.232 5  98069592.40605  24990886.888 8 100627939.22008  24990885.635 7  99348758.87807
E27  27550637.841 6 144779586.34206                                                                  27550653.432 6 110935068.88406
E29  26563505.458 7 139592162.18607                                                                  26563513.894 7 106960258.82607
E30  25595570.484 5 134505629.60805                                  25595576.110 4 100442547.17004  25595578.843 7 103062790.80107
E33  26889884.403 6 141307294.95906                                                                  26889892.602 7 108274455.18707
G02  23216044.194 7 122001129.17807  23216042.889 5  23216047.986 5  95065824.41405
G03  20212345.086 8 106216591.19808  20212344.756 8  20212350.532 8  82766196.11208  20212351.347 7  82766196.11307  20212347.433 6  79317594.17106
G04  21865442.636 7 114903676.47007  21865442.006 5  21865447.177 5  89535351.79305  21865447.897 7  89535352.79307  21865448.223 5  85804717.14005  21865442.262 7 114903677.48007
G07  25520954.546 6 134113502.82116  25520953.885 4  25520966.873 4 104504094.10514  25520967.465 5 104504095.13505
G09  24093537.432 6 126612399.72006  24093536.802 5  24093546.634 5  98659049.29205  24093546.815 5  98659055.30505
G16  22554487.507 5 118524638.21205  22554486.412 3  22554493.830 3  92356885.16803
G21  24058761.735 7 126429631.78807  24058760.372 4  24058768.406 4  98516618.65204
G26  21482779.038 6 112892766.33406  21482778.175 6  21482788.125 6  87968429.68406  21482788.270 7  87968426.67607  21482783.771 5  84303058.07905
G28  23511587.578 3                                                                  23511597.788 4  96276052.82104                                  23511587.039 3
G31  20913712.993 7 109902301.52607  20913712.363 7  20913716.016 7  85638165.04607  20913717.208 7  85638167.03707
R07  20212628.439 7 108199781.89107  20212629.328 7 108199782.88507  20212641.821 8  84155441.10208  20212642.108 8  84155443.10308
R08  22813281.419 6 122164085.83706  22813281.852 6 122164085.87506  22813297.562 6  95016579.03706  22813297.073 6  95016577.04206
R09  19477664.949 7 104009642.29607  19477665.229 7 104009646.29507  19477677.065 8  80896441.23908  19477676.951 8  80896440.24808  19477661.582 8  78096146.41008
R10  21159746.883 7 112793365.30907  21159746.498 7 112793365.31007
R22  22623601.413 7 120766313.65007  22623601.930 7 120766315.66307  22623616.604 7  93929410.21707  22623616.425 7  93929407.22607  22623601.828 6  90709856.68806
R23  22721201.529 6 121543098.96206  22721201.891 6 121543102.97606
S31  36910964.041 8 193968415.89908
S33  37043479.167 8 194664804.82308
S35  36962083.107 8 194237056.49408
> 2024 11 23 17 16 30.0000000  0 36
C11                                                                  26270429.464 6 136796997.93106  26270441.508 6 105780150.65206
C14                                                                  22858956.869 7 119032581.88707  22858959.044 8  92043553.72708  22858951.372 6  96723702.49906
C21  23749348.886 6 124803666.28306  23749352.620 5  93197552.43405  23749349.416 6 123669089.95506                                  23749346.023 6 100491247.46506  23749355.385 7  95628804.88007
C24  22768989.895 8 119651852.99708  22768990.690 5  89350414.69905  22768990.122 8 118564109.41108                                  22768988.119 6  96343046.78406  22768993.301 8  91681306.68008
C26  22002321.122 7 115622978.02907  22002324.322 5  86341843.67005  22002321.395 7 114571858.52907                                  22002321.336 6  93099018.02706  22002326.914 8  88594250.35908
C33  24836749.297 7 130518002.09407  24836779.980 5  97464859.74505  24836749.461 7 129331479.36207                                  24836763.309 5 105092482.51205  24836782.746 7 100007434.98107
C42  22033722.344 8 115787991.61208  22033735.175 6  86465107.96106  22033722.129 8 114735372.02108                                  22033730.034 6  93231920.21906  22033738.371 8  88720732.22508
C43  26316307.016 6 138293122.52906                                  26316307.656 6 137035907.80106                                                                  26316318.569 5 105964895.59505
E02  26230107.106 5 137840153.96205                                                                  26230117.829 7 105617814.80507
E07  23874685.313 7 125462317.40207  23874682.294 5 101836283.46305  23874689.854 5  93689410.23205  23874692.421 8  96133492.29608  23874691.014 8  94911449.83308
E08  25461500.836 6 133801088.91806                                  25461505.885 5  99916410.76405  25461508.296 7 102522935.48607
E13  26162689.927 7 137485852.64407                                  26162697.896 4 102668039.74804  26162700.798 7 105346343.13307  26162699.467 7 104007185.01807
E26  24996804.204 7 131359089.83507  24996803.658 4 106622623.92904  24996807.673 5  98092836.25305  24996810.164 8 100651789.46108  24996808.938 7  99372305.92807
E27  27534013.741 6 144692224.44606                                                                  27534028.803 6 110868129.40306
E29  26554439.286 7 139544518.07507                                                                  26554447.376 7 106923752.28107
E30  25584391.945 5 134446888.09505                                  25584398.258 4 100398681.84104  25584400.801 7 103017781.12907
E33  26882282.914 6 141267348.79906                                                                  26882291.116 6 108243847.04106
G02  23229887.042 7 122073871.99507  23229885.728 5  23229890.466 5  95122506.97205
G03  20205201.898 8 106179054.41308  20205201.563 8  20205207.455 8  82736946.68108  20205208.211 7  82736946.68907  20205204.427 6  79289563.47106
G04  21856023.490 7 114854179.34007  21856022.856 5  21856028.245 5  89496782.61305  21856028.905 7  89496783.61007  21856029.344 5  85767755.02405  21856023.280 7 114854180.34707
G07  25503856.730 5 134023649.11015  25503856.033 3  25503868.515 3 104434078.51213  25503870.070 5 104434087.59605
G09  24079652.659 6 126539435.13306  24079652.042 5  24079661.808 5  98602193.79105  24079662.555 6  98602199.79106
G16  22537347.741 5 118434570.11405  22537346.641 3  22537354.280 3  92286702.45803
G21  24073850.043 7 126508919.77807  24073848.662 4  24073856.876 4  98578401.23304
G26  21478354.250 6 112869516.69406  21478353.383 6  21478363.812 6  87950313.06606  21478364.258 7  87950310.06907  21478359.297 5  84285696.34905
G28  23529730.256 3                                                                  23529738.663 4  96350335.34504                                  23529729.257 3
G31  20926505.084 7 109969524.25407  20926504.458 7  20926508.550 7  85690546.31607  20926509.430 7  85690548.31207
R07  20206042.637 7 108164525.25707  20206043.017 7 108164526.25507  20206055.783 7  84128019.28507  20206055.716 7  84128021.29707
R08  22798238.813 6 122083536.94006  22798239.748 6 122083536.95006  22798255.385 6  94953929.86806  22798255.086 6  94953927.87406
R09  19473634.105 7 103988117.34207  19473634.388 7 103988121.34207  19473645.942 8  80879699.61708  19473645.788 8  80879698.62508  19473630.607 8  78079984.30308
R10  21138299.256 7 112679040.06807  21138299.241 7 112679040.07507
R22  22639984.962 7 120853767.76307  22639984.864 7 120853769.76207  22640000.334 7  93997429.91007  22639999.407 7  93997426.92607  22639985.187 6  90775544.92906
R23  22724401.650 6 121560215.59106  22724401.485 6 121560219.56306
S31  36910961.385 8 193968439.21708
S33  37043487.833 8 194664826.49908
S35  36962072.097 8 194237001.13508
> 2024 11 23 17 17  0.0000000  0 36
C11                                                                  26284428.069 6 136869886.57906  26284438.047 6 105836512.38806
C14                                                                  22849027.048 7 118980876.94607  22849029.452 8  92003572.22108  22849022.008 6  96681688.03506
C21  23758587.385 6 124852215.11406  23758591.267 5  93233806.31305  23758588.266 6 123717197.41906                                  23758585.088 6 100530338.66306  23758594.123 7  95666004.53007
C24  22754012.689 8 119573147.18208  22754013.546 5  89291640.93105  22754012.764 8 118486119.09908                                  22754011.031 6  96279673.31906  22754015.971 8  91620999.67808
C26  22003717.454 7 115630314.78607  22003720.173 5  86347322.44005  22003717.375 7 114579128.59807                                  22003717.328 6  93104925.55506  22003723.012 8  88599872.04108
C33  24822800.811 7 130444703.23007  24822831.246 4  97410123.65404  24822800.545 7 129258846.84307                                  24822815.164 5 105033462.70205  24822834.179 7  99951270.99707
C42  22030225.246 8 115769614.35808  22030238.127 6  86451384.65906  22030224.906 8 114717161.84308                                  22030232.956 6  93217122.92706  22030241.240 8  88706650.92308
C43  26328580.588 6 138357622.81606                                  26328581.648 6 137099821.67506                                                                  26328591.927 5 106014317.66605
E02  26232462.167 6 137852524.83906                                                                  26232471.602 7 105627293.81907
E07  23873424.565 7 125455691.75207  23873421.590 5 101830905.48505  23873429.130 5  93684462.50205  23873431.509 8  96128415.47208  23873430.191 8  94906437.54808
E08  25469039.249 6 133840703.71806                                  25469044.275 5  99945993.19105  25469047.047 7 102553289.59207
E13  26179340.276 7 137573350.77107                                  26179349.314 4 102733379.07904  26179351.245 7 105413386.96707  26179350.045 7 104073376.58707
E26  25002801.460 7 131390605.05207  25002800.898 5 106648204.40305  25002804.932 5  98116370.26605  25002807.346 8 100675937.40108  25002806.171 7  99396146.90107
E27  27517375.935 6 144604790.81706                                                                  27517390.552 6 110801134.96206
E29  26545375.606 7 139496888.37707                                                                  26545383.680 7 106887256.78407
E30  25573262.806 5 134388404.70005                                  25573269.018 4 100355009.17204  25573271.702 7 102972969.25207
E33  26874753.392 6 141227781.29306                                                                  26874761.627 6 108213529.03306
G02  23243763.270 7 122146793.50907  23243761.947 5  23243767.396 5  95179328.77205
G03  20198145.243 8 106141970.84808  20198144.904 8  20198150.662 8  82708050.40808  20198151.510 7  82708050.41107  20198147.705 6  79261871.21206
G04  21846622.144 7 114804773.32707  21846621.505 5  21846626.775 5  89458284.42705  21846627.125 7  89458285.42407  21846627.514 5  85730860.94605  21846621.556 7 114804774.33007
G07  25486778.457 6 133933917.76806  25486777.823 3  25486788.075 3 104364129.51313  25486793.710 5 104364161.55015
G09  24065769.215 6 126466477.25906  24065768.576 5  24065779.066 5  98545343.46105  24065778.686 6  98545349.48506
G16  22520256.077 6 118344753.24206  22520254.960 3  22520262.379 3  92216715.47103
G21  24088937.133 6 126588203.71006  24088935.779 4  24088944.538 4  98640180.66104
G26  21474038.581 6 112846832.22806  21474037.705 6  21474047.158 6  87932636.87106  21474047.228 7  87932633.86207  21474042.904 5  84268756.62005
G28  23547884.100 3                                                                  23547895.365 5  96424680.48105                                  23547888.128 3
G31  20939365.914 7 110037108.05807  20939365.288 7  20939369.205 7  85743208.94307  20939370.068 7  85743210.94407
R07  20199487.340 7 108129435.25407  20199487.677 7 108129436.26107  20199500.474 7  84100727.08207  20199500.202 7  84100729.07707
R08  22783184.763 6 122002915.76606  22783184.684 6 122002915.78506  22783199.817 6  94891224.49806  22783199.976 6  94891222.48206
R09  19469749.778 7 103967372.93507  19469749.429 7 103967376.94207  19469761.068 8  80863565.10308  19469760.762 8  80863564.10208  19469745.788 8  78064408.28708
R10  21116926.838 7 112565114.90707  21116926.656 7 112565114.91007
R22  22656427.533 7 120941536.19607  22656426.886 7 120941538.20307  22656442.776 7  94065694.09807  22656442.119 7  94065691.09107  22656427.301 6  90841469.26806
R23  22727731.400 6 121578026.36606  22727731.037 6 121578030.37206
S31  36910970.453 8 193968453.67408
S33  37043486.451 8 194664839.66808
S35  36962060.190 8 194236937.63608
> 2024 11 23 17 17 30.0000000  0 36
C11                                                                  26298408.066 6 136942680.41606  26298417.796 6 105892800.89906
C14                                                                  22839118.573 7 118929283.44907  22839121.517 8  91963676.87608  22839113.749 6  96639764.09506
C21  23767867.461 6 124900983.11506  23767871.712 5  93270223.88305  23767868.144 6 123765522.06506                                  23767865.160 6 100569606.30906  23767874.441 7  95703372.12307
C24  22739092.908 8 119494743.85308  22739093.952 5  89233093.03005  22739093.117 8 118408428.52908                                  22739091.029 6  96216543.38706  22739096.393 8  91560924.45008
C26  22005206.269 7 115638139.37107  22005208.900 5  86353165.51005  22005206.247 7 114586882.05907                                  22005206.105 6  93111225.87106  22005212.087 8  88605867.51408
C33  24808851.667 7 130371401.27107  24808882.456 5  97355385.30605  24808851.906 7 129186211.26307                                  24808866.123 5 104974440.40305  24808885.425 7  99895104.63107
C42  22026768.097 8 115751446.91408  22026781.043 6  86437818.01706  22026768.006 8 114699159.55008                                  22026775.778 6  93202494.56206  22026783.988 8  88692730.38308
C43  26340857.557 6 138422137.43306                                  26340858.318 6 137163749.81106                                                                  26340869.341 5 106063750.74205
E02  26234894.285 6 137865306.57606                                                                  26234903.804 7 105637087.62607
E07  23872174.568 7 125449123.51007  23872171.669 5 101825574.08505  23872179.140 5  93679557.60705  23872181.574 8  96123382.64008  23872180.315 8  94901468.68808
E08  25476581.688 6 133880341.42306                                  25476586.632 4  99975592.70704  25476589.642 7 102583661.27407
E13  26196006.324 7 137660931.22707                                  26196015.606 4 102798779.89004  26196017.421 7 105480493.87807  26196016.261 7 104139630.43407
E26  25008873.711 7 131422515.00707  25008873.316 4 106674105.28004  25008877.238 5  98140199.05105  25008879.635 8 100700387.81108  25008878.532 7  99420286.49607
E27  27500725.728 6 144517294.64906                                                                  27500740.526 6 110734092.59506
E29  26536316.243 7 139449280.05907                                                                  26536324.184 7 106850777.67407
E30  25562184.237 5 134330188.63805                                  25562191.030 4 100311536.29004  25562193.293 7 102928362.21907
E33  26867297.710 6 141188600.78206                                                                  26867305.922 6 108183507.56806
G02  23257674.995 7 122219898.03207  23257673.685 5  23257679.056 5  95236293.18205
G03  20191176.645 8 106105349.80108  20191176.306 8  20191182.014 8  82679514.54308  20191182.773 7  82679514.54507  20191178.930 6  79234524.33806
G04  21837238.562 7 114755465.85007  21837237.928 5  21837243.906 5  89419863.02205  21837244.152 7  89419864.01707  21837245.250 5  85694040.40605  21837238.837 7 114755466.84907
G07  25469726.669 6 133844307.24006  25469725.936 2  25469739.156 2 104294303.52602  25469740.583 4 104294335.55204
G09  24051888.141 6 126393533.43206  24051887.484 5  24051898.358 5  98488504.08605  24051898.271 5  98488510.10505
G16  22503214.387 6 118255198.34606  22503213.283 3  22503221.473 3  92146932.63103
G21  24104025.077 6 126667488.82606  24104023.691 3  24104032.964 3  98701961.00403
G26  21469830.208 6 112824721.70006  21469829.341 6  21469839.250 6  87915407.88406  21469839.665 7  87915404.87807  21469835.370 5  84252245.51605
G28  23566061.215 4                                                                  23566067.625 4  96499092.22904                                  23566060.900 4
G31  20952296.216 7 110105057.30707  20952295.586 7  20952299.510 7  85796156.34407  20952300.560 7  85796158.34607
R07  20192965.802 7 108094521.24807  20192965.457 7 108094522.24407  20192978.232 7  84073571.73807  20192978.589 7  84073573.73507
R08  22768116.248 6 121922230.50406  22768117.642 6 121922230.50406  22768132.604 6  94828469.24306  22768132.700 6  94828467.24606
R09  19466012.022 7 103947417.01407  19466012.383 7 103947421.00807  19466024.044 8  80848043.84408  19466023.974 8  80848042.84608  19466008.539 8  78049424.30108
R10  21095632.283 7 112451601.05107  21095631.716 7 112451601.05107
R22  22672929.227 7 121029621.93007  22672929.114 7 121029623.93807  22672943.779 7  94134205.05807  22672943.363 7  94134202.05807  22672929.108 6  90907631.95306
R23  22731191.008 6 121596537.17206  22731191.586 6 121596541.18006
S31  36910969.018 8 193968467.21708
S33  37043491.759 8 194664851.01908
S35  36962048.850 8 194236872.96908
> 2024 11 23 17 18  0.0000000  0 36
C11                                                                  26312368.409 6 137015380.02206  26312379.631 6 105949016.45806
C14                                                                  22829232.539 7 118877805.56107  22829235.577 8  91923870.92308  22829228.225 6  96597934.10106
C21  23777190.302 6 124949973.46306  23777194.304 5  93306807.48305  23777191.228 6 123814067.04606                                  23777188.227 6 100609053.00706  23777197.309 7  95740910.08807
C24  22724231.667 8 119416647.70408  22724232.555 5  89174774.56605  22724231.991 8 118331042.35908                                  22724229.961 6  96153660.83206  22724235.156 8  91501084.59108
C26  22006788.595 7 115646454.07607  22006790.982 5  86359374.53705  22006788.382 7 114595121.17007                                  22006788.355 6  93117920.84506  22006794.199 8  88612238.53408
C33  24794903.272 7 130298100.02907  24794933.401 4  97300647.43304  24794903.699 7 129113576.39707                                  24794917.396 5 104915418.68505  24794936.509 7  99838938.80407
C42  22023351.656 8 115733493.45708  22023364.610 6  86424411.18506  22023351.553 8 114681369.29808                                  22023359.362 6  93188038.51406  22023367.592 8  88678973.80308
C43  26353136.583 6 138486666.92806                                  26353138.323 7 137227692.62207                                                                  26353149.213 6 106113195.19606
E02  26237405.793 6 137878501.84106                                                                  26237414.924 7 105647198.30307
E07  23870936.203 7 125442615.45207  23870933.704 5 101820291.56205  23870940.515 5  93674697.67105  23870943.088 8  96118395.93308  23870941.885 8  94896545.37208
E08  25484129.720 6 133920005.22006                                  25484134.253 4 100005211.67504  25484137.544 7 102614052.92507
E13  26212688.356 7 137748594.78207                                  26212697.362 4 102864242.71304  26212699.350 7 105547664.47407  26212698.262 7 104205947.15307
E26  25015021.616 7 131454821.43307  25015020.956 4 106700327.96604  25015025.148 5  98164323.88205  25015027.461 8 100725142.00608  25015026.391 7  99444726.00907
E27  27484064.709 6 144429740.63406                                                                  27484079.191 6 110667005.87906
E29  26527261.162 7 139401695.61507                                                                  26527269.326 7 106814316.84107
E30  25551157.490 5 134272244.64905                                  25551164.646 4 100268266.49704  25551167.202 7 102883963.66207
E33  26859916.366 6 141149811.19806                                                                  26859924.420 6 108153785.64106
G02  23271621.280 7 122293185.95007  23271619.979 5  23271625.488 5  95293400.49905
G03  20184296.651 8 106069196.17808  20184296.312 8  20184302.302 8  82651342.89908  20184302.868 7  82651342.90107  20184299.312 6  79207526.51106
G04  21827874.891 7 114706259.76407  21827874.265 5  21827880.570 5  89381520.63605  21827880.530 7  89381521.64107  21827881.229 5  85657295.62105  21827874.890 7 114706260.76507
G07  25452699.671 6 133754821.44806  25452698.692 2  25452710.935 2 104224574.86802
G09  24038010.527 6 126320606.46006  24038009.861 5  24038020.185 5  98431677.81005  24038021.071 5  98431683.81105
G16  22486223.457 6 118165912.04506  22486222.371 3  22486229.983 3  92077359.07703
G21  24119113.067 6 126746775.64406  24119111.695 3  24119121.484 3  98763742.67003
G26  21465732.558 6 112803189.41306  21465731.709 6  21465741.634 6  87898629.46706  21465742.465 7  87898626.46407  21465737.867 5  84236166.18905
G28  23584248.833 4                                                                  23584255.974 5  96573571.20305                                  23584249.507 4
G31  20965296.322 7 110173372.64207  20965295.701 7  20965299.876 7  85849388.99507  20965300.541 7  85849390.99607
R07  20186476.856 7 108059787.90007  20186476.977 7 108059788.90407  20186489.868 7  84046556.92207  20186489.925 7  84046558.92107
R08  22753038.192 6 121841484.84706  22753038.852 6 121841484.86406  22753053.568 6  94765667.04806  22753054.302 6  94765665.03306
R09  19462423.319 7 103928253.54907  19462423.610 7 103928257.54807  19462435.630 8  80833138.94608  19462435.522 8  80833137.94608  19462419.719 8  78035035.34008
R10  21074415.666 7 112338505.46407  21074415.271 7 112338505.47107
R22  22689490.418 7 121118023.54307  22689490.587 7 121118025.55007  22689504.791 7  94202961.69507  22689504.267 7  94202958.69707  22689489.992 6  90974031.89006
R23  22734782.587 6 121615749.41806  22734783.318 6 121615753.41606
S31  36910975.841 8 193968482.52708
S33  37043490.574 8 194664864.47508  37043472.989 5 145366545.78315
S35  36962036.172 8 194236810.14508
> 2024 11 23 17 18 30.0000000  0 36
C11                                                                  26326309.718 5 137087977.18705  26326321.811 6 106005152.82806
C14                                                                  22819368.031 7 118826438.44507  22819371.298 8  91884150.62908  22819363.456 6  96556194.13506
C21  23786554.253 6 124999180.41906  23786558.649 5  93343552.80405  23786555.035 6 123862826.66406                                  23786551.368 5 100648674.11105  23786561.353 8  95778614.02108
C24  22709428.101 8 119338854.45808  22709428.701 5  89116682.27105  22709428.147 8 118253956.32708                                  22709426.511 6  96091022.13806  22709431.575 8  91441476.82508
C26  22008462.929 7 115655252.22507  22008465.029 5  86365944.62105  22008462.917 7 114603839.33407                                  22008462.471 6  93125005.08906  22008468.406 8  88618980.00208
C33  24780953.338 7 130224794.34807  24780983.315 4  97245906.16004  24780954.347 7 129040937.14707                                  24780967.881 5 104856393.36605  24780986.729 7  99782769.56007
C42  22019975.067 8 115715749.08608  22019987.954 6  86411160.51106  22019974.984 8 114663786.25308                                  22019982.808 6  93173750.82506  22019991.164 8  88665377.45508
C43  26365417.768 6 138551202.71006                                  26365419.336 6 137291641.75306                                                                  26365430.543 5 106162644.54405
E02  26239993.761 6 137892104.45206                                                                  26240003.587 7 105657621.11107
E07  23869708.045 7 125436161.36207  23869705.825 5 101815052.84405  23869712.388 5  93669878.03605  23869715.019 8  96113450.57108  23869713.683 8  94891662.87408
E08  25491681.201 6 133959689.20006                                  25491686.374 4 100034845.73504  25491689.358 7 102644460.06507
E13  26229384.407 7 137836333.25107                                  26229393.893 4 102929761.47904  26229395.634 7 105614892.46707  26229394.598 7 104272320.53507
E26  25021243.568 7 131487517.07607  25021242.498 4 106726866.61404  25021246.955 5  98188739.36205  25021249.323 8 100750194.43708  25021248.198 7  99469459.97207
E27  27467391.940 6 144342124.48106                                                                  27467406.196 6 110599871.56606
E29  26518209.518 7 139354128.62307                                                                  26518217.566 7 106777869.36407
E30  25540182.224 5 134214568.44905                                  25540188.927 4 100225196.72604  25540191.887 7 102839770.27907
E33  26852608.499 6 141111407.46006                                                                  26852616.989 6 108124359.36406
G02  23285601.188 7 122366648.20507  23285599.883 5  23285605.077 5  95350643.66605
G03  20177505.045 8 106033505.87108  20177504.706 8  20177510.752 8  82623532.27908  20177511.396 7  82623532.28607  20177507.619 6  79180874.67006
G04  21818529.564 7 114657149.07907  21818528.947 5  21818535.143 5  89343252.58305  21818535.183 7  89343253.58507  21818535.765 5  85620622.06405  21818529.572 7 114657150.08407
G07  25435694.164 6 133665455.60106  25435693.149 3  25435704.201 3 104154939.53803  25435704.358 4
G09  24024135.073 6 126247690.27306  24024134.380 5  24024144.579 5  98374859.91805  24024145.181 5  98374865.90405
G16  22469283.569 6 118076891.51606  22469282.492 3  22469289.160 3  92007992.65703
G21  24134199.664 6 126826055.23806  24134198.274 3  24134208.108 3  98825518.70403
G26  21461744.990 6 112782230.60206  21461744.132 6  21461753.465 6  87882297.93606  21461754.028 7  87882294.93807  21461749.318 5  84220515.15505
G28  23602453.323 4                                                                  23602459.892 5  96648111.18405                                  23602455.052 4
G31  20978364.589 7 110242045.36107  20978363.963 7  20978367.903 7  85902900.13307  20978368.433 7  85902902.13907
R07  20180021.152 7 108025230.63507  20180021.174 7 108025231.64707  20180034.195 7  84019679.07407  20180034.185 7  84019681.06007
R08  22737947.138 6 121760672.96306  22737947.904 6 121760672.98406  22737962.357 6  94702813.36306  22737962.656 6  94702811.35806
R09  19458982.237 7 103909877.14807  19458982.773 7 103909881.14107  19458993.876 8  80818846.20408  19458993.821 8  80818845.19808  19458978.503 8  78021237.34008
R10  21053276.975 7 112225826.18207  21053277.071 7 112225826.18007
R22  22706107.532 7 121206730.23107  22706107.686 7 121206732.24107  22706121.949 7  94271955.65207  22706122.432 7  94271952.64507  22706107.830 6  91040660.98806
R23  22738505.370 6 121635654.74606  22738504.379 6 121635658.75706
S31  36910971.642 8 193968493.10608
S33  37043496.400 8 194664873.40108  37043474.979 5 145366552.27815
S35  36962023.424 8 194236742.33108
> 2024 11 23 17 19  0.0000000  0 36
C11                                                                  26340231.302 6 137160477.93006  26340244.966 6 106061214.69206
C14                                                                  22809526.912 7 118775191.89707  22809529.743 8  91844523.56508  22809522.120 6  96514552.12806
C21  23795961.587 6 125048612.83406  23795965.275 5  93380466.55005  23795962.088 6 123911809.68606                                  23795958.402 5 100688476.78005  23795967.896 8  95816490.73108
C24  22694684.174 8 119261374.48108  22694685.088 5  89058823.88805  22694683.890 8 118177180.70808                                  22694682.418 6  96028635.69606  22694687.549 8  91382109.09808
C26  22010230.859 7 115664541.82007  22010233.057 5  86372881.67105  22010230.624 7 114613044.47407                                  22010230.242 6  93132485.03206  22010236.146 8  88626098.02108
C33  24767004.830 7 130151493.71407  24767035.515 5  97191168.72605  24767005.216 7 128968302.88607                                  24767019.384 5 104797372.12705  24767037.936 7  99726604.18707
C42  22016640.067 8 115698223.66308  22016653.018 6  86398073.29406  22016639.904 8 114646420.14408                                  22016647.781 6  93159639.42706  22016656.208 8  88651948.85608
C43  26377700.918 6 138615751.01706                                  26377702.092 6 137355603.25006                                                                  26377714.217 6 106212103.43106
E02  26242661.212 6 137906122.78806                                                                  26242670.769 7 105668362.44407
E07  23868491.695 7 125429769.76507  23868488.954 5 101809864.85105  23868496.196 5  93665105.09005  23868498.850 8  96108553.09508  23868497.468 8  94886827.65308
E08  25499238.745 6 133999402.21806                                  25499243.846 5 100064501.44605  25499246.588 7 102674889.43107
E13  26246095.969 7 137924153.10607                                  26246105.627 4 102995341.04704  26246107.300 7 105682182.81107  26246106.295 7 104338755.48507
E26  25027540.794 7 131520609.38507  25027539.917 4 106753727.19504  25027544.221 5  98213451.08605  25027546.715 8 100775550.80708  25027545.531 7  99494494.01207
E27  27450709.216 6 144254456.61906                                                                  27450723.276 6 110532697.59706
E29  26509162.589 7 139306587.34307                                                                  26509170.905 7 106741441.56907
E30  25529259.533 5 134157170.41905                                  25529266.654 4 100182334.70404  25529269.105 7 102795790.07907
E33  26845375.700 6 141073399.11706                                                                  26845384.328 7 108095236.06707
G02  23299614.771 7 122440290.69607  23299613.452 5  23299619.035 5  95408027.26705
G03  20170803.591 8 105998289.41308  20170803.252 8  20170808.984 8  82596090.89708  20170809.866 7  82596090.90807  20170806.168 6  79154576.67806
G04  21809203.965 7 114608142.41107  21809203.348 5  21809208.944 5  89305065.58405  21809209.533 7  89305066.58107  21809210.628 5  85584026.22705  21809203.949 7 114608143.41007
G07  25418713.062 6 133576219.34906  25418712.038 4  25418723.559 4 104085405.03104  25418724.807 4 104085431.06814
G09  24010263.389 6 126174793.42406  24010262.696 5  24010273.186 5  98318057.07905  24010272.672 5  98318063.09605
G16  22452396.850 5 117988148.94705  22452395.737 2  22452402.051 2  91938842.81502
G21  24149285.119 6 126905333.86706  24149283.724 3  24149294.057 3  98887293.99603
G26  21457867.314 6 112761855.23006  21457866.465 6  21457876.318 6  87866421.02006  21457876.974 7  87866418.02607  21457871.919 5  84205299.79505
G28  23620673.749 4                                                                  23620678.887 5  96722717.15305                                  23620673.707 4
G31  20991501.660 7 110311081.28307  20991501.034 7  20991505.132 7  85956694.28907  20991505.795 7  85956696.29507
R07  20173600.763 7 107990860.14407  20173600.828 7 107990861.14107  20173613.817 7  83992946.44507  20173613.696 8  83992948.44508
R08  22722845.508 6 121679804.69706  22722846.479 6 121679804.70606  22722861.160 6  94639915.83406  22722861.272 6  94639913.83306
R09  19455690.315 7 103892296.97407  19455690.456 7 103892300.97207  19455701.755 8  80805172.75908  19455701.862 8  80805171.75008  19455686.399 8  78008037.19008
R10  21032219.086 7 112113575.82307  21032218.796 7 112113575.82207
R22  22722783.644 7 121295746.39207  22722783.829 7 121295748.40107  22722797.931 6  94341190.29606  22722798.123 6  94341187.26706  22722783.135 6  91107522.55006
R23  22742357.571 6 121656260.22606  22742356.655 6 121656264.21706
S31  36910980.232 8 193968507.90308
S33  37043494.732 8 194664886.78508
S35  36962011.690 8 194236679.53608
> 2024 11 23 17 19 30.0000000  0 36
C11                                                                  26354135.111 6 137232873.24206  26354147.228 6 106117194.99006
C14                                                                  22799708.030 7 118724060.18507  22799710.634 8  91804985.30408  22799702.720 6  96473003.42606
C21  23805409.489 6 125098263.99506  23805413.792 5  93417543.59905  23805410.229 6 123961009.49506                                  23805406.749 6 100728455.56106  23805416.460 8  95854535.02408
C24  22679998.790 8 119184202.54508  22679999.664 5  89001195.51605  22679998.780 8 118100710.33408                                  22679996.946 6  95966497.29206  22680002.134 8  91322977.39108
C26  22012090.401 7 115674315.15307  22012092.758 5  86380179.96205  22012090.283 7 114622728.97407                                  22012090.018 6  93140354.48906  22012096.097 8  88633586.70108
C33  24753056.108 7 130078192.05007  24753086.209 5  97136430.53805  24753056.456 7 128895667.59207                                  24753070.227 5 104738350.00205  24753089.250 7  99670438.00207
C42  22013345.760 8 115680911.33608  22013358.617 6  86385145.25506  22013345.499 8 114629265.19408                                  22013353.206 6  93145699.61006  22013361.690 8  88638683.54908
C43  26389984.827 6 138680302.39506                                  26389986.290 6 137419567.81606                                                                  26389998.813 6 106261564.68706
E02  26245406.971 6 137920549.62206                                                                  26245416.607 7 105679416.77407
E07  23867285.985 7 125423433.49807  23867282.972 5 101804721.74705  23867290.818 6  93660373.42306  23867293.116 8  96103698.01408  23867291.731 8  94882034.28808
E08  25506800.404 6 134039137.42906                                  25506805.482 5 100094173.79105  25506808.099 7 102705335.82307
E13  26262821.403 7 138012045.15807                                  26262830.885 4 103060974.47004  26262832.763 7 105749528.47607  26262831.782 7 104405245.04907
E26  25033911.844 7 131554090.13507  25033911.390 5 106780903.04105  25033915.564 5  98238452.88105  25033917.957 8 100801204.81508  25033916.775 7  99519821.90907
E27  27434015.803 6 144166731.85606                                                                  27434029.850 7 110465480.03707
E29  26500119.130 7 139259064.36207                                                                  26500127.710 7 106705027.84007
E30  25518389.199 5 134100045.36705                                  25518396.090 4 100139676.46404  25518398.261 7 102752019.00507
E33  26838217.082 6 141035780.13306                                                                  26838225.928 7 108066411.13007
G02  23313660.899 7 122514103.42307  23313659.580 5  23313665.389 5  95465543.51705
G03  20164191.427 8 105963541.70808  20164191.088 8  20164196.420 8  82569014.78008  20164197.672 7  82569014.78107  20164193.778 6  79128628.72706
G04  21799896.972 7 114559232.71607  21799896.355 5  21799902.044 5  89266954.15605  21799902.319 7  89266955.15207  21799903.250 5  85547502.74705  21799896.701 7 114559233.71207
G07  25401754.914 6 133487106.66606  25401753.882 4  25401766.039 4 104015966.79604  25401767.581 5 104015985.81915
G09  23996394.127 6 126101908.81906  23996393.403 5  23996404.010 5  98261263.77705  23996404.561 5  98261269.77605
G16  22435561.169 6 117899680.68806  22435560.025 2  22435566.584 2  91869906.73802
G21  24164370.105 6 126984602.15606  24164368.697 3  24164378.199 3  98949061.25703
G26  21454100.336 6 112742057.56706  21454099.496 6  21454108.829 6  87850994.27206  21454109.318 7  87850991.28807  21454104.414 5  84190515.80905
G28  23638906.589 4                                                                  23638913.947 5  96797382.06605                                  23638906.382 4
G31  21004705.952 7 110380470.85607  21004705.322 7  21004709.552 7  86010764.01907  21004710.229 7  86010766.01507
R07  20167212.538 7 107956671.01907  20167213.920 7 107956672.00907  20167226.645 7  83966354.89207  20167226.713 7  83966356.89807
R08  22707733.209 6 121598873.50306  22707732.618 6 121598873.51906  22707747.505 6  94576969.38106  22707747.043 6  94576967.38906
R09  19452545.750 7 103875506.28007  19452546.007 7 103875510.29207  19452557.480 8  80792113.34508  19452557.439 8  80792112.34608  19452541.903 8  77995429.83908
R10  21011240.939 7 112001751.85307  21011240.778 7 112001751.85607
R22  22739515.498 7 121385060.31907  22739515.795 7 121385062.30907  22739529.852 7  94410656.50507  22739529.847 6  94410653.50206  22739515.086 6  91174607.72706
R23  22746338.052 6 121677556.28306  22746337.781 6 121677560.27906
S31  36910971.334 8 193968519.73908
S33  37043504.405 8 194664897.20108  37043479.092 5 145366569.21315
S35  36961998.763 8 194236614.22208
> 2024 11 23 17 20  0.0000000  0 36
C11                                                                  26368021.322 6 137305165.86206  26368030.589 6 106173095.87906
C14                                                                  22789912.109 8 118673049.65608  22789914.356 8  91765540.75308  22789906.393 6  96431553.23406
C21  23814900.595 6 125148139.24006  23814904.413 5  93454788.01605  23814901.186 6 124010431.30506                                  23814898.001 6 100768614.76806  23814907.505 8  95892751.02108
C24  22665373.403 8 119107345.48308  22665373.764 5  88943802.31205  22665373.320 8 118024551.97408                                  22665371.434 6  95904612.40806  22665376.704 8  91264086.95808
C26  22014042.878 7 115684576.71007  22014045.363 5  86387842.84405  22014043.091 7 114632897.23707                                  22014042.729 6  93148617.03506  22014048.608 8  88641449.46408
C33  24739108.249 7 130004895.34207  24739138.503 5  97081696.00805  24739108.596 7 128823037.21507                                  24739122.271 5 104679331.88705  24739141.582 7  99614275.60207
C42  22010093.026 8 115663818.45508  22010105.732 6  86372381.07306  22010092.963 8 114612327.70208                                  22010100.591 6  93131936.48306  22010109.010 8  88625586.38408
C43  26402270.224 6 138744859.61706                                  26402271.464 6 137483538.11406                                                                  26402283.876 6 106311030.37906
E02  26248230.565 5 137935389.90205                                                                  26248240.385 7 105690787.85407
E07  23866091.660 7 125417157.55607  23866089.239 5 101799627.61605  23866096.539 6  93655686.81206  23866098.833 8  96098889.15508  23866097.486 8  94877286.55308
E08  25514367.322 6 134078900.21606                                  25514372.315 5 100123866.66605  25514374.288 7 102735803.33507
E13  26279561.505 7 138100012.43807                                  26279570.062 4 103126664.11804  26279572.605 7 105816931.78207  26279571.453 7 104471791.52907
E26  25040358.044 7 131587963.16707  25040356.982 4 106808397.33204  25040361.222 5  98263747.60405  25040363.808 8 100827159.41308  25040362.632 7  99545446.57307
E27  27417312.601 6 144078957.07406                                                                  27417327.075 7 110398224.13607
E29  26491080.438 7 139211564.45007                                                                  26491088.894 7 106668631.73607
E30  25507571.203 5 134043200.11605                                  25507578.907 4 100097227.18504  25507580.724 7 102708462.37307
E33  26831133.508 6 140998556.52406                                                                  26831142.340 7 108037889.14507
G02  23327739.274 7 122588088.80307  23327737.973 5  23327744.204 5  95523194.30305
G03  20157669.426 8 105929269.78408  20157669.087 8  20157674.800 8  82542309.39808  20157675.959 7  82542309.40007  20157672.109 6  79103036.07706
G04  21790608.988 7 114510425.14707  21790608.380 5  21790614.081 5  89228922.31405  21790614.630 7  89228923.31407  21790615.171 5  85511055.56205  21790609.002 7 114510426.14807
G07  25384820.847 6 133398124.14506  25384819.774 4  25384832.613 4 103946629.90104  25384834.447 5 103946650.96815
G09  23982528.263 6 126029041.59506  23982527.544 5  23982537.473 5  98204484.06305  23982538.574 5  98204490.06205
G16  22418779.691 6 117811495.41606  22418778.569 3  22418785.255 3  91801191.16203
G21  24179453.339 6 127063862.65306  24179451.926 3  24179461.357 3  99010822.41703
G26  21450443.833 6 112722843.96206  21450442.984 6  21450452.602 6  87836022.63506  21450453.054 7  87836019.64307  21450448.419 5  84176168.00305
G28  23657156.349 4                                                                  23657163.241 5  96872108.34505                                  23657155.735 4
G31  21017978.026 7 110450216.53007  21017977.405 7  21017981.779 7  86065111.22907  21017982.504 7  86065113.22607
R07  20160861.329 7 107922670.12007  20160861.944 7 107922671.11207  20160874.902 8  83939909.74508  20160874.930 8  83939911.74708
R08  22692610.183 6 121517885.31806  22692608.741 6 121517885.33606  22692623.328 6  94513978.61306  22692623.480 6  94513976.59506
R09  19449550.169 7 103859511.38507  19449550.440 7 103859515.38707  19449562.231 8  80779672.88708  19449562.239 8  80779671.88908  19449546.740 8  77983420.01208
R10  20990344.360 7 111890363.41107  20990344.408 7 111890363.40407
R22  22756302.841 7 121474672.62107  22756303.098 7 121474674.61807  22756318.032 7  94480354.82507  22756318.335 7  94480351.82007  22756303.021 6  91241917.07606
R23  22750448.162 6 121699546.25006  22750448.615 6 121699550.26606
S31  36910980.881 8 193968533.84308  36910959.186 5 144846532.41515
S33  37043502.907 8 194664910.13708
S35  36961985.818 8 194236551.09808
> 2024 11 23 17 20 30.0000000  0 36
C11                                                                  26381882.384 6 137377345.87906  26381894.802 6 106228909.67506
C14                                                                  22780138.399 7 118622153.97707  22780140.419 8  91726185.01208  22780132.378 6  96390196.34506
C21  23824432.804 6 125198231.22606  23824436.491 5  93492194.23605  23824433.707 6 124060067.89906                                  23824429.958 6 100808948.48906  23824439.911 8  95931133.07208
C24  22650806.664 8 119030797.40608  22650806.999 5  88886639.84905  22650806.698 8 117948699.79008                                  22650804.941 6  95842976.33806  22650809.991 8  91205433.28108
C26  22016087.078 7 115695318.12307  22016089.382 5  86395864.02205  22016087.222 7 114643540.98007                                  22016086.607 6  93157265.97806  22016092.605 8  88649679.90508
C33  24725159.718 7 129931596.87307  24725190.156 5  97026960.14705  24725160.278 7 128750405.09107                                  24725173.889 5 104620312.34805  24725193.279 7  99558111.85407
C42  22006880.921 8 115646938.56808  22006893.611 6  86359775.93006  22006880.818 8 114595601.27108                                  22006888.688 6  93118344.87606  22006896.921 8  88612652.43008
C43  26414554.636 6 138809412.60206                                  26414555.350 6 137547504.22206                                                                  26414567.162 6 106360492.88706
E02  26251131.481 5 137950635.66805                                                                  26251141.422 7 105702469.65207
E07  23864907.447 7 125410934.16807  23864904.550 5 101794576.17305  23864912.222 6  93651039.45806  23864914.655 8  96094120.56808  23864913.266 8  94872578.58108
E08  25521938.016 6 134118683.11606                                  25521942.632 5 100153574.59805  25521944.656 7 102766286.23807
E13  26296313.646 6 138188045.17406                                  26296322.608 4 103192402.65304  26296324.807 7 105884385.23307  26296323.698 7 104538387.50707
E26  25046876.711 7 131622219.62807  25046875.688 4 106836202.83204  25046880.440 5  98289328.65605  25046882.645 8 100853407.80508  25046881.489 7  99571361.29307
E27  27400599.213 6 143991126.45806                                                                  27400613.462 7 110330925.42907
E29  26482044.336 6 139164079.58506                                                                  26482052.679 7 106632247.19007
E30  25496806.147 5 133986628.86505                                  25496813.418 4 100054982.44704  25496815.421 7 102665115.63807
E33  26824124.152 6 140961721.52306                                                                  26824132.896 7 108009664.92007
G02  23341849.791 7 122662236.37707  23341848.490 5  23341854.020 5  95580971.48205
G03  20151237.159 8 105895467.88308  20151236.820 8  20151242.680 8  82515970.26708  20151243.534 7  82515970.27007  20151239.754 6  79077794.40906
G04  21781339.085 7 114461712.11107  21781338.486 5  21781344.117 5  89190964.14705  21781344.967 7  89190965.15007  21781344.930 5  85474679.00705  21781339.228 7 114461713.11407
G07  25367909.994 5 133309264.80505  25367908.944 4  25367922.792 4 103877389.00304  25367925.123 5 103877410.09405
G09  23968663.981 6 125956184.06206  23968663.253 5  23968672.979 5  98147711.91905  23968673.843 5  98147717.93605
G16  22402050.920 5 117723588.76405  22402049.825 3  22402057.622 3  91732692.67303
G21  24194532.690 6 127143105.45406  24194531.269 3  24194541.659 3  99072569.77303
G26  21446898.070 6 112704208.05706  21446897.225 6  21446906.320 6  87821501.15906  21446906.645 7  87821498.15707  21446902.144 5  84162251.57105
G28  23675418.402 4                                                                  23675424.242 5  96946888.38705                                  23675417.292 4
G31  21031316.130 7 110520307.85807  21031315.513 7  21031320.102 7  86119727.75807  21031320.624 7  86119729.75907
R07  20154544.724 7 107888851.18107  20154544.615 7 107888852.18407  20154557.273 8  83913606.12008  20154557.131 8  83913608.12208
R08  22677472.364 6 121436832.88806  22677472.813 6 121436832.91606  22677488.129 6  94450937.93506  22677487.990 6  94450935.93706
R09  19446702.542 7 103844304.46807  19446702.598 7 103844308.47407  19446714.179 8  80767845.30008  19446714.207 8  80767844.30208  19446698.896 8  77972001.84408
R10  20969529.273 7 111779406.57507  20969529.322 7 111779406.58007
R22  22773143.559 7 121564571.06207  22773143.569 7 121564573.08707  22773159.083 7  94550275.68707  22773158.508 7  94550272.71107  22773143.942 6  91309441.32906
R23  22754686.929 6 121722220.80106  22754687.311 6 121722224.80606
S31  36910981.306 8 193968542.61008
S33  37043505.335 8 194664916.99408
S35  36961973.507 8 194236481.57608
> 2024 11 23 17 21  0.0000000  0 36
C11                                                                  26395722.412 6 137449418.84806  26395734.456 6 106284640.71506
C14                                                                  22770387.886 7 118571382.18907  22770390.065 8  91686925.07208  22770382.239 6  96348940.10406
C21  23834008.306 6 125248548.05706  23834011.702 5  93529768.36605  23834008.153 6 124109927.31606                                  23834005.170 5 100849463.25505  23834014.680 7  95969687.42907
C24  22636300.729 8 118954567.93008  22636300.926 5  88829715.28505  22636300.785 8 117873163.31808                                  22636298.948 6  95781596.79806  22636304.026 8  91147023.73308
C26  22018223.835 7 115706546.57807  22018226.248 5  86404248.92205  22018223.687 7 114654667.37207                                  22018223.443 6  93166307.07906  22018229.276 8  88658283.54308
C33  24711212.884 7 129858305.48307  24711243.253 5  96972229.57005  24711213.441 7 128677779.99707                                  24711227.016 5 104561298.50305  24711246.339 7  99501953.52207
C42  22003711.037 8 115630280.77508  22003723.793 6  86347336.64006  22003710.828 8 114579094.91308                                  22003718.680 6  93104932.09606  22003727.115 8  88599888.64108
C43  26426838.799 6 138873966.77106                                  26426840.016 6 137611471.53706                                                                  26426851.320 5 106409956.21705
E02  26254111.517 5 137966294.61205                                                                  26254121.672 7 105714468.04307
E07  23863734.739 7 125404771.14507  23863731.840 5 101789573.69505  23863739.185 5  93646437.18805  23863741.852 8  96089398.22508  23863740.476 8  94867916.27108
E08  25529513.595 6 134158494.28006                                  25529518.606 4 100183303.56204  25529520.461 7 102796790.77707
E13  26313079.439 7 138276149.09307                                  26313088.444 4 103258194.35504  26313090.560 7 105951893.23307  26313089.448 7 104605037.34507
E26  25053469.662 8 131656866.14108  25053468.503 4 106864324.96104  25053473.310 5  98315200.96205  25053475.679 8 100879955.05608  25053474.583 7  99597571.07607
E27  27383876.545 6 143903249.73106                                                                  27383891.083 7 110263591.37907
E29  26473012.807 7 139116617.29907                                                                  26473021.152 7 106595879.94307
E30  25486095.569 5 133930341.19505                                  25486102.256 4 100012949.63204  25486104.514 7 102621986.23307
E33  26817190.345 6 140925283.95306                                                                  26817198.708 7 107981745.23807
G02  23355991.505 7 122736551.03507  23355990.213 5  23355995.942 5  95638878.86505
G03  20144896.118 8 105862145.77008  20144895.779 8  20144901.696 8  82490004.99108  20144902.440 7  82490004.99307  20144898.673 6  79052911.02106
G04  21772088.705 7 114413101.51007  21772088.102 5  21772093.555 5  89153085.80305  21772094.507 7  89153086.80707  21772094.852 5  85438378.94805  21772088.738 7 114413102.51307
G07  25351024.363 6 133220538.21606  25351023.393 3  25351037.762 3 103808251.50003  25351041.761 5 103808272.52905
G09  23954802.599 6 125883344.04306  23954801.880 5  23954812.282 5  98090953.46705  23954812.667 5  98090959.47405
G16  22385377.357 5 117635972.44805  22385376.280 3  22385384.278 3  91664420.40603
G21  24209610.259 6 127222335.72606  24209608.820 3  24209618.579 3  99134307.37103
G26  21443462.960 6 112686158.91006  21443462.111 6  21443471.971 6  87807436.90906  21443472.172 7  87807433.90907  21443467.684 5  84148773.34205
G28  23693696.575 4                                                                  23693700.258 4  97021726.75604                                  23693695.666 4
G31  21044721.068 7 110590750.38307  21044720.451 7  21044724.358 7  86174617.95907  21044725.380 7  86174619.96207
R07  20148262.956 7 107855224.55007  20148262.768 7 107855225.55607  20148275.556 7  83887452.08407  20148275.757 7  83887454.07107
R08  22662326.396 6 121355725.24506  22662326.461 6 121355725.25606  22662341.714 7  94387854.27807  22662341.660 6  94387852.27306
R09  19444003.771 8 103829893.64708  19444004.524 7 103829897.65507  19444015.707 8  80756636.89908  19444015.606 8  80756635.89108  19443999.991 8  77961181.43108
R10  20948797.826 7 111668893.42207  20948797.221 7 111668893.43907
R22  22790039.419 7 121654759.21807  22790039.537 7 121654761.23507  22790054.282 7  94620421.90207  22790053.846 7  94620418.88907  22790039.366 6  91377183.19606
R23  22759055.671 6 121745585.23006  22759054.736 6 121745589.23406
S31  36910982.902 8 193968553.80008
S33  37043507.544 8 194664926.46708
S35  36961960.969 8 194236415.70408
> 2024 11 23 17 21 30.0000000  0 36
C11                                                                  26409542.602 6 137521381.02106  26409554.342 5 106340286.05005
C14                                                                  22760661.259 8 118520733.97808  22760663.764 8  91647760.68508  22760656.027 6  96307784.30906
C21  23843625.679 6 125299088.39906  23843629.714 5  93567509.40205  23843624.919 6 124160008.20806                                  23843622.752 5 100890157.94905  23843632.327 7  96008413.03707
C24  22621855.239 8 118878657.17708  22621855.878 5  88773028.75505  22621855.537 8 117797942.65508                                  22621853.440 6  95720473.88806  22621858.824 8  91088858.39308
C26  22020452.492 7 115718259.72107  22020455.608 5  86412995.74405  22020453.043 7 114666274.04207                                  22020452.217 6  93175738.44706  22020458.327 8  88667258.55508
C33  24697266.933 7 129785020.50107  24697297.415 4  96917503.77904  24697267.664 7 128605161.23807                                  24697281.527 5 104502289.81805  24697300.604 7  99445800.09207
C42  22000583.455 8 115613844.69608  22000596.060 6  86335062.94006  22000583.113 8 114562808.25608                                  22000590.814 6  93091697.83406  22000599.510 8  88587294.75408
C43  26439122.423 6 138938518.18606                                  26439125.282 6 137675436.10106                                                                  26439136.281 6 106459417.49306
E02  26257169.711 5 137982364.78805                                                                  26257179.795 7 105726781.53707
E07  23862573.196 7 125398666.77007  23862570.512 5 101784618.83905  23862577.956 5  93641878.71605  23862580.235 8  96084720.84308  23862578.891 8  94863298.34508
E08  25537094.520 6 134198332.25906                                  25537099.281 5 100213052.58705  25537101.867 7 102827315.89007
E13  26329857.939 6 138364320.47706                                  26329866.544 4 103324036.36804  26329869.148 7 106019452.93807  26329868.143 7 104671738.22307
E26  25060136.720 7 131691899.84007  25060135.362 4 106892761.33804  25060140.136 5  98341362.40805  25060142.440 8 100906798.99608  25060141.357 7  99624073.77207
E27  27367145.416 6 143815327.04906                                                                  27367159.680 7 110196222.12507
E29  26463984.871 7 139069175.59707                                                                  26463993.270 7 106559528.46907
E30  25475438.269 5 133874337.33905                                  25475444.510 4  99971128.57304  25475447.225 7 102579074.24107
E33  26810332.236 6 140889243.12606                                                                  26810340.260 6 107954129.53906
G02  23370164.135 7 122811028.45507  23370162.848 5  23370168.709 5  95696913.07505
G03  20138646.425 8 105829303.71208  20138646.081 8  20138651.924 8  82464413.78208  20138652.648 7  82464413.78507  20138649.091 6  79028386.11806
G04  21762857.669 7 114364591.75507  21762857.075 5  21762862.686 5  89115286.04105  21762863.328 7  89115287.03807  21762863.868 5  85402154.15505  21762857.500 7 114364592.76107
G07  25334169.423 6 133131943.86006  25334168.489 3  25334179.083 3 103739217.11803  25334180.966 5 103739238.12605
G09  23940945.012 6 125810519.94106  23940944.315 5  23940954.321 5  98034207.44705  23940954.475 5  98034213.46605
G16  22368759.971 5 117548648.04705  22368758.867 3  22368767.027 3  91596375.59503
G21  24224684.409 6 127301549.53606  24224682.983 3  24224692.602 3  99196032.15703
G26  21440139.618 6 112668696.06806  21440138.773 6  21440148.786 6  87793829.50906  21440149.142 7  87793826.52207  21440144.136 5  84135732.93805
G28  23711985.744 5                                                                  23711990.207 4  97096620.63404                                  23711986.972 5
G31  21058191.482 7 110661539.45307  21058190.861 7  21058195.255 7  86229778.18707  21058196.123 7  86229780.18907
R07  20142017.476 7 107821789.85807  20142016.863 7 107821790.87807  20142029.830 8  83861447.31108  20142029.621 8  83861449.32308
R08  22647169.142 6 121274561.23906  22647169.548 6 121274561.23906  22647184.336 6  94324726.76906  22647182.986 6  94324724.79106
R09  19441454.117 7 103816278.58907  19441454.121 7 103816282.59607  19441465.903 8  80746047.42708  19441465.799 8  80746046.43008  19441450.223 8  77950958.53708
R10  20928149.119 7 111558826.45307  20928148.811 7 111558826.46207
R22  22806988.087 7 121745230.84407  22806987.997 7 121745232.85607  22807002.751 7  94690788.54307  22807002.385 7  94690785.55607  22806988.074 6  91445137.98306
R23  22763550.866 6 121769636.03706  22763551.118 6 121769640.04006
S31  36910985.558 8 193968565.50208
S33  37043508.094 8 194664936.84708
S35  36961948.922 8 194236350.38408
> 2024 11 23 17 22  0.0000000  0 36
C11                                                                  26423340.454 6 137593228.73806  26423352.347 6 106395842.93606
C14                                                                  22750958.437 8 118470209.25808  22750960.951 8  91608691.78508  22750953.287 6  96266728.85406
C21  23853285.775 6 125349851.13106  23853289.591 5  93605416.49305  23853285.825 6 124210309.44506                                  23853282.870 5 100931031.72605  23853292.248 7  96047309.02107
C24  22607470.664 8 118803065.48708  22607471.177 5  88716580.43305  22607470.825 8 117723038.16008                                  22607468.959 6  95659607.88606  22607474.126 8  91030937.54308
C26  22022773.395 7 115730455.45307  22022776.186 5  86422102.94205  22022773.511 7 114678358.90207                                  22022773.450 6  93185558.37906  22022779.074 8  88676603.32308
C33  24683322.455 7 129711741.47307  24683353.056 5  96862782.42005  24683323.256 7 128532548.38007                                  24683336.941 5 104443285.91805  24683356.052 7  99389651.22107
C42  21997497.870 8 115597630.16908  21997510.816 6  86322954.67706  21997497.523 8 114546741.13008                                  21997505.560 6  93078641.97806  21997514.051 8  88574870.62908
C43  26451405.350 6 139003063.04106                                  26451407.667 6 137739394.21006                                                                  26451417.035 5 106508873.75505
E02  26260306.188 5 137998844.65805                                                                  26260315.793 7 105739408.91907
E07  23861422.407 7 125392619.56107  23861419.776 5 101779710.38405  23861426.723 5  93637362.92005  23861429.590 8  96080087.25608  23861428.128 8  94858723.66008
E08  25544680.352 6 134238195.97606                                  25544684.758 5 100242820.87605  25544687.631 7 102857860.70707
E13  26346648.645 6 138452555.80806                                  26346658.241 4 103389926.15704  26346659.825 7 106087061.63907  26346658.898 6 104738487.47806
E26  25066876.522 7 131727318.03607  25066875.748 4 106921509.84104  25066880.132 5  98367811.00605  25066882.339 8 100933937.55608  25066881.268 7  99650867.34807
E27  27350405.630 6 143727358.88106                                                                  27350419.920 7 110128818.01007
E29  26454960.680 7 139021752.77507                                                                  26454969.084 7 106523191.48007
E30  25464834.623 5 133818617.55905                                  25464841.809 4  99929519.76504  25464843.993 7 102536379.92407
E33  26803549.047 6 140853598.54406                                                                  26803557.292 6 107926817.45906
G02  23384367.272 7 122885664.33707  23384365.989 5  23384371.414 5  95755070.73805
G03  20132488.369 8 105796942.19408  20132488.025 8  20132493.681 8  82439197.01708  20132494.801 7  82439197.01507  20132490.767 6  79004220.04306
G04  21753645.409 7 114316181.51307  21753644.806 5  21753650.746 5  89077563.82305  21753650.836 7  89077564.82107  21753651.935 5  85366003.74005  21753645.530 7 114316182.51307
G07  25317335.328 6 133043481.39206  25317334.461 4  25317344.448 4 103670285.51704  25317344.666 4 103670306.48004
G09  23927089.473 6 125737710.27906  23927088.803 5  23927099.048 5  97977472.72405  23927099.625 5  97977478.74405
G16  22352199.433 5 117461617.55805  22352198.378 2  22352205.537 2  91528559.76402
G21  24239754.158 6 127380743.10906  24239752.737 3  24239762.963 3  99257741.14303
G26  21436927.933 6 112651819.36806  21436927.093 6  21436936.927 6  87780678.86306  21436937.144 7  87780675.86207  21436932.806 5  84123130.23205
G28  23730287.165 4                                                                  23730294.077 4  97171567.29304                                  23730286.976 5
G31  21071727.472 7 110732671.29307  21071726.842 7  21071731.085 7  86285205.50807  21071731.986 7  86285207.50007
R07  20135806.721 7 107788547.72507  20135807.076 7 107788548.73407  20135819.923 8  83835592.31608  20135819.966 8  83835594.31908
R08  22632000.502 6 121193340.30406  22632001.907 6 121193340.29106  22632017.491 7  94261555.04307  22632017.485 7  94261553.03807
R09  19439053.413 7 103803457.87007  19439053.749 7 103803461.87107  19439065.210 8  80736075.77108  19439064.951 8  80736074.76308  19439049.425 8  77941332.02308
R10  20907584.878 7 111449208.11507  20907584.642 7 111449208.12507
R22  22823988.744 7 121835980.08107  22823988.770 7 121835982.08707  22824003.203 7  94761371.15507  22824003.374 7  94761368.14307  22823988.904 6  91513301.27606
R23  22768174.762 6 121794369.70106  22768174.767 6 121794373.72306
S31  36910986.578 8 193968577.04508
S33  37043511.818 8 194664946.24808
S35  36961936.218 8 194236284.77008
> 2024 11 23 17 22 30.0000000  0 36
C11                                                                  26437113.991 6 137664962.60806  26437129.951 6 106451311.65806
C14                                                                  22741280.217 7 118419812.11007  22741282.919 8  91569721.52808  22741275.014 6  96225777.04306
C21  23862987.996 6 125400839.30806  23862992.469 5  93643491.94005  23862989.172 6 124260834.10406                                  23862985.784 5 100972087.04505  23862995.169 7  96086377.75407
C24  22593147.551 8 118727797.41008  22593147.905 5  88660373.84905  22593147.846 8 117648454.34308                                  22593145.956 6  95599002.47806  22593150.898 8  90973264.66008
C26  22025186.765 7 115743135.89207  22025188.954 5  86431572.09205  22025186.747 7 114690924.05807                                  22025186.233 6  93195768.58406  22025192.013 8  88686319.48708
C33  24669379.840 7 129638472.26707  24669410.910 5  96808068.35805  24669380.610 7 128459945.27107                                  24669394.436 5 104384289.93605  24669413.448 7  99333509.88607
C42  21994455.296 8 115581641.25708  21994468.189 6  86311014.89506  21994455.223 8 114530897.57108                                  21994462.978 6  93065767.78506  21994471.476 8  88562619.37308
C43  26463686.895 6 139067601.80506                                  26463687.882 6 137803346.24506                                                                  26463700.127 6 106558325.23806
E02  26263520.745 6 138015736.66906                                                                  26263530.331 7 105752352.13307
E07  23860283.036 7 125386632.29707  23860280.437 5 101774850.57905  23860287.462 5  93632891.90805  23860290.195 8  96075499.60808  23860288.795 8  94854194.32808
E08  25552271.688 6 134278088.49306                                  25552275.937 4 100272610.64704  25552279.214 7 102888427.60107
E13  26363451.841 7 138540855.82007                                  26363460.862 4 103455864.33004  26363462.745 7 106154719.89207  26363462.030 6 104805285.66306
E26  25073689.883 7 131763122.34707  25073688.693 4 106950571.73304  25073693.545 5  98394547.92305  25073695.708 8 100961371.97008  25073694.715 7  99677953.01307
E27  27333658.018 6 143639349.94906                                                                  27333672.197 7 110061382.65607
E29  26445940.399 7 138974351.29307                                                                  26445948.901 7 106486870.85707
E30  25454285.566 5 133763186.48505                                  25454293.833 4  99888126.50504  25454295.681 7 102493906.84807
E33  26796842.245 6 140818353.91906                                                                  26796850.598 6 107899811.85906
G02  23398599.882 7 122960458.65007  23398598.586 5  23398604.768 5  95813351.85705
G03  20126422.561 8 105765065.92208  20126422.217 8  20126428.073 8  82414358.37208  20126429.016 7  82414358.36807  20126424.827 6  78980416.33406
G04  21744452.937 7 114267873.73507  21744452.338 5  21744457.573 5  89039921.46705  21744458.209 7  89039922.47807  21744458.999 5  85329929.81205  21744452.650 7 114267874.74207
G07  25300526.297 6 132955154.77206  25300525.417 4  25300537.197 4 103601459.78304  25300537.615 5 103601480.78905
G09  23913237.569 6 125664917.91206  23913236.908 5  23913247.066 5  97920751.50605  23913247.674 5  97920757.48705
G16  22335695.676 5 117374887.38405  22335694.532 2  22335700.849 2  91460977.97902
G21  24254820.754 6 127459916.76306  24254819.328 3  24254829.299 3  99319434.63303
G26  21433828.516 6 112635532.72906  21433827.680 6  21433837.337 6  87767988.00306  21433838.123 7  87767984.99607  21433833.375 5  84110968.16905
G28  23748602.851 5                                                                  23748611.423 5  97246567.52305                                  23748602.518 5
G31  21085329.131 7 110804145.93007  21085328.519 7  21085332.473 7  86340899.94107  21085333.167 7  86340901.93507
R07  20129634.608 7 107755502.42207  20129633.912 7 107755503.42007  20129646.812 7  83809890.41307  20129646.612 7  83809892.41507
R08  22616823.272 6 121112066.16706  22616824.411 6 121112066.15306  22616839.530 6  94198341.88806  22616838.259 6  94198339.89906
R09  19436801.662 7 103791434.41107  19436801.948 7 103791438.42707  19436813.578 8  80726724.20108  19436813.466 8  80726723.20308  19436797.786 8  77932304.17808
R10  20887106.144 7 111340045.26007  20887105.751 7 111340045.25607
R22  22841039.911 7 121927005.34007  22841040.905 7 121927007.32707  22841055.033 6  94832168.42006  22841055.543 6  94832165.41706  22841041.005 6  91581671.87606
R23  22772926.003 6 121819787.17106  22772926.255 6 121819791.18506
S31  36910994.108 8 193968590.96308
S33  37043509.820 8 194664958.05908
S35  36961923.997 8 194236220.68908
> 2024 11 23 17 23  0.0000000  0 36
C11                                                                  26450867.407 5 137736579.10305  26450880.694 6 106506689.73706
C14                                                                  22731626.411 8 118369542.60508  22731629.066 8  91530849.98308  22731621.015 6  96184928.98606
C21  23872733.494 6 125452051.96506  23872737.953 5  93681735.03005  23872734.042 6 124311581.18406                                  23872731.100 5 101013323.11505  23872740.601 7  96125618.48607
C24  22578886.216 8 118652853.45008  22578886.572 5  88604409.27205  22578886.466 8 117574191.69308                                  22578884.672 6  95538658.04106  22578889.600 8  90915840.13208
C26  22027691.581 7 115756299.04007  22027693.973 5  86441401.72105  22027692.061 7 114703967.53607                                  22027690.888 6  93206367.46806  22027696.916 8  88696405.51508
C33  24655439.282 7 129565212.62007  24655469.544 5  96753361.51905  24655439.501 7 128387351.61307                                  24655453.058 5 104325301.63705  24655472.443 7  99277375.87807
C42  21991455.649 8 115565877.96308  21991468.456 6  86299243.59706  21991455.407 8 114515277.58308                                  21991463.330 6  93053075.24706  21991471.904 8  88550541.00508
C43  26475966.060 6 139132130.89506                                  26475965.207 6 137867288.72706                                                                  26475980.126 6 106607769.44406
E02  26266813.018 5 138033039.39505                                                                  26266822.844 7 105765610.01807
E07  23859154.955 7 125380703.68207  23859152.277 5 101770038.39105  23859159.419 5  93628464.69005  23859161.944 8  96070956.90208  23859160.636 8  94849709.36808
E08  25559868.370 6 134318008.83406                                  25559873.387 4 100302421.14504  25559875.953 7 102919015.82107
E13  26380266.590 7 138629217.20707                                  26380275.566 4 103521848.21304  26380277.438 7 106222425.18607  26380276.865 6 104872130.28006
E26  25080576.353 7 131799310.25407  25080574.728 4 106979945.03304  25080580.006 5  98421571.30405  25080582.071 8 100989100.30608  25080581.081 7  99705328.87007
E27  27316902.578 6 143551300.86306                                                                  27316916.855 7 109993916.52507
E29  26436924.087 7 138926969.62507                                                                  26436932.199 7 106450565.43207
E30  25443793.488 5 133708044.62805                                  25443799.860 4  99846949.28004  25443802.236 7 102451655.37907
E33  26790211.585 6 140783508.93006                                                                  26790219.977 7 107873112.45507
G02  23412862.626 7 123035407.36407  23412861.325 5  23412867.370 5  95871753.27105
G03  20120449.288 8 105733675.50308  20120448.944 8  20120454.982 8  82389898.30608  20120455.572 7  82389898.30607  20120451.576 6  78956975.45006
G04  21735279.577 7 114219667.24507  21735278.974 5  21735284.325 5  89002358.04205  21735284.692 7  89002359.04707  21735285.458 5  85293931.54505  21735279.348 7 114219668.24607
G07  25283743.779 6 132866964.18506  25283742.890 4  25283754.804 4 103532740.10204  25283754.645 4 103532761.13704
G09  23899388.325 6 125592141.61406  23899387.673 5  23899397.869 5  97864042.84005  23899398.174 5  97864048.85805
G16  22319248.654 5 117288460.02605  22319247.478 3  22319254.226 3  91393632.12403
G21  24269882.952 6 127539066.95206  24269881.526 3  24269891.267 3  99381109.83703
G26  21430841.750 6 112619836.11406  21430840.932 6  21430850.441 6  87755756.90106  21430851.007 7  87755753.90307  21430846.174 5  84099246.70905
G28  23766932.027 4                                                                  23766938.631 4  97321618.87504                                  23766932.133 4
G31  21098994.891 7 110875959.38507  21098994.274 7  21098998.221 7  86396858.39307  21098999.347 7  86396860.37907
R07  20123497.172 7 107722655.05307  20123497.970 7 107722656.03907  20123510.632 7  83784342.46007  20123510.674 7  83784344.45907
R08  22601635.959 6 121030738.45806  22601636.585 6 121030738.47306  22601652.062 6  94135087.13206  22601652.224 6  94135085.12206
R09  19434699.659 7 103780207.72507  19434699.825 7 103780211.73007  19434710.958 8  80717992.32708  19434711.031 8  80717991.32308  19434695.379 8  77923874.54508
R10  20866712.982 7 111231340.65707  20866713.104 7 111231340.65007
R22  22858143.574 7 122018300.81007  22858143.430 7 122018302.80707  22858158.297 7  94903175.86607  22858158.135 6  94903172.86406  22858142.999 6  91650245.47306
R23  22777805.693 6 121845884.71306  22777805.033 6 121845888.72206
S31  36910996.532 8 193968604.79008
S33  37043513.057 8 194664971.59608
S35  36961912.210 8 194236158.35108
> 2024 11 23 17 23 30.0000000  0 36
C11                                                                  26464598.751 5 137808073.74705  26464612.383 6 106561973.54406
C14                                                                  22721996.664 7 118319399.74207  22721999.480 8  91492076.37008  22721991.770 6  96144183.82506
C21  23882521.680 6 125503486.97206  23882526.228 5  93720144.15305  23882522.631 6 124362548.58406                                  23882518.325 5 101054738.21105  23882528.359 7  96165029.60307
C24  22564686.297 8 118578232.90108  22564686.670 5  88548686.20105  22564686.662 8 117500249.51208                                  22564684.529 6  95478574.02206  22564689.648 8  90858663.41708
C26  22030287.516 7 115769941.75507  22030289.966 5  86451589.40205  22030287.811 7 114717486.23407                                  22030287.115 6  93217352.50106  22030293.198 8  88706859.01008
C33  24641499.893 7 129491961.16507  24641530.495 5  96698660.77705  24641500.404 7 128314766.07607                                  24641513.979 5 104266319.95905  24641533.057 7  99221248.16207
C42  21988498.691 8 115550339.15108  21988511.705 6  86287639.94206  21988498.351 8 114499880.03408                                  21988506.295 6  93040563.48206  21988514.898 8  88538634.64208
C43  26488242.977 6 139196645.50406                                  26488243.034 6 137931216.90206                                                                  26488256.330 5 106657202.44705
E02  26270183.632 6 138050750.12706                                                                  26270193.520 7 105779180.51207
E07  23858037.485 7 125374831.28807  23858034.810 5 101765271.82505  23858041.926 5  93624079.47105  23858044.538 8  96066457.27008  23858043.213 8  94845266.93308
E08  25567469.933 6 134357954.87206                                  25567475.108 5 100332250.92305  25567477.235 7 102949623.76707
E13  26397092.042 7 138717635.41107                                  26397100.909 4 103587874.66204  26397103.069 7 106290174.00607  26397102.413 6 104939017.88106
E26  25087534.758 7 131835878.07807  25087533.171 4 107009626.62804  25087538.427 5  98448878.36705  25087540.700 7 101017119.74507  25087539.681 7  99732992.12607
E27  27300139.645 6 143463211.08606                                                                  27300153.938 7 109926419.23407
E29  26427910.781 7 138879605.08307                                                                  26427919.027 7 106414273.14107
E30  25433355.006 5 133653191.46405                                  25433362.292 4  99805987.49904  25433363.968 7 102409625.06207
E33  26783656.599 6 140749062.04806                                                                  26783664.991 6 107846718.08706
G02  23427153.147 7 123110505.42107  23427151.846 5  23427158.412 5  95930271.05405
G03  20114568.256 8 105702770.42108  20114567.912 8  20114573.788 8  82365816.42608  20114574.285 7  82365816.42907  20114570.486 6  78933896.98806
G04  21726124.556 7 114171559.66207  21726123.948 5  21726130.042 5  88964871.67505  21726130.099 7  88964872.68107  21726131.084 5  85258007.12405  21726124.666 7 114171560.67607
G07  25266986.620 5 132778908.26005  25266985.780 3  25266997.533 3 103464125.41603  25266998.451 4 103464146.43204
G09  23885541.865 6 125519378.83806  23885541.208 5  23885551.110 5  97807344.69305  23885552.245 5  97807350.71905
G16  22302859.081 6 117202336.35906  22302857.874 3  22302865.448 3  91326522.92403
G21  24284939.703 7 127618188.74707  24284938.286 4  24284948.163 4  99442762.90604
G26  21427967.324 6 112604728.18606  21427966.502 6  21427975.720 6  87743984.52306  21427975.838 7  87743981.51107  21427971.309 5  84087964.84005
G28  23785270.263 4                                                                  23785280.270 5  97396717.80805                                  23785270.807 4
G31  21112724.001 7 110948106.90207  21112723.384 7  21112727.596 7  86453077.15507  21112728.504 7  86453079.15407
R07  20117397.621 7 107690005.07507  20117398.489 7 107690006.08407  20117411.366 7  83758948.03907  20117411.337 7  83758950.04707
R08  22586439.410 6 120949355.47406  22586439.382 6 120949355.50306  22586454.367 6  94071789.32806  22586454.198 6  94071787.32306
R09  19432746.009 7 103769775.12907  19432746.222 7 103769779.13707  19432757.302 8  80709878.08808  19432757.243 8  80709877.08808  19432741.832 8  77916041.17808
R10  20846406.862 7 111123096.20907  20846406.661 7 111123096.20607
R22  22875295.192 7 122109859.52807  22875295.256 7 122109861.52007  22875310.712 7  94974388.06007  22875310.900 7  94974385.03207  22875295.438 6  91719016.78506
R23  22782810.822 6 121872657.68006  22782809.887 6 121872661.67106
S31  36910995.136 8 193968617.80308
S33  37043517.873 8 194664982.16008
S35  36961899.703 8 194236094.53008
> 2024 11 23 17 24  0.0000000  0 36
C11                                                                  26478305.927 5 137879442.11905  26478318.790 6 106617159.76306
C14                                                                  22712391.461 7 118269382.57907  22712394.304 8  91453399.95208  22712386.384 6  96103540.79406
C21  23892351.074 6 125555142.35306  23892355.931 5  93758717.81605  23892351.821 6 124413734.39006                                  23892348.479 5 101096330.72405  23892358.462 7  96204609.56307
C24  22550547.748 8 118503935.25708  22550548.256 5  88493204.27305  22550548.355 8 117426627.31308                                  22550545.932 6  95418750.00506  22550551.246 8  90801734.12808
C26  22032974.212 7 115784061.04907  22032977.188 5  86462133.02205  22032974.074 7 114731477.17407                                  22032974.183 6  93228721.25706  22032979.965 8  88717677.65708
C33  24627561.709 7 129418716.65607  24627592.662 5  96643965.24905  24627562.198 7 128242187.42607                                  24627575.808 5 104207343.88605  24627595.073 7  99165125.76207
C42  21985584.196 8 115535023.84808  21985597.108 6  86276203.20606  21985583.844 8 114484703.95808                                  21985591.991 6  93028231.67906  21985600.419 8  88526899.54208
C43  26500517.095 6 139261141.17606                                  26500517.395 6 137995126.17406                                                                  26500530.951 6 106706620.96506
E02  26273631.111 5 138068866.32705                                                                  26273640.669 7 105793061.66407
E07  23856930.299 7 125369012.82207  23856927.353 5 101760549.04205  23856934.763 5  93619734.50005  23856937.378 8  96061998.97008  23856936.021 8  94840865.30708
E08  25575076.204 6 134397924.73706                                  25575082.053 5 100362098.37505  25575083.429 7 102980249.92607
E13  26413927.739 7 138806106.16407                                  26413937.146 4 103653940.22304  26413938.701 7 106357963.08707  26413938.131 6 105005945.21806
E26  25094565.016 7 131872822.28407  25094564.098 4 107039613.74404  25094568.679 5  98476466.51605  25094571.242 7 101045427.58907  25094570.056 7  99760940.11907
E27  27283368.864 6 143375080.27506                                                                  27283383.195 7 109858890.48907
E29  26418900.201 7 138832255.06807                                                                  26418908.677 7 106377992.00607
E30  25422972.093 5 133598626.38605                                  25422978.577 4  99765240.92004  25422980.716 7 102367815.51307
E33  26777176.888 6 140715011.85406                                                                  26777185.685 6 107820627.72406
G02  23441471.319 7 123185747.51407  23441470.027 5  23441476.485 5  95988901.07305
G03  20108779.463 8 105672350.27308  20108779.115 8  20108784.843 8  82342112.40708  20108785.673 7  82342112.40807  20108781.609 6  78911180.61606
G04  21716988.433 7 114123548.95507  21716987.816 5  21716993.744 5  88927460.79505  21716994.021 7  88927461.80607  21716994.554 5  85222155.08005  21716988.390 7 114123549.95807
G07  25250255.389 6 132690985.76506  25250254.544 4  25250266.890 4 103395614.76704  25250266.463 5 103395635.76605
G09  23871697.477 6 125446627.40206  23871696.820 5  23871706.926 5  97750655.38105  23871708.299 6  97750661.40506
G16  22286528.449 6 117116517.60706  22286527.251 3  22286533.607 3  91259651.30703
G21  24299989.789 7 127697277.53707  24299988.372 4  24299998.934 4  99504390.27704
G26  21425203.745 6 112590207.81606  21425202.932 6  21425212.422 6  87732669.97206  21425213.116 7  87732666.98307  21425208.418 5  84077121.73305
G28  23803623.528 4                                                                  23803631.489 5  97471860.98205                                  23803623.907 4
G31  21126515.897 7 111020583.53007  21126515.285 7  21126519.578 7  86509552.37207  21126520.263 7  86509554.37507
R07  20111335.233 7 107657552.02507  20111335.796 7 107657553.02007  20111348.986 8  83733706.76308  20111348.592 8  83733708.77208
R08  22571230.572 6 120867915.94706  22571230.692 6 120867915.94806  22571246.003 6  94008447.53106  22571245.389 6  94008445.53006
R09  19430940.477 7 103760135.07007  19430940.608 7 103760139.07607  19430952.126 8  80702380.25508  19430951.880 8  80702379.25808  19430936.458 8  77908802.88808
R10  20826187.085 7 111015313.67407  20826186.413 7 111015313.66907
R22  22892495.504 7 122201674.87107  22892495.933 7 122201676.87507  22892510.719 7  95045799.82707  22892510.933 7  95045796.83007  22892496.386 6  91787980.85706
R23  22787940.986 6 121900101.29206  22787940.515 6 121900105.28106
S31  36911001.732 8 193968627.11108
S33  37043516.210 8 194664990.03808
S35  36961888.233 8 194236027.20908
> 2024 11 23 17 24 30.0000000  0 36
C11                                                                  26491989.879 5 137950689.03205  26491999.877 6 106672252.05006
C14                                                                  22702811.945 7 118219499.45007  22702814.485 8  91414827.17108  22702807.005 6  96063006.67406
C21  23902224.546 6 125607025.41806  23902228.831 5  93797461.49305  23902224.725 6 124465145.75506                                  23902222.222 5 101138106.61005  23902231.283 7  96244363.98607
C24  22536472.599 8 118429969.32908  22536472.536 5  88437970.07505  22536472.575 8 117353333.80408                                  22536470.778 6  95359193.08806  22536475.941 8  90745059.01008
C26  22035752.992 7 115798663.21207  22035755.884 5  86473037.16805  22035752.705 7 114745946.58407                                  22035752.936 6  93240478.80306  22035758.782 8  88728866.28808
C33  24613626.787 7 129345487.20607  24613657.305 5  96589280.94505  24613626.910 7 128169623.70707                                  24613640.739 5 104148379.93205  24613659.918 7  99109014.93107
C42  21982713.811 8 115519940.36008  21982726.901 6  86264939.56306  21982713.707 8 114469757.59508                                  21982721.724 6  93016086.55306  21982730.106 8  88515342.08108
C43  26512787.795 6 139325622.55406                                  26512788.207 6 138059021.31106                                                                  26512800.799 6 106756028.49306
E02  26277156.860 6 138087394.75106                                                                  26277166.353 7 105807258.69507
E07  23855834.615 7 125363255.34907  23855831.964 5 101755875.77705  23855839.162 5  93615435.10205  23855841.927 8  96057587.40708  23855840.340 8  94836509.82408
E08  25582687.585 6 134437925.67306                                  25582693.415 5 100391969.16105  25582695.502 7 103010899.92107
E13  26430774.095 7 138894634.46207                                  26430783.209 4 103720048.78104  26430785.588 7 106425796.25507  26430784.602 7 105072916.09207
E26  25101668.089 8 131910148.64708  25101667.956 4 107069911.10904  25101671.560 5  98504340.05805  25101674.294 8 101074028.25008  25101673.000 7  99789177.21607
E27  27266592.013 6 143286917.38506                                                                  27266606.125 7 109791337.17207
E29  26409893.997 7 138784926.39607                                                                  26409902.393 7 106341727.24807
E30  25412645.166 5 133544358.23805                                  25412651.733 4  99724716.06604  25412654.001 7 102326233.47807
E33  26770774.162 6 140681366.36006                                                                  26770782.950 6 107794847.40306
G02  23455818.094 7 123261138.17007  23455816.798 4  23455822.720 4  96047646.86704
G03  20103084.610 8 105642423.95208  20103084.266 8  20103090.035 8  82318793.19008  20103090.817 7  82318793.19907  20103087.051 6  78888833.04406
G04  21707872.027 7 114075642.24607  21707871.401 5  21707876.785 5  88890130.96205  21707877.445 7  88890131.96707  21707878.413 5  85186380.66505  21707872.001 7 114075643.25607
G07  25233550.793 6 132603204.80806  25233549.962 4  25233562.939 4 103327214.37904  25233564.592 5 103327235.41105
G09  23857857.591 6 125373894.41906  23857856.925 5  23857866.481 5  97693980.42205  23857866.881 6  97693986.45106
G16  22270257.818 6 117031014.26106  22270256.647 3  22270263.147 3  91193025.46403
G21  24315034.949 6 127776337.93606  24315033.563 4  24315043.784 4  99565995.49604
G26  21422553.334 6 112576283.14806  21422552.507 6  21422563.152 6  87721819.62706  21422563.172 7  87721816.63407  21422558.705 5  84066723.49005
G28  23821983.035 3                                                                  23821994.179 4  97547052.59704                                  23821982.810 4
G31  21140371.443 7 111093393.61207  21140370.835 7  21140374.994 7  86566287.42807  21140375.681 7  86566289.42507
R07  20105311.965 7 107625304.77907  20105312.203 7 107625305.78507  20105324.602 8  83708625.57408  20105324.378 8  83708627.58208
R08  22556013.488 6 120786427.79806  22556013.116 6 120786427.81406  22556028.266 6  93945067.93506  22556028.417 7  93945065.93807
R09  19429284.931 7 103751294.49907  19429285.271 7 103751298.51307  19429296.727 8  80695504.25908  19429296.554 8  80695503.26008  19429280.692 8  77902164.90608
R10  20806055.311 7 110908004.04507  20806055.540 7 110908004.05507
R22  22909744.189 7 122293749.40107  22909744.354 7 122293751.40607  22909759.855 7  95117413.19507  22909759.521 7  95117410.19807  22909744.581 6  91857139.59506
R23  22793197.383 6 121928220.68206  22793197.614 6 121928224.70106
S31  36911004.299 8 193968639.45508
S33  37043517.578 8 194665001.15808
S35  36961876.173 8 194235963.18108
> 2024 11 23 17 25  0.0000000  0 36
C11                                                                  26505647.423 6 138021810.84506  26505658.418 6 106727247.54906
C14                                                                  22693258.310 7 118169750.01507  22693260.798 8  91376357.77308  22693253.272 6  96022581.20706
C21  23912141.032 6 125659134.71406  23912145.048 5  93836374.12905  23912141.252 6 124516781.33106                                  23912138.236 5 101180064.64005  23912147.610 7  96284291.73907
C24  22522460.324 8 118356335.07608  22522460.559 5  88382983.55705  22522460.774 8 117280368.95008                                  22522458.754 6  95299903.24206  22522463.572 8  90688638.05108
C26  22038623.309 7 115813745.71707  22038625.657 5  86484300.02905  22038623.372 8 114760891.96608                                  22038622.724 6  93252623.10906  22038628.792 8  88740422.96408
C33  24599694.117 6 129272272.19906  24599724.846 4  96534607.44404  24599694.628 7 128097074.31407                                  24599708.896 5 104089427.62605  24599727.542 7  99052915.15007
C42  21979887.491 8 115505088.25808  21979900.694 6  86253848.71706  21979887.607 8 114455040.51608                                  21979895.573 6  93004127.71606  21979903.855 8  88503961.90708
C43  26525054.199 5 139390085.68205                                  26525055.114 6 138122898.38506                                                                  26525066.930 5 106805422.09105
E02  26280760.773 6 138106333.44406                                                                  26280770.589 7 105821770.07707
E07  23854750.338 7 125357557.12507  23854747.556 5 101751250.62905  23854754.773 5  93611179.94005  23854757.450 8  96053221.24508  23854756.061 8  94832199.16008
E08  25590305.727 6 134477956.41306                                  25590311.276 5 100421862.09905  25590313.206 7 103041572.68807
E13  26447631.168 7 138983216.50607                                  26447639.767 4 103786197.48404  26447642.473 7 106493670.60007  26447641.546 7 105139927.61007
E26  25108843.286 8 131947854.15708  25108842.367 4 107100516.19104  25108846.693 5  98532496.66305  25108849.363 8 101102919.41808  25108848.072 7  99817701.12007
E27  27249808.737 6 143198722.57706                                                                  27249823.359 7 109723759.44207
E29  26400891.612 7 138737617.00207                                                                  26400899.545 7 106305477.29307
E30  25402374.898 6 133490387.15006                                  25402380.524 4  99684412.94704  25402383.064 7 102284879.01707
E33  26764449.117 6 140648124.68406                                                                  26764456.754 6 107769376.53706
G02  23470192.149 7 123336672.61107  23470190.857 5  23470196.429 5  96106504.70405
G03  20097483.805 8 105612991.60408  20097483.461 8  20097489.221 8  82295858.88908  20097490.100 7  82295858.89307  20097486.312 6  78866854.32506
G04  21698774.994 7 114027838.01307  21698774.377 5  21698779.694 5  88852880.98005  21698780.403 6  88852881.99906  21698781.394 5  85150682.75105  21698775.153 7 114027839.01507
G07  25216875.082 6 132515564.86006  25216874.327 4  25216883.782 4 103258923.85004  25216885.547 5 103258944.87205
G09  23844019.680 6 125301178.19506  23844019.028 5  23844029.076 5  97637318.49605  23844029.831 5  97637324.49205
G16  22254047.706 6 116945828.14006  22254046.481 3  22254053.207 3  91126646.74803
G21  24330073.988 6 127855365.89306  24330072.607 4  24330082.517 4  99627575.42004
G26  21420017.290 6 112562953.43206  21420016.472 6  21420026.217 6  87711432.87106  21420026.722 7  87711429.93707  21420021.951 5  84056769.57905
G28  23840360.380 4                                                                  23840369.021 4  97622289.79604                                  23840361.170 4
G31  21154289.398 7 111166532.79107  21154288.781 7  21154293.206 7  86623278.92607  21154293.653 7  86623280.93507
R07  20099326.281 8 107593263.92508  20099326.685 8 107593264.93108  20099338.995 8  83683704.90108  20099338.982 8  83683706.90208
R08  22540787.341 6 120704890.30706  22540787.496 6 120704890.30106  22540801.412 6  93881649.95306  22540801.890 6  93881647.94606
R09  19427778.589 8 103743252.19608  19427779.126 8 103743256.20008  19427790.636 8  80689249.08208  19427790.625 8  80689248.08408  19427774.760 8  77896126.24308
R10  20786014.131 7 110801169.23507  20786013.812 7 110801169.23107
R22  22927040.276 7 122386076.90807  22927039.696 7 122386078.93507  22927055.930 7  95189223.30207  22927055.150 7  95189220.30607  22927040.708 6  91926488.38406
R23  22798579.673 6 121957011.68606  22798579.771 6 121957015.69306
S31  36911010.948 8 193968653.83608
S33  37043518.808 8 194665013.72408
S35  36961862.168 8 194235901.43508
> 2024 11 23 17 25 30.0000000  0 37
C11                                                                  26519280.242 6 138092803.64506  26519293.000 6 106782143.34006
C14                                                                  22683729.879 7 118120134.09507  22683732.391 8  91337991.61308  22683724.626 6  95982264.22006
C21  23922100.181 6 125711468.99006  23922104.315 5  93875454.73405  23922100.872 6 124568639.81406                                  23922097.002 5 101222203.80205  23922106.806 7  96324391.87907
C24  22508511.248 8 118283032.66908  22508511.925 5  88328244.83405  22508511.552 8 117207732.93108                                  22508509.423 6  95240880.58106  22508514.677 8  90632471.34108
C25  26836451.279 5 141026505.98715                                  26836451.561 5 139744447.38815
C26  22041584.328 7 115829306.23007  22041586.684 5  86495919.90305  22041584.050 7 114776311.04107                                  22041583.759 6  93265152.34306  22041589.955 8  88752345.94008
C33  24585764.600 7 129199071.03307  24585794.716 5  96479944.28505  24585764.809 7 128024538.59107                                  24585778.862 5 104030486.48305  24585797.654 7  98996826.00707
C42  21977105.344 7 115490467.23407  21977118.294 6  86242930.43406  21977105.255 8 114440552.40308                                  21977113.101 6  92992354.95706  21977121.594 8  88492758.79508
C43  26537315.947 5 139454526.56305                                  26537317.764 6 138186753.42506                                                                  26537330.313 6 106854798.57006
E02  26284441.833 5 138125680.43205                                                                  26284451.914 7 105836594.34107
E07  23853676.976 7 125351916.59907  23853673.887 5 101746672.26505  23853681.418 5  93606967.86705  23853684.067 8  96048899.27408  23853682.621 8  94827932.13708
E08  25597928.119 6 134518015.52606                                  25597933.846 4 100451776.30604  25597936.311 7 103072267.27407
E13  26464497.250 6 139071848.63106                                  26464506.942 4 103852383.57204  26464508.684 7 106561583.32607  26464507.826 7 105206977.02707
E26  25116090.191 7 131985935.96807  25116089.595 4 107131426.69804  25116093.920 5  98560934.35205  25116096.137 7 101132098.93907  25116094.882 7  99846509.71307
E27  27233019.904 6 143110496.22206                                                                  27233033.851 6 109656157.49206
E29  26391891.852 7 138690325.08407                                                                  26391900.173 7 106269240.69607
E30  25392161.145 6 133436713.22206                                  25392167.593 4  99644331.85504  25392169.297 7 102243752.30507
E33  26758199.653 6 140615286.14806                                                                  26758207.794 6 107744214.52206
G02  23484592.096 7 123412346.72807  23484590.822 4  23484597.039 4  96165471.36104
G03  20091977.303 8 105584053.47808  20091976.955 8  20091982.530 8  82273309.70408  20091983.303 7  82273309.70707  20091979.419 6  78845244.70106
G04  21689697.683 7 113980134.81007  21689697.057 5  21689702.573 5  88815709.70605  21689702.919 7  88815710.71007  21689703.594 5  85115060.29705  21689697.399 7 113980135.81107
G07  25200222.375 6 132428065.48406  25200221.597 4  25200233.208 4 103190742.89404  25200234.441 5 103190763.94805
G09  23830185.730 6 125228477.17406  23830185.060 5  23830194.216 5  97580668.38705  23830195.145 6  97580674.40606
G16  22237897.588 6 116860961.24806  22237896.381 3  22237902.954 3  91060516.82903
G21  24345105.575 6 127934357.52306  24345104.189 3  24345113.961 3  99689127.08303
G26  21417594.258 6 112550218.31706  21417593.440 6  21417602.910 6  87701509.43906  21417603.301 7  87701506.45407  21417598.942 5  84047259.59005
G28  23858746.391 4                                                                  23858752.513 4  97697569.74604                                  23858744.771 4
G31  21168269.073 7 111239997.20707  21168268.452 7  21168272.853 7  86680523.82607  21168273.631 7  86680525.83207
R07  20093378.663 7 107561428.86007  20093379.298 7 107561429.85407  20093392.444 8  83658944.33908  20093392.975 8  83658946.33408
R08  22525551.695 6 120623302.66706  22525551.167 6 120623302.67806  22525566.107 7  93818192.96507  22525566.009 7  93818190.96507
R09  19426421.443 7 103736006.25607  19426421.922 7 103736010.25807  19426433.798 8  80683613.38708  19426433.650 8  80683612.38208  19426417.918 8  77890685.62308
R10  20766061.616 7 110694812.32207  20766061.401 7 110694812.32207
R22  22944383.786 7 122478651.57307  22944383.260 7 122478653.58507  22944397.862 6  95261225.64806  22944397.391 6  95261222.64006  22944383.802 6  91996022.75506
R23  22804086.589 6 121986470.71706  22804087.133 6 121986474.74006
S31  36911005.613 8 193968668.39008
S33  37043524.902 8 194665026.96208  37043504.227 5 145366666.94615
S35  36961852.013 8 194235840.20908
> 2024 11 23 17 26  0.0000000  0 37
C11                                                                  26532886.143 6 138163663.74906  26532899.622 6 106836936.50406
C14                                                                  22674227.176 7 118070651.40507  22674229.702 8  91299728.47408  22674222.164 6  95942055.49806
C21  23932101.153 6 125764026.70706  23932105.579 5  93914702.28405  23932101.319 6 124620719.75706                                  23932098.400 5 101264522.92305  23932108.429 7  96364663.25307
C24  22494625.479 8 118210062.07908  22494625.727 5  88273753.88605  22494625.600 8 117135425.71908                                  22494623.443 6  95182125.11506  22494628.824 8  90576558.89608
C25  26817224.130 4 140925474.33104                                  26817224.728 4 139644334.28304
C26  22044635.692 7 115845342.27907  22044638.412 5  86507894.82905  22044635.520 7 114792201.29507                                  22044635.563 6  93278064.46506  22044641.398 8  88764633.26708
C33  24571837.283 7 129125883.17607  24571867.370 5  96425291.05705  24571837.696 7 127952016.07107                                  24571851.676 5 103971556.05505  24571870.270 7  98940747.05507
C42  21974367.006 8 115476076.88308  21974380.103 6  86232184.41906  21974366.819 8 114426292.88608                                  21974374.764 6  92980767.93806  21974383.042 8  88481732.43908
C43  26549575.185 6 139518941.29006                                  26549576.174 6 138250582.58706                                                                  26549588.456 6 106904155.02006
E02  26288200.566 5 138145433.81705                                                                  26288211.036 7 105851729.94907
E07  23852614.251 7 125346332.06707  23852611.650 5 101742139.34105  23852618.697 5  93602797.58605  23852621.308 8  96044620.21508  23852619.922 8  94823707.47108
E08  25605556.515 6 134558101.80906                                  25605561.825 4 100481710.83804  25605564.994 7 103102982.64707
E13  26481372.184 6 139160527.15606                                  26481382.096 4 103918604.26904  26481384.176 7 106629531.59707  26481382.938 7 105274061.53207
E26  25123407.864 7 132024391.07207  25123407.267 4 107162640.21104  25123411.136 5  98589650.73805  25123414.185 7 101161564.47707  25123412.634 7  99875600.68107
E27  27216225.155 6 143022238.56106                                                                  27216238.841 6 109588531.61106
E29  26382895.505 7 138643048.61907                                                                  26382903.421 7 106233015.97807
E30  25382003.574 6 133383336.53806                                  25382010.447 4  99604472.66004  25382012.194 7 102202853.33507
E33  26752027.172 6 140582849.90206                                                                  26752035.619 6 107719360.76406
G02  23499018.327 7 123488155.89707  23499017.053 5  23499023.473 5  96224543.26305
G03  20086564.497 8 105555609.70408  20086564.149 8  20086569.778 8  82251145.73108  20086570.659 7  82251145.73507  20086566.629 6  78824004.22206
G04  21680638.775 7 113932531.06607  21680638.149 5  21680643.960 5  88778615.93305  21680644.223 7  88778616.93707  21680644.821 5  85079512.13205  21680638.680 7 113932532.07107
G07  25183598.374 6 132340706.37906  25183597.605 4  25183609.383 4 103122671.18804  25183611.453 5 103122692.19605
G09  23816353.261 6 125155789.77206  23816352.559 5  23816362.271 5  97524028.86105  23816363.145 6  97524034.86306
G16  22221809.106 6 116776415.31706  22221807.939 3  22221814.418 3  90994637.00003
G21  24360129.281 6 128013308.82306  24360127.864 3  24360137.862 3  99750647.29203
G26  21415283.750 6 112538076.98306  21415282.932 6  21415292.629 6  87692048.68006  21415292.899 7  87692045.67107  21415288.036 5  84038192.99805
G28  23877136.623 3                                                                  23877145.575 4  97772889.74404                                  23877136.107 3
G31  21182309.551 7 111313782.27707  21182308.939 7  21182313.810 7  86738018.60407  21182314.551 7  86738020.60507
R07  20087470.658 7 107529800.60607  20087470.912 7 107529801.61307  20087483.758 8  83634344.59908  20087483.726 8  83634346.59008
R08  22510305.076 6 120541664.20306  22510305.961 6 120541664.19606  22510320.002 6  93754696.42706  22510319.821 7  93754694.42707
R09  19425213.486 7 103729555.30007  19425213.810 7 103729559.30007  19425225.673 8  80678595.97708  19425225.704 8  80678594.96408  19425210.008 8  77885841.87508
R10  20746198.942 7 110588934.96407  20746198.888 7 110588934.96507
R22  22961771.498 7 122571467.09307  22961771.549 7 122571469.10207  22961785.042 6  95333415.34306  22961785.887 6  95333412.31506  22961771.115 6  92065738.05906
R23  22809716.184 6 122016593.53906  22809718.091 6 122016597.52506
S31  36911005.153 8 193968681.83308
S33  37043530.850 8 194665038.42508
S35  36961840.181 8 194235776.55608
> 2024 11 23 17 26 30.0000000  0 37
C11                                                                  26546467.874 5 138234390.08305  26546485.157 6 106891626.18006
C14                                                                  22664750.444 7 118021304.53907  22664753.265 8  91261570.37308  22664745.593 6  95901957.14706
C21  23942145.258 6 125816809.41706  23942149.284 5  93954117.80405  23942146.144 6 124673022.60706                                  23942143.043 5 101307023.15005  23942152.568 7  96405107.00607
C24  22480803.202 8 118137426.23208  22480803.579 5  88219512.91705  22480803.303 8 117063450.20608                                  22480801.029 6  95123639.17006  22480806.596 8  90520902.95008
C25  26797997.283 5 140824434.91605                                  26797996.867 5 139544213.39005
C26  22047777.872 7 115861854.20707  22047780.623 5  86520225.11505  22047777.780 7 114808563.11807                                  22047777.978 6  93291359.74706  22047783.630 8  88777285.23908
C33  24557913.079 7 129052710.87607  24557943.005 5  96370649.50505  24557913.751 7 127879508.98807                                  24557926.990 5 103912638.13005  24557946.079 7  98884680.03007
C42  21971672.882 8 115461919.67908  21971686.033 6  86221612.51206  21971672.725 8 114412264.38308                                  21971680.720 6  92969368.63806  21971688.962 8  88470884.72608
C43  26561828.389 6 139583328.82406                                  26561829.461 6 138314384.70406                                                                  26561842.562 6 106953490.64306
E02  26292037.184 5 138165594.33405                                                                  26292047.445 7 105867177.58207
E07  23851562.272 8 125340804.75808  23851559.711 5 101737652.86105  23851566.907 5  93598670.05105  23851569.482 8  96040384.99708  23851568.174 8  94819526.08908
E08  25613190.071 6 134598216.72806                                  25613195.470 4 100511666.71104  25613198.462 7 103133719.96707
E13  26498256.096 7 139249251.20407                                  26498265.765 4 103984859.11204  26498267.988 7 106697514.74507  26498266.752 7 105341180.48407
E26  25130796.822 7 132063219.33407  25130796.163 4 107194156.60704  25130800.019 5  98618645.84105  25130802.976 7 101191315.96007  25130801.508 7  99904973.96307
E27  27199424.755 6 142933952.67206                                                                  27199438.538 6 109520884.12506
E29  26373901.782 7 138595788.52007                                                                  26373910.054 7 106196803.79107
E30  25371903.492 6 133330260.04606                                  25371909.946 5  99564837.68005  25371912.184 7 102162184.36507
E33  26745931.595 6 140550817.94606                                                                  26745940.199 6 107694816.80006
G02  23513470.294 7 123564098.52407  23513469.025 4  23513475.162 4  96283719.15604
G03  20081246.226 8 105527663.24508  20081245.878 8  20081251.722 8  82229369.27808  20081252.675 7  82229369.27507  20081248.670 6  78803135.11606
G04  21671599.258 7 113885028.15407  21671598.650 5  21671603.984 5  88741600.73205  21671604.872 7  88741601.73507  21671605.248 5  85044039.21705  21671599.226 7 113885029.15807
G07  25166999.592 6 132253489.65806  25166998.801 4  25167011.503 4 103054710.40504  25167013.789 5 103054731.47805
G09  23802524.712 6 125083117.22806  23802523.988 5  23802533.407 5  97467400.89705  23802533.783 6  97467406.91106
G16  22205782.626 6 116692195.03306  22205781.468 3  22205788.535 3  90929010.89703
G21  24375145.750 6 128092218.71606  24375144.324 3  24375153.606 3  99812135.25303
G26  21413086.664 6 112526531.57206  21413085.846 6  21413095.770 6  87683052.26306  21413095.915 7  87683049.26107  21413091.100 5  84029571.43905
G28  23895543.673 3                                                                  23895549.714 4  97848249.31304                                  23895541.623 4
G31  21196411.517 7 111387886.78907  21196410.905 7  21196415.479 7  86795762.30707  21196416.440 7  86795764.32007
R07  20081600.576 7 107498381.80207  20081601.192 7 107498382.80507  20081614.655 8  83609907.75208  20081614.617 8  83609909.75108
R08  22495050.651 6 120459977.14806  22495051.320 6 120459977.14006  22495065.451 6  93691162.11006  22495064.898 6  93691160.11306
R09  19424154.940 7 103723900.54207  19424155.449 7 103723904.54707  19424166.373 8  80674197.80708  19424166.480 8  80674196.80708  19424151.042 8  77881595.96508
R10  20726428.325 7 110483542.97007  20726427.868 7 110483542.97207
R22  22979202.401 7 122664520.14607  22979202.899 7 122664522.16407  22979217.850 6  95405789.77306  22979217.708 6  95405786.77606  22979203.722 6  92135631.78406
R23  22815472.654 6 122047378.83806  22815473.311 6 122047382.81506
S31  36911014.391 8 193968694.58408
S33  37043527.362 8 194665049.66008
S35  36961828.179 8 194235713.29408
> 2024 11 23 17 27  0.0000000  0 38
C11                                                                  26560028.452 5 138304980.22505  26560039.824 6 106946210.71806
C14                                                                  22655300.171 7 117972094.58007  22655302.997 8  91223518.14108  22655295.336 6  95861970.04406
C21  23952232.457 6 125869816.99506  23952237.243 5  93993701.20905  23952233.533 6 124725548.29206                                  23952230.016 5 101349704.46105  23952239.122 7  96445723.07607
C24  22467045.040 8 118065126.47308  22467045.246 5  88165522.93305  22467045.269 8 116991807.71808                                  22467042.933 6  95065423.86006  22467048.232 8  90465504.51508
C25  26778768.157 5 140723388.78605                                  26778769.883 5 139444085.86305
C26  22051010.463 7 115878840.87907  22051012.973 5  86532909.97405  22051010.474 7 114825395.36307                                  22051010.359 6  93305037.32306  22051016.125 8  88790300.98208
C28                                                                  26712646.407 5 139099749.27115
C33  24543992.037 7 128979554.94507  24544021.973 5  96316020.15805  24543992.359 7 127807018.12007                                  24544005.913 5 103853733.41105  24544025.122 7  98828625.55907
C42  21969023.425 7 115447996.60507  21969036.527 6  86211215.41506  21969023.475 8 114398467.88008                                  21969031.158 6  92958157.86206  21969039.488 8  88460216.41008
C43  26574074.763 6 139647686.43406                                  26574076.214 6 138378157.29106                                                                  26574087.967 5 107002803.33005
E02  26295951.073 5 138186161.47205                                                                  26295960.816 6 105882936.72506
E07  23850521.273 7 125335334.38607  23850519.014 5 101733212.65005  23850525.984 5  93594585.01005  23850528.607 8  96036193.40108  23850527.225 8  94815387.77408
E08  25620829.536 6 134638360.30506                                  25620834.471 4 100541643.89704  25620837.253 7 103164479.25307
E13  26515148.243 6 139338018.40706                                  26515157.911 4 104051146.06404  26515160.090 7 106765530.97807  26515158.892 7 105408332.08507
E26  25138256.076 7 132102419.11407  25138255.694 4 107225974.54504  25138259.967 5  98647918.34205  25138262.478 7 101221352.09407  25138261.060 7  99934628.28207
E27  27182619.402 6 142845640.21606                                                                  27182632.979 6 109453216.31106
E29  26364911.667 7 138548544.23907                                                                  26364919.633 7 106160603.74707
E30  25361860.726 6 133277485.17906                                  25361867.019 4  99525427.90904  25361869.493 7 102121746.52407
E33  26739913.266 6 140519190.88806                                                                  26739921.902 6 107670583.07806
G02  23527946.463 7 123640171.76007  23527945.180 4  23527951.683 4  96342996.81304
G03  20076023.311 8 105500215.61508  20076022.963 8  20076028.778 8  82207981.52208  20076029.486 7  82207981.52107  20076025.606 6  78782638.51806
G04  21662578.951 7 113837625.95407  21662578.339 5  21662583.734 5  88704663.98805  21662584.303 7  88704664.99207  21662584.841 5  85008641.51605  21662578.976 7 113837626.96407
G07  25150430.670 6 132166416.06606  25150429.879 4  25150441.896 4 102986861.18404  25150444.110 5 102986882.16105
G09  23788698.390 6 125010459.37006  23788697.657 5  23788707.221 5  97410784.36205  23788707.651 6  97410790.36106
G16  22189818.355 6 116608303.72306  22189817.215 3  22189824.171 3  90863641.11903
G21  24390153.502 6 128171084.16106  24390152.089 3  24390161.735 3  99873588.56603
G26  21411002.778 6 112515582.77806  21411001.969 6  21411011.507 6  87674520.75006  21411012.142 7  87674517.75207  21411007.299 5  84021395.40705
G28  23913955.690 3                                                                  23913964.610 4  97923646.67604                                  23913952.943 3
G31  21210573.375 7 111462307.89107  21210572.763 7  21210577.662 7  86853752.71207  21210578.268 7  86853754.71807
R07  20075771.234 7 107467174.43507  20075771.524 7 107467175.42907  20075785.010 8  83585635.35108  20075784.576 8  83585637.35708
R08  22479786.898 7 120378242.00207  22479787.562 6 120378241.98806  22479802.216 6  93627590.42206  22479802.799 6  93627588.41206
R09  19423245.186 7 103719041.67507  19423245.228 7 103719045.68207  19423256.693 8  80670418.68708  19423256.548 8  80670417.68808  19423241.081 8  77877947.66708
R10  20706747.986 7 110378639.77607  20706747.815 7 110378639.77407
R22  22996677.678 7 122757806.03907  22996678.045 7 122757808.05307  22996693.890 6  95478345.29206  22996693.647 6  95478342.29006  22996679.245 6  92205700.37306
R23  22821352.142 6 122078823.73006  22821351.255 6 122078827.75906
S31  36911015.102 8 193968706.80708
S33  37043530.148 8 194665060.49208  37043510.452 5 145366690.94015
S35  36961815.212 8 194235650.36508
> 2024 11 23 17 27 30.0000000  0 38
C11                                                                  26573559.279 6 138375430.63606  26573570.002 6 107000687.00006
C14                                                                  22645876.226 7 117923021.27807  22645879.049 8  91185571.57608  22645871.164 6  95822093.98406
C21  23962362.255 6 125923048.06606  23962366.858 5  94033451.54005  23962362.998 6 124778295.43006                                  23962359.827 5 101392565.72605  23962369.038 7  96486510.38807
C24  22453350.664 8 117993162.82608  22453350.690 5  88111783.94205  22453350.996 8 116920498.27908                                  22453348.586 6  95007479.16106  22453353.838 8  90410363.62108
C25  26759537.331 5 140622335.85505                                  26759538.542 5 139343951.62805
C26  22054332.826 7 115896299.75607  22054335.513 5  86545947.39605  22054332.623 7 114842695.52407                                  22054332.344 6  93319095.08606  22054338.527 8  88803678.53208
C28                                                                  26717477.854 5 139124919.17505
C33  24530073.748 7 128906414.74907  24530104.238 5  96261402.55705  24530074.134 7 127734542.83307                                  24530087.960 5 103794841.37005  24530107.278 7  98772583.15807
C42  21966418.516 8 115434307.25108  21966431.373 6  86200992.84206  21966418.463 8 114384902.96708                                  21966426.165 6  92947135.26606  21966434.538 8  88449727.16408
C43  26586315.484 6 139712010.29106                                  26586316.161 6 138441896.40906                                                                  26586330.099 6 107052090.23906
E02  26299942.271 6 138207133.07606                                                                  26299952.110 7 105899005.79307
E07  23849490.874 7 125329919.30807  23849488.027 5 101728817.27505  23849495.825 5  93590541.26905  23849498.162 8  96032044.17608  23849496.771 8  94811291.29208
E08  25628473.916 6 134678531.23306                                  25628479.178 4 100571641.61904  25628481.544 7 103195259.50907
E13  26532047.952 6 139426825.07506                                  26532057.350 4 104117462.46504  26532059.648 7 106833577.42307  26532058.415 7 105475513.51807
E26  25145785.792 7 132141987.38907  25145785.725 4 107258091.62404  25145789.338 5  98677466.01205  25145792.014 7 101251670.59907  25145790.731 7  99964561.37707
E27  27165808.996 6 142757301.38306                                                                  27165822.629 6 109385528.32206
E29  26355923.729 7 138501313.80607                                                                  26355932.032 7 106124414.30707
E30  25351875.248 6 133225011.99506                                  25351882.449 5  99486243.43805  25351884.100 7 102081539.81707
E33  26733971.847 6 140487967.78106                                                                  26733980.510 7 107646658.90507
G02  23542447.163 7 123716370.93307  23542445.867 4  23542452.050 4  96402372.59904
G03  20070894.973 8 105473266.88808  20070894.625 8  20070900.569 8  82186982.52208  20070901.392 7  82186982.52207  20070897.679 6  78762514.48506
G04  21653577.542 7 113790322.94907  21653576.930 5  21653582.411 5  88667804.52605  21653582.926 7  88667805.52607  21653583.618 5  84973317.87505  21653577.507 7 113790323.94707
G07  25133888.887 6 132079485.07006  25133888.114 4  25133899.312 4 102919123.05504  25133900.310 5 102919144.02105
G09  23774874.435 6 124937814.58006  23774873.698 5  23774883.621 5  97354178.00005  23774883.740 6  97354183.98406
G16  22173917.283 6 116524743.16606  22173916.161 3  22173922.889 3  90798529.09303
G21  24405151.741 6 128249901.35306  24405150.328 3  24405160.836 3  99935004.26303
G26  21409033.204 6 112505229.87406  21409032.395 6  21409041.207 6  87666453.55206  21409042.150 7  87666450.55707  21409037.412 5  84013664.35005
G28                                                                                  23932388.349 3                                                  23932376.265 3
G31  21224794.727 7 111537041.48507  21224794.124 7  21224798.942 7  86911986.61707  21224799.695 7  86911988.62607
R07  20069981.422 7 107436178.47607  20069981.265 7 107436179.47607  20069994.531 8  83561527.37508  20069994.387 8  83561529.38808
R08  22464514.216 6 120296458.02906  22464514.722 6 120296458.03306  22464530.002 6  93563980.74506  22464530.157 6  93563978.76106
R09  19422483.641 7 103714976.78307  19422483.724 7 103714980.78707  19422495.354 8  80667257.10308  19422495.247 8  80667256.11908  19422479.832 8  77874895.53408
R10  20687160.813 7 110274227.39807  20687160.239 7 110274227.39907
R22  23014196.713 7 122851318.64107  23014196.641 7 122851320.63907  23014211.651 6  95551077.14206  23014211.738 6  95551074.15206  23014197.344 6  92275939.25806
R23  22827352.803 6 122110924.50606  22827352.628 6 122110928.51206
S31  36911021.224 8 193968717.36708
S33  37043529.862 8 194665069.36308  37043511.972 5 145366698.63015
S35  36961802.696 8 194235584.66208
> 2024 11 23 17 28  0.0000000  0 38
C11                                                                  26587061.317 6 138445744.12006  26587074.379 6 107055057.53206
C14                                                                  22636479.357 7 117874091.04307  22636482.392 8  91147735.64508  22636474.539 6  95782334.18606
C21  23972535.516 6 125976507.92306  23972540.038 5  94073372.77805  23972535.527 6 124831269.31306                                  23972532.879 5 101435611.25205  23972542.469 7  96527473.02707
C24  22439721.694 8 117921542.09108  22439721.789 5  88058301.00305  22439721.840 8 116849528.65208                                  22439719.679 6  94949810.58106  22439724.907 8  90355485.48108
C25  26740307.712 5 140521282.74205                                  26740310.127 5 139243817.21805
C26  22057745.757 7 115914235.12307  22057748.494 5  86559340.66805  22057746.075 7 114860467.84207                                  22057744.969 6  93333536.53406  22057751.390 8  88817421.18908
C28                                                                  26722376.286 4 139150433.08504
C33  24516159.785 7 128833296.59907  24516190.295 5  96206801.42405  24516160.394 7 127662089.38507                                  24516173.754 5 103735967.08605  24516193.018 7  98716557.62707
C42  21963859.199 8 115420858.04808  21963871.892 6  86190949.59706  21963859.015 8 114371576.04108                                  21963866.927 6  92936306.04106  21963875.269 8  88439421.93608
C43  26598550.016 6 139776303.33606                                  26598552.572 6 138505604.89406                                                                  26598562.292 5 107101353.47905
E02  26304011.135 6 138228514.01106                                                                  26304021.169 7 105915388.49607
E07  23848472.143 7 125324564.71907  23848469.492 5 101724471.01505  23848476.649 5  93586542.68105  23848479.266 8  96027941.28608  23848477.836 8  94807240.55508
E08  25636124.736 6 134718734.95306                                  25636129.984 4 100601663.75504  25636131.741 7 103226064.89007
E13  26548955.422 6 139515674.27606                                  26548964.939 4 104183810.65504  26548967.300 7 106901656.47007  26548966.125 7 105542727.13807
E26  25153386.383 7 132181927.96707  25153385.382 4 107290510.89204  25153389.882 5  98707291.70805  25153392.519 7 101282274.36307  25153391.206 7  99994776.10607
E27  27148994.947 6 142668943.39306                                                                  27149008.380 6 109317825.65706
E29  26346939.489 7 138454102.10607                                                                  26346947.823 7 106088239.21207
E30  25341948.672 6 133172847.34906                                  25341955.199 5  99447289.33805  25341957.786 7 102041569.52407
E33  26728107.976 6 140457154.63606                                                                  26728116.942 7 107623048.83907
G02  23556971.431 7 123792698.46407  23556970.162 4  23556976.757 4  96461848.41004
G03  20065863.087 8 105446823.96008  20065862.739 8  20065868.460 8  82166377.65308  20065869.269 7  82166377.66007  20065865.594 6  78742768.14106
G04  21644595.744 7 113743124.49707  21644595.127 5  21644600.571 5  88631026.54505  21644601.122 7  88631027.54807  21644602.193 5  84938072.31705  21644595.848 7 113743125.50007
G07  25117375.669 6 131992703.30306  25117374.963 4  25117383.696 4 102851501.14104  25117384.622 5 102851522.14905
G09  23761053.592 6 124865188.09606  23761052.841 5  23761063.378 5  97297585.89405  23761064.217 6  97297591.89106
G16  22158080.160 6 116441521.63406  22158079.065 3  22158085.829 3  90733681.21103
G21  24420142.195 6 128328673.67906  24420140.765 4  24420151.656 4  99996384.99904
G26  21407177.353 6 112495478.91706  21407176.549 6  21407185.953 6  87658855.38306  21407186.687 7  87658852.37707  21407182.316 5  84006382.78205
G28                                                                                                                                                  23950808.897 3
G31  21239076.440 7 111612089.70407  21239075.837 7  21239080.160 7  86970465.69207  21239080.705 7  86970467.68907
R07  20064231.509 7 107405401.10607  20064232.234 7 107405402.10107  20064244.807 8  83537589.42708  20064244.670 8  83537591.44208
R08  22449234.780 6 120214631.55506  22449234.382 6 120214631.57506  22449249.148 7  93500338.02307  22449249.603 7  93500336.01407
R09  19421872.161 7 103711711.42407  19421872.521 7 103711715.42807  19421883.735 8  80664717.38808  19421883.836 8  80664716.39108  19421868.451 8  77872443.72008
R10  20667667.064 7 110170314.88807  20667666.415 7 110170314.88507
R22  23031757.444 7 122945058.62607  23031758.067 7 122945060.62907  23031772.625 6  95623985.83606  23031772.146 6  95623982.84006  23031757.882 6  92346348.91806
R23  22833475.460 6 122143683.52706  22833476.681 6 122143687.53306
S31  36911017.445 8 193968730.82108
S33  37043536.283 8 194665081.08908
S35  36961790.953 8 194235522.97108
> 2024 11 23 17 28 30.0000000  0 37
C11                                                                  26600536.359 6 138515915.41606  26600547.999 6 107109318.12106
C14                                                                  22627110.206 8 117825301.96308  22627112.990 8  91110008.87708  22627105.295 6  95742689.10106
C21  23982752.188 6 126030193.50506  23982756.141 4  94113462.43104  23982753.336 6 124884466.79506                                  23982748.657 5 101478838.46605  23982758.835 7  96568608.57807
C24  22426157.491 8 117850262.54808  22426157.809 5  88005072.89005  22426157.552 8 116778897.11108                                  22426155.412 6  94892416.73806  22426160.748 8  90300868.77508
C25  26721078.543 5 140420227.96205                                  26721079.361 6 139143681.07906
C26  22061248.711 7 115932642.70907  22061251.143 5  86573086.56605  22061249.035 7 114878708.07807                                  22061248.307 6  93348358.22006  22061254.270 8  88831525.67408
C28                                                                  26727343.710 5 139176285.80105
C33  24502249.654 7 128760198.22907  24502279.377 5  96152215.07905  24502249.987 7 127589655.55607                                  24502263.978 5 103677108.72005  24502282.715 7  98660547.27307
C42  21961345.203 8 115407646.91508  21961358.085 6  86181084.16806  21961344.630 8 114358485.00608                                  21961352.796 6  92925668.51006  21961361.224 8  88429299.13008
C43  26610778.224 6 139840559.78806                                  26610780.525 6 138569277.19406                                                                  26610791.233 5 107150588.56605
E02  26308157.103 5 138250300.50105                                                                  26308167.167 7 105932081.96807
E07  23847464.040 7 125319267.28607  23847461.340 5 101720171.10705  23847468.305 6  93582586.81306  23847471.125 8  96023882.18808  23847469.704 8  94803233.06208
E08  25643780.807 6 134758968.49306                                  25643786.143 4 100631708.20604  25643788.169 7 103256893.08907
E13  26565869.758 6 139604560.62006                                  26565879.653 4 104250186.60104  26565881.978 7 106969763.95607  26565880.833 7 105609968.84107
E26  25161056.771 7 132222236.10407  25161056.079 4 107323228.49804  25161060.289 5  98737391.88305  25161062.981 7 101313159.76007  25161061.653 7 100025268.89007
E27  27132176.661 6 142580564.63406                                                                  27132190.343 6 109250107.13006
E29  26337958.480 7 138406905.51307                                                                  26337966.544 7 106052075.67007
E30  25332080.442 6 133120989.58706                                  25332087.461 5  99408564.41105  25332089.464 7 102001834.39007
E33  26722322.186 6 140426748.83406                                                                  26722330.705 7 107599750.86707
G02  23571519.626 7 123869148.21407  23571518.352 4  23571524.586 4  96521419.45404
G03  20060927.110 8 105420885.19908  20060926.762 8  20060932.442 8  82146165.64108  20060933.546 7  82146165.64507  20060929.595 6  78723398.31106
G04  21635633.316 7 113696027.37807  21635632.699 5  21635638.353 5  88594327.50605  21635638.948 7  88594328.50207  21635639.991 5  84902902.39505  21635633.500 7 113696028.37607
G07  25100889.996 6 131906068.19206  25100889.330 4  25100898.210 4 102783993.52204  25100899.192 4 102784014.54604
G09  23747236.187 6 124792576.73606  23747235.423 5  23747245.778 5  97241005.60505  23747246.126 6  97241011.61106
G16  22142308.354 5 116358639.42505  22142307.250 3  22142313.929 3  90669097.75703
G21  24435122.457 7 128407394.49907  24435120.991 4  24435132.678 4 100057725.58704
G26  21405436.396 6 112486327.36106  21405435.592 6  21405444.739 6  87651724.28106  21405444.944 7  87651721.30707  21405440.901 5  83999548.82205
G31  21253416.668 7 111687446.75307  21253416.060 7  21253420.055 7  87029185.40107  21253420.917 7  87029187.41507
R07  20058522.630 7 107374841.26707  20058523.215 7 107374842.26507  20058536.088 7  83513820.70207  20058536.143 7  83513822.68907
R08  22433945.563 6 120132760.29406  22433945.467 6 120132760.30506  22433960.201 6  93436660.44006  22433960.256 7  93436658.44207
R09  19421409.641 7 103709241.47407  19421409.976 7 103709245.47807  19421421.414 8  80662796.32808  19421421.518 8  80662795.32408  19421405.609 8  77870589.14808
R10  20648266.852 7 110066903.35507  20648266.665 7 110066903.35707
R22  23049358.995 7 123039018.23507  23049359.773 7 123039020.23107  23049374.487 6  95697065.36206  23049374.106 6  95697062.35406  23049360.012 6  92416923.56806
R23  22839721.721 6 122177094.98006  22839722.599 6 122177098.98406
S31  36911019.091 8 193968743.88208
S33  37043538.268 8 194665092.28608
S35  36961779.322 8 194235460.16308
> 2024 11 23 17 29  0.0000000  0 38
C11                                                                  26613984.431 5 138585940.98205  26613996.949 5 107163465.89305
C14                                                                  22617768.309 7 117776654.18007  22617770.774 8  91072391.35908  22617762.912 6  95703158.80506
C21  23993010.589 6 126084103.66606  23993014.925 4  94153719.91104  23993011.961 6 124937886.85106                                  23993007.954 5 101522246.53605  23993017.355 7  96609916.23707
C24  22412658.377 8 117779324.50908  22412658.993 5  87952099.75605  22412658.536 8 116708603.96908                                  22412656.450 6  94835297.86306  22412661.664 8  90246513.73808
C25  26701846.706 5 140319171.71405                                  26701846.876 5 139043531.59715                                                                  26701862.466 5 107517345.83315
C26  22064841.002 7 115951520.31107  22064843.365 5  86587183.45405  22064840.939 7 114897414.06207                                  22064840.648 6  93363558.34706  22064846.549 8  88845990.31108
C28                                                                  26732371.410 5 139202474.68905
C33  24488343.189 7 128687119.44707  24488373.722 4  96097643.40304  24488343.262 7 127517241.13207                                  24488357.250 5 103618266.14705  24488376.165 7  98604551.93007
C42  21958876.492 8 115394673.78108  21958889.400 6  86171396.41606  21958876.217 8 114345629.81008                                  21958884.028 6  92915222.60906  21958892.476 8  88419358.66608
C43  26622997.664 6 139904776.04806                                  26622999.356 6 138632909.70106                                                                  26623009.915 6 107199792.95306
E02  26312379.696 5 138272490.76005                                                                  26312389.794 7 105949084.79407
E07  23846466.460 7 125314025.71107  23846463.623 5 101715916.58005  23846471.133 6  93578672.63206  23846473.758 8  96019865.91608  23846472.317 8  94799267.84108
E08  25651442.453 6 134799230.80806                                  25651448.150 4 100661774.09804  25651450.127 7 103287743.34107
E13  26582790.840 6 139693480.71006                                  26582801.202 4 104316587.70404  26582802.949 7 107037897.32707  26582801.958 7 105677236.08807
E26  25168796.439 7 132262909.07007  25168796.616 4 107356242.23904  25168800.384 5  98767764.48805  25168802.932 8 101344324.70308  25168801.567 7 100056037.66307
E27  27115354.575 6 142492165.81706                                                                  27115368.336 6 109182373.22606
E29  26328979.499 7 138359722.41107                                                                  26328987.658 7 106015922.50607
E30  25322270.722 6 133069439.11306                                  25322277.893 5  99370068.95105  25322279.463 7 101962334.69807
E33  26716613.263 6 140396749.83506                                                                  26716621.869 7 107576764.67007
G02  23586090.141 7 123945716.01107  23586088.867 4  23586094.854 4  96581082.47904
G03  20056087.240 8 105395451.02408  20056086.892 8  20056092.550 8  82126346.81208  20056093.495 8  82126346.82008  20056089.398 6  78704405.27206
G04  21626690.189 7 113649030.47807  21626689.572 5  21626695.206 5  88557706.55605  21626695.516 7  88557707.54907  21626696.820 5  84867807.31505  21626690.301 7 113649031.48007
G07  25084430.929 6 131819579.57306  25084430.277 4  25084440.148 4 102716600.04304  25084440.349 5 102716621.04905
G09  23733421.389 6 124719979.20606  23733420.634 5  23733430.521 5  97184436.09605  23733431.209 6  97184442.13206
G16  22126601.217 6 116276098.77706  22126600.126 3  22126607.515 3  90604780.44403
G21  24450092.289 7 128486060.47507  24450090.827 4  24450102.494 4 100119023.42604
G26  21403809.399 6 112477774.78506  21403808.572 6  21403817.319 6  87645059.92006  21403817.593 7  87645056.92907  21403812.876 5  83993162.11305
G28  23987694.571 3                                                                                                                                  23987690.133 3
G31  21267814.216 7 111763108.55807  21267813.604 7  21267818.147 7  87088142.58707  21267819.068 7  87088144.58007
R07  20052854.801 7 107344499.32107  20052855.232 7 107344500.32707  20052867.882 8  83490221.42708  20052868.096 8  83490223.42208
R08  22418647.194 6 120050843.80006  22418647.590 6 120050843.79706  22418662.749 7  93372947.69007  22418663.108 7  93372945.68507
R09  19421095.563 7 103707565.87907  19421096.019 7 103707569.87607  19421107.801 8  80661493.10308  19421107.773 8  80661492.10208  19421091.760 8  77869331.04508
R10  20628961.726 7 109963994.83707  20628961.351 7 109963994.83407
R22  23067000.342 7 123133191.65407  23067000.807 7 123133193.64307  23067016.653 6  95770311.19206  23067016.830 6  95770308.19306  23067002.511 6  92487658.79706
R23  22846089.152 6 122211155.02106  22846090.042 6 122211159.01206
S31  36911021.479 8 193968755.78908
S33  37043541.099 8 194665102.25708
S35  36961766.623 8 194235396.45908
> 2024 11 23 17 29 30.0000000  0 38
C11                                                                  26627402.956 5 138655820.82005  26627417.169 6 107217501.07206
C14                                                                  22608453.423 7 117728151.01007  22608456.260 8  91034885.66308  22608448.316 6  95663746.05206
C21  24003312.693 6 126138240.52106  24003316.997 5  94194146.61905  24003313.165 6 124991531.60306                                  24003309.891 5 101565837.13305  24003319.527 7  96651397.58107
C24  22399225.039 8 117708731.56408  22399225.393 5  87899384.34505  22399225.010 8 116638652.78008                                  22399222.968 6  94778456.84806  22399228.133 8  90192423.12108
C25  26682615.268 5 140218096.84115                                  26682616.660 5 138943399.40715
C26  22068522.872 7 115970868.91807  22068525.699 5  86601632.05705  22068522.859 7 114916586.77307                                  22068522.681 6  93379137.71406  22068528.636 8  88860815.84208
C28                                                                  26737461.980 4 139229000.15604
C33  24474441.057 7 128614063.31307  24474470.973 4  96043088.53904  24474441.363 7 127444849.13907                                  24474455.034 5 103559441.79505  24474473.863 7  98548573.93107
C42  21956453.697 8 115381941.89208  21956466.542 6  86161888.86206  21956453.495 8 114333013.66208                                  21956461.506 6  92904970.95406  21956469.658 8  88409603.07008
C43  26635210.597 6 139968951.76606                                  26635210.885 5 138696502.06805                                                                  26635224.428 5 107248966.25405
E02  26316679.121 6 138295086.34506                                                                  26316689.512 7 105966398.26507
E07  23845479.992 7 125308842.02107  23845477.168 5 101711709.03505  23845484.365 5  93574801.66505  23845487.335 8  96015893.97708  23845485.860 8  94795346.39208
E08  25659109.714 6 134839524.23806                                  25659115.404 5 100691863.24805  25659117.955 7 103318617.44107
E13  26599718.202 6 139782434.44006                                  26599727.996 4 104383013.97204  26599730.397 7 107106056.43607  26599729.500 7 105744528.76407
E26  25176605.986 7 132303947.44907  25176605.860 4 107389552.52404  25176609.650 5  98798409.96705  25176612.303 7 101375769.63907  25176610.934 7 100087082.87307
E27  27098529.687 6 142403750.68006                                                                  27098543.409 6 109114626.88206
E29  26320003.971 7 138312554.54207                                                                  26320011.742 7 105979780.99107
E30  25312520.244 6 133018199.54206                                  25312526.719 5  99331805.68205  25312528.583 7 101923073.25007
E33  26710982.645 6 140367160.35506                                                                  26710991.244 7 107554092.24107
G02  23600682.706 7 124022400.87907  23600681.428 4  23600687.600 4  96640836.73804
G03  20051343.931 8 105370525.05908  20051343.583 8  20051349.509 8  82106923.99008  20051350.187 7  82106923.98807  20051346.105 6  78685791.72606
G04  21617766.494 7 113602135.92407  21617765.868 5  21617771.525 5  88521165.35105  21617771.620 7  88521166.35207  21617772.585 5  84832788.69505  21617766.435 7 113602136.92407
G07  25068000.891 6 131733240.57106  25068000.216 4  25068010.593 4 102649323.18304  25068010.485 5 102649344.19305
G09  23719609.999 6 124647397.56406  23719609.257 5  23719618.484 5  97127878.99605  23719619.101 6  97127885.00906
G16  22110961.075 6 116193905.46006  22110960.007 3  22110966.191 3  90540733.75203
G21  24465052.249 7 128564671.25607  24465050.787 4  24465061.726 4 100180278.26604
G26  21402295.528 6 112469823.89906  21402294.692 6  21402303.890 6  87638864.42406  21402304.569 7  87638861.42307  21402300.055 5  83987224.75005
G28  24006147.575 4                                                                  24006156.697 3                                                  24006146.304 4
G31  21282270.274 7 111839074.75607  21282269.653 7  21282273.727 7  87147336.95907  21282274.696 7  87147338.96107
R07  20047228.020 7 107314379.02107  20047228.209 7 107314380.02607  20047241.096 7  83466794.53307  20047240.818 7  83466796.53907
R08  22403342.685 7 119968885.19307  22403342.961 6 119968885.19206  22403357.695 6  93309202.15606  22403357.601 7  93309200.17807
R09  19420930.794 7 103706686.17907  19420931.191 7 103706690.18107  19420942.723 8  80660808.89808  19420942.590 8  80660807.89908  19420927.480 8  77868670.52108
R10  20609751.922 7 109861595.75007  20609751.815 7 109861595.75507
R22  23084683.155 7 123227576.38007  23084683.043 7 123227578.39207  23084697.739 6  95843721.35406  23084697.924 6  95843718.34606  23084684.090 6  92558552.72106
R23  22852577.959 6 122245863.03406  22852578.116 6 122245867.03406
S31  36911029.599 8 193968768.26608
S33  37043538.076 8 194665112.25508
S35  36961755.440 8 194235333.43908
> 2024 11 23 17 30  0.0000000  0 38
C11                                                                  26640793.725 5 138725550.60305  26640806.120 6 107271420.25106
C14                                                                  22599165.971 7 117679791.78207  22599169.353 8  90997491.27808  22599161.522 6  95624450.25206
C21  24013657.586 6 126192602.25506  24013661.358 4  94234741.25704  24013657.614 6 125045399.10006                                  24013654.899 5 101609608.81305  24013664.112 7  96693051.22807
C24  22385857.251 8 117638483.23508  22385857.322 5  87846926.26405  22385857.316 8 116569043.07308                                  22385854.864 6  94721893.31906  22385860.356 8  90138596.55408
C25  26663384.960 4 140117044.82704                                  26663386.512 5 138843266.07805                                                                  26663403.518 5 107362483.25115
C26  22072293.905 7 115990685.53407  22072296.758 5  86616430.14505  22072294.395 7 114936223.23207                                  22072293.665 6  93395093.93106  22072299.786 8  88875999.97408
C28                                                                  26742622.218 5 139255858.47605
C33  24460543.110 7 128541028.91607  24460573.302 5  95988549.92505  24460543.541 7 127372478.69207                                  24460556.763 5 103500634.94705  24460575.990 7  98492612.60007
C42  21954076.717 8 115369450.43508  21954089.560 6  86152560.80506  21954076.615 8 114320635.76408                                  21954084.419 6  92894912.90006  21954092.665 8  88400031.69208
C43  26647414.936 6 140033082.75006                                  26647416.376 6 138760049.96106                                                                  26647429.334 6 107298105.30606
E02  26321055.871 6 138318084.79906                                                                  26321065.888 7 105984020.42107
E07  23844504.170 7 125303714.17307  23844502.082 5 101707546.81105  23844508.875 6  93570972.41206  23844511.544 8  96011964.83208  23844510.138 8  94791467.19008
E08  25666782.930 6 134879847.06206                                  25666789.108 4 100721974.36604  25666791.360 7 103349514.04907
E13  26616651.552 6 139871417.69406                                  26616661.401 4 104449462.19804  26616663.337 7 107174238.18207  26616662.708 7 105811843.77207
E26  25184484.330 7 132345347.74707  25184483.627 4 107423156.60704  25184487.960 5  98829325.71705  25184490.587 7 101407491.88807  25184489.298 7 100118401.86407
E27  27081701.763 6 142315319.17706                                                                  27081715.074 6 109046868.01706
E29  26311030.561 7 138265399.49707                                                                  26311038.527 7 105943649.31107
E30  25302828.412 6 132967270.46806                                  25302835.494 5  99293774.28105  25302837.012 7 101884049.71207
E33  26705429.579 6 140337979.00106                                                                  26705438.342 7 107531732.51107
G02  23615296.899 7 124099198.15607  23615295.634 4  23615302.137 4  96700678.58904
G03  20046697.239 8 105346106.93208  20046696.891 8  20046702.863 8  82087896.87908  20046703.416 7  82087896.87507  20046699.553 6  78667557.41206
G04  21608861.727 7 113555341.88007  21608861.101 5  21608866.879 5  88484702.46305  21608867.349 7  88484703.45707  21608867.891 5  84797845.07705  21608861.958 7 113555342.88507
G07  25051598.416 6 131647050.33406  25051597.719 4  25051609.344 4 102582162.20704  25051607.542 5 102582183.21705
G09  23705800.522 6 124574829.84106  23705799.776 5  23705809.112 5  97071332.77205  23705809.713 6  97071338.77106
G16  22095386.233 6 116112060.33206  22095385.138 3  22095391.284 3  90476958.40103
G21  24480000.048 7 128643222.39207  24479998.600 4  24480009.412 4 100241486.61804
G26  21400897.046 6 112462473.45506  21400896.219 6  21400905.238 6  87633136.79506  21400905.986 7  87633133.79707  21400901.519 5  83981735.77405
G28  24024607.582 4                                                                  24024619.311 3                                                  24024607.411 4
G31  21296783.246 7 111915340.31307  21296782.625 7  21296786.557 7  87206764.60707  21296787.969 7  87206766.61607
R07  20041642.636 7 107284480.50907  20041643.005 7 107284481.51007  20041655.395 8  83443540.13808  20041655.328 8  83443542.15308
R08  22388027.834 6 119886883.29406  22388029.089 6 119886883.29006  22388044.109 7  93245422.96507  22388044.064 7  93245420.96807
R09  19420914.227 7 103706599.76807  19420914.784 7 103706603.77007  19420926.544 8  80660741.69708  19420926.433 8  80660740.70108  19420911.145 8  77868605.64808
R10  20590637.790 7 109759707.26707  20590637.601 7 109759707.26407
R22  23102403.002 7 123322165.88907  23102402.786 7 123322167.89007  23102417.786 6  95917290.73106  23102417.363 6  95917287.74606  23102403.919 6  92629600.48306
R23  22859185.703 6 122281213.89706  22859186.208 6 122281217.87706
S31  36911032.653 8 193968778.43308
S33  37043538.054 8 194665121.32108
S35  36961743.469 8 194235269.23308
> 2024 11 23 17 30 30.0000000  0 38
C11                                                                  26654158.462 5 138795131.07705  26654170.583 6 107325223.92306
C14                                                                  22589907.950 7 117631580.61707  22589910.691 8  90960211.38108  22589903.005 6  95585274.74106
C21  24024044.899 5 126247191.63605  24024049.777 4  94275505.94604  24024046.460 6 125099492.22006                                  24024042.902 5 101653563.80105  24024052.242 7  96734879.37707
C24  22372555.739 8 117568583.77408  22372555.798 6  87794728.67606  22372555.815 8 116499779.06708                                  22372553.403 6  94665610.69106  22372558.740 8  90085037.30008
C25  26644156.842 4                                                  26644154.883 3
C26  22076154.136 7 116010971.84007  22076156.808 5  86631578.98505  22076154.190 7 114956325.11907                                  22076153.837 6  93411428.34806  22076160.069 8  88891544.01308
C28                                                                  26747846.124 5 139283050.75005
C33  24446649.804 7 128468020.03207  24446679.503 5  95934030.43005  24446650.030 7 127300133.53107                                  24446663.624 5 103441848.64005  24446682.791 7  98436670.81807
C42  21951746.111 8 115357203.32308  21951758.952 6  86143415.24106  21951745.917 8 114308499.99708                                  21951753.641 6  92885051.59006  21951762.080 8  88390647.54408
C43  26659611.130 6 140097169.33706                                  26659613.598 6 138823553.87906                                                                  26659623.692 5 107347210.25805
E02  26325510.198 6 138341488.37206                                                                  26325519.529 7 106001952.89907
E07  23843539.663 7 125298644.89107  23843536.805 5 101703432.13205  23843544.330 5  93567186.89805  23843546.876 8  96008080.56508  23843545.506 8  94787632.29808
E08  25674462.604 5 134920202.36905                                  25674467.909 4 100752109.64504  25674470.387 7 103380435.50807
E13  26633590.278 6 139960431.08306                                  26633600.490 4 104515933.02304  26633602.276 6 107242443.01606  26633601.661 6 105879181.58706
E26  25192431.586 7 132387111.20007  25192430.514 4 107457055.48004  25192435.594 5  98860512.63605  25192438.028 8 101439492.39108  25192436.668 7 100149995.57907
E27  27064870.706 6 142226875.87506                                                                  27064884.358 6 108979100.11206
E29  26302059.901 7 138218259.69807                                                                  26302068.071 7 105907529.29207
E30  25293196.577 6 132916656.27806                                  25293203.462 5  99255978.00605  25293205.748 8 101845267.42508
E33  26699954.752 6 140309209.22406                                                                  26699963.632 7 107509688.17407
G02  23629932.661 7 124176107.53607  23629931.427 4  23629938.000 4  96760607.79004
G03  20042148.415 8 105322200.95608  20042148.062 8  20042153.434 8  82069268.84908  20042154.278 7  82069268.85607  20042150.552 6  78649705.55106
G04  21599976.683 7 113508651.21807  21599976.075 5  21599982.069 5  88448320.12905  21599982.363 7  88448321.13207  21599982.847 5  84762978.67705  21599976.927 7 113508652.22707
G07  25035227.292 6 131561012.29006  25035226.564 4  25035236.189 4 102515119.84904  25035236.678 5 102515140.85405
G09  23691994.337 6 124502278.79106  23691993.577 5  23692003.331 5  97014799.54005  23692003.940 6  97014805.50406  23692000.696 4
G16  22079878.737 6 116030569.46106  22079877.633 3  22079883.800 3  90413459.05503
G21  24494937.221 6 128721714.33506  24494935.786 3  24494946.416 3 100302648.87203
G26  21399613.649 6 112455726.88806  21399612.827 6  21399622.012 6  87627879.70106  21399622.161 7  87627876.66907  21399617.752 5  83976697.69805
G28  24043077.776 4                                                                  24043084.640 4                                                  24043076.250 4
G31  21311352.987 7 111991905.55507  21311352.375 6  21311356.816 6  87266425.75406  21311357.749 7  87266427.75807
R07  20036099.217 7 107254808.25807  20036099.691 7 107254809.26007  20036112.667 8  83420461.75008  20036112.714 8  83420463.74308
R08  22372708.889 6 119804842.06106  22372709.153 6 119804842.05706  22372723.316 7  93181613.15807  22372723.194 7  93181611.15607
R09  19421046.883 7 103707309.23607  19421047.766 7 103707313.23007  19421059.531 8  80661293.51908  19421059.347 8  80661292.51308  19421043.819 8  77869138.36108
R10  20571620.643 7 109658335.96807  20571620.255 7 109658335.97207
R22  23120160.692 7 123416958.41707  23120160.950 7 123416960.41207  23120176.903 6  95991018.08106  23120177.013 7  95991015.06307  23120162.108 6  92700800.69506
R23  22865914.600 6 122317207.79606  22865915.137 6 122317211.79406
S31  36911032.054 8 193968790.08308
S33  37043544.005 8 194665131.25408
S35  36961729.804 8 194235205.16008
> 2024 11 23 17 31  0.0000000  0 38
C11                                                                  26667491.563 6                  26667505.238 6 107378913.83706
C14                                                                  22580678.837 7 117583522.99207  22580681.624 8  90923050.21008  22580673.882 6  95546224.00706
C21  24034477.905 5 126302013.11505  24034482.203 4  94316443.90704  24034478.109 6 125153815.31206                                  24034475.461 5 101697705.67105  24034484.841 7  96776885.27707
C24  22359321.572 8 117499038.93908  22359321.833 5  87742795.92605  22359322.125 8 116430866.45208                                  22359319.315 6  94609613.60406  22359324.713 8  90031749.76508
C25  26624931.968 5 139914960.61315                                  26624929.316 4
C26  22080104.306 7 116031731.03607  22080107.411 5  86647080.95405  22080104.420 7 114976895.60307                                  22080104.385 6  93428143.52106  22080110.346 8  88907450.38608
C28  26753130.035 4 140588662.66014                                  26753130.661 5 139310579.50905
C33  24432762.352 7 128395041.98407  24432792.761 5  95879533.93305  24432762.768 7 127227818.92907                                  24432776.394 5 103383087.17205  24432795.434 7  98380752.66807
C42  21949463.084 8 115345206.01508  21949475.806 6  86134456.20506  21949462.930 8 114296611.74708                                  21949470.732 6  92875391.42206  21949479.083 8  88381454.79808
C43  26671797.681 6 140161213.29906                                  26671799.358 6 138887015.71506                                                                  26671812.209 5 107396337.70915
E02  26330041.045 6 138365300.56506                                                                  26330051.128 7 106020198.58107
E07  23842587.005 7 125293638.39107  23842584.555 5 101699368.40705  23842591.970 5  93563448.27705  23842594.143 8  96004244.40208  23842592.832 8  94783844.90208
E08  25682149.283 6 134960594.36306                                  25682153.767 4 100782272.53704  25682157.074 7 103411385.22107
E13  26650535.437 6 140049476.76106                                  26650545.220 4 104582427.89104  26650547.423 7 107310672.58907  26650546.566 6 105946543.82006
E26  25200448.707 7 132429240.52007  25200448.858 4 107491251.33304  25200452.233 5  98891972.76105  25200455.094 7 101471773.23507  25200453.616 7 100181866.07107
E27  27048039.397 6 142138426.82506                                                                  27048052.768 6 108911327.80306
E29  26293093.140 7 138171139.07207                                                                  26293101.304 7 105871423.97107
E30  25283626.731 6 132866362.68206                                  25283632.667 5  99218421.18105  25283635.005 8 101806730.85808
E33  26694559.470 6 140280855.85206                                                                  26694568.096 7 107487962.88707
G02  23644589.834 7 124253130.43907  23644588.600 4  23644594.740 4  96820625.43804
G03  20037697.609 8 105298812.96208  20037697.261 8  20037702.631 8  82051044.44308  20037703.753 7  82051044.45307  20037700.079 6  78632240.51206
G04  21591112.435 7 113462068.29407  21591111.841 5  21591117.775 5  88412021.74805  21591117.887 7  88412022.76007  21591118.446 5  84728192.73005  21591112.406 7 113462069.29407
G07  25018882.729 6 131475131.87406  25018882.005 4  25018892.905 4 102448200.26904  25018892.702 5 102448221.26905
G09  23678192.287 6 124429748.59606  23678191.514 5  23678201.261 5  96958282.60705  23678201.836 6  96958288.62806  23678198.541 4
G16  22064440.538 6 115949440.69906  22064439.403 3  22064445.626 3  90350241.88603
G21  24509862.518 6 128800149.09506  24509861.097 3  24509872.647 3 100363766.53903
G26  21398444.905 6 112449588.99806  21398444.083 6  21398453.626 6  87623096.91506  21398454.203 7  87623093.92107  21398449.541 5  83972114.20905
G28  24061551.131 4                                                                  24061562.775 4                                                  24061551.684 4
G31  21325980.262 7 112068772.10107  21325979.645 6  21325984.245 6  87326321.67706  21325984.953 7  87326323.68707
R07  20030599.353 7 107225368.80407  20030600.092 7 107225369.81507  20030612.974 8  83397564.41208  20030613.037 8  83397566.41708
R08  22357381.041 7 119722766.59007  22357381.871 6 119722766.59106  22357396.208 7  93117776.72907  22357396.234 7  93117774.74507
R09  19421330.316 7 103708818.31107  19421330.319 7 103708822.33507  19421342.191 8  80662467.26208  19421342.132 8  80662466.26008  19421326.312 8  77870271.48508
R10  20552702.553 7 109557490.47707  20552702.032 7 109557490.47507
R22  23137957.155 7 123511953.72407  23137956.903 7 123511955.71807  23137972.731 7  96064903.08407  23137972.529 7  96064900.09807  23137957.960 6  92772153.21806
R23  22872763.992 6 122353846.49106  22872764.433 6 122353850.48906
S31  36911030.967 8 193968806.64308
S33  37043549.335 8 194665146.18608
S35  36961719.747 8 194235147.08208
> 2024 11 23 17 31 30.0000000  0 38
C11                                                                  26680790.224 5 138933894.84615  26680809.475 6 107432479.30806
C14                                                                  22571477.437 7 117535608.90807  22571480.172 8  90886000.03408  22571472.392 6  95507289.90706
C21  24044952.064 5 126357055.24305  24044956.319 4  94357546.67004  24044952.290 6 125208357.05806                                  24044949.560 5 101742025.20905  24044958.977 7  96819060.28307
C24  22346153.192 8 117429838.80108  22346153.206 6  87691120.57506  22346153.547 8 116362295.40908                                  22346151.053 6  94553894.07706  22346156.428 8  89978726.35308
C25  26605705.590 4 139813929.77304                                  26605702.865 5 138542898.58215
C26  22084142.386 7 116052950.63107  22084144.981 5  86662926.73205  22084142.252 7 114997922.29307                                  22084142.318 6  93445229.43006  22084148.327 8  88923709.53308
C28  26758478.327 4 140616770.48904                                  26758478.100 5 139338431.91205
C33  24418878.699 7 128322084.42107  24418908.983 5  95825052.73405  24418878.887 7 127155524.61407                                  24418892.746 5 103324342.18205  24418912.135 7  98324850.21607
C42  21947225.701 8 115333448.24208  21947238.359 6  86125676.05606  21947225.635 8 114284960.85908                                  21947233.332 6  92865924.11306  21947241.593 8  88372445.59508
C43  26683974.529 5 140225201.04305                                  26683976.109 5 138950421.72305                                                                  26683988.267 5 107445367.00705
E02  26334648.019 6 138389509.54906                                                                  26334658.385 7 106038748.24707
E07  23841644.188 7 125288683.18807  23841641.120 5 101695346.29605  23841648.892 6  93559747.95306  23841651.295 8  96000447.55608  23841649.878 8  94780096.31908
E08  25689840.577 6 135001012.21606                                  25689845.079 4 100812454.63204  25689848.528 7 103442354.65907
E13  26667483.579 6 140138541.10506                                  26667492.939 4 104648936.77304  26667496.055 7 107378916.45807  26667495.259 6 106013920.16406
E26  25208532.766 7 132471722.75407  25208532.495 4 107525733.56204  25208536.453 5  98923696.45605  25208539.211 7 101504324.49107  25208537.800 7 100214003.53407
E27  27031205.128 6 142049962.41106                                                                  27031218.308 6 108843543.74706
E29  26284127.887 7 138124025.81807                                                                  26284135.681 7 105835324.27907
E30  25274114.761 6 132816379.88406                                  25274121.603 5  99181096.42505  25274123.587 8 101768432.42008
E33  26689240.952 6 140252908.10206                                                                  26689249.665 7 107466548.40007
G02  23659265.935 7 124330252.99407  23659264.675 4  23659270.717 4  96880720.73604
G03  20033343.597 8 105275933.05108  20033343.244 9  20033348.872 9  82033215.94809  20033349.948 7  82033215.94507  20033346.168 6  78615154.85206
G04  21582266.754 7 113415581.80307  21582266.164 5  21582271.143 5  88375798.51305  21582271.597 7  88375799.51607  21582272.767 5  84693478.79105  21582266.387 7 113415582.81007
G07  25002568.895 6 131389398.51606  25002568.198 4  25002577.984 4 102381395.30804  25002578.568 5 102381416.33605
G09  23664391.949 6 124357227.95206  23664391.185 5  23664400.863 5  96901773.13705  23664401.865 6  96901779.16706  23664398.591 4
G16  22049069.877 6 115868665.81906  22049068.742 3  22049074.334 3  90287300.47303
G21  24524774.689 7 128878512.24007  24524773.254 4  24524784.216 4 100424828.40704
G26  21397391.180 6 112444049.07006  21397390.353 6  21397399.249 6  87618780.08006  21397399.776 7  87618777.07907  21397395.542 5  83967977.22405
G28  24080038.057 3                                                                  24080040.159 3                                                  24080032.310 3
G31  21340662.363 7 112145925.80807  21340661.751 6  21340666.437 6  87386441.35206  21340667.107 7  87386443.35507
R07  20025142.289 7 107196152.16007  20025142.249 7 107196153.16707  20025155.135 8  83374840.36608  20025155.319 8  83374842.36408
R08  22342046.329 7 119640646.49407  22342046.522 6 119640646.48306  22342060.631 7  93053905.59307  22342061.395 6  93053903.57706
R09  19421760.552 7 103711114.90407  19421760.722 7 103711118.89607  19421771.959 8  80664253.47608  19421771.974 8  80664252.48408  19421756.719 8  77871995.87608
R10  20533880.861 7 109457162.46707  20533880.611 7 109457162.47407
R22  23155787.930 7 123607135.65607  23155787.945 7 123607137.67707  23155803.987 7  96138933.28507  23155803.697 6  96138930.27206  23155788.930 6  92843645.95806
R23  22879730.645 6 122391115.47806  22879732.067 6 122391119.47006
S31  36911029.232 8 193968817.17408
S33  37043554.393 8 194665154.55208  37043528.714 5 145366762.96915
S35  36961707.066 8 194235082.77908
> 2024 11 23 17 32  0.0000000  0 38
C11                                                                  26694068.374 5 139003014.12705  26694083.701 6 107485926.44006
C14                                                                  22562305.838 7 117487849.33607  22562308.347 8  90849069.33608  22562300.755 6  95468481.38206
C21  24055469.994 5 126412327.88505  24055474.657 4  94398821.49204  24055471.710 6 125263127.19806                                  24055467.231 4 101786530.33404  24055477.289 7  96861411.91407
C24  22333052.489 8 117360994.53608  22333052.681 6  87639710.97206  22333052.627 8 116294077.00408                                  22333050.296 6  94498461.07806  22333055.724 8  89925975.61808
C25  26586483.504 5 139712912.67605                                  26586483.225 5 138442799.82505
C26  22088269.850 7 116074639.19907  22088272.571 5  86679122.72905  22088269.724 7 115019413.68407                                  22088269.733 6  93462692.91006  22088275.458 8  88940328.02608
C28  26763891.302 5 140645212.78805                                  26763893.643 5 139366615.55205
C33  24405001.479 7 128249158.07407  24405031.414 5  95770594.86805  24405001.645 7 127083261.25707                                  24405015.479 5 103265622.36505  24405034.625 7  98268971.68207
C42  21945035.796 8 115321940.86708  21945048.397 6  86117082.90106  21945035.712 8 114273558.10008                                  21945043.407 6  92856658.44506  21945051.942 8  88363628.26608
C43  26696142.177 6 140289139.88506                                  26696142.795 6 139013779.21706                                                                  26696156.763 5 107494358.64705
E02  26339331.658 6 138414124.36106                                                                  26339342.390 7 106057608.90607
E07  23840712.814 7 125283789.01807  23840710.575 5 101691373.77605  23840717.407 5  93556093.18705  23840719.965 8  95996697.46408  23840718.542 8  94776393.89608
E08  25697538.673 6 135041465.76106                                  25697543.464 4 100842663.35204  25697546.760 7 103473351.47107
E13  26684437.288 6 140227631.71606                                  26684446.849 4 104715465.14204  26684449.730 7 107447180.43107  26684448.830 6 106081316.36006
E26  25216685.544 7 132514566.06407  25216684.665 4 107560508.94504  25216689.645 5  98955689.75605  25216691.996 7 101537152.40907  25216690.641 7 100246414.14707
E27  27014369.714 6 141961494.23806                                                                  27014383.176 6 108775756.77206
E29  26275165.744 7 138076929.31307                                                                  26275173.485 7 105799237.41107
E30  25264664.563 6 132766719.18006                                  25264671.651 5  99144012.19205  25264673.533 8 101730380.76408  25264672.222 7 100437175.54317
E33  26684001.890 6 140225376.22206                                                                  26684010.506 7 107445452.57907
G02  23673962.280 7 124407481.54707  23673961.015 4  23673967.084 4  96940898.62204
G03  20029088.774 8 105253572.45608  20029088.426 8  20029094.096 8  82015792.10908  20029094.822 8  82015792.11208  20029090.907 6  78598457.01306
G04  21573440.634 7 113369201.61307  21573440.040 5  21573445.310 5  88339658.11105  21573445.812 7  88339659.10807  21573446.601 5  84658844.24005  21573440.488 7 113369202.61307
G07  24986283.423 6 131303823.00506  24986282.699 4  24986293.176 4 102314713.37404  24986295.202 5 102314734.41905
G09  23650595.073 6 124284726.54906  23650594.336 5  23650604.231 5  96845278.66205  23650604.318 6  96845284.69406  23650601.717 4
G16  22033768.298 6 115788257.96706  22033767.167 4  22033773.367 4  90224645.01904
G21  24539675.250 6 128956811.64906  24539673.820 3  24539684.503 3 100485840.61603
G26  21396451.879 6 112439117.34106  21396451.048 6  21396460.423 6  87614937.19506  21396461.314 7  87614934.19307  21396457.256 5  83964294.46505
G28  24098526.893 3                                                                  24098529.683 4                                                  24098525.688 3
G31  21355400.096 7 112223373.54507  21355399.488 6  21355404.655 6  87446790.15706  21355405.144 7  87446792.15307
R07  20019727.779 7 107167170.15207  20019728.393 7 107167171.15107  20019741.248 7  83352298.81507  20019740.938 7  83352300.82007
R08  22326703.852 7 119558492.59707  22326705.141 7 119558492.59007  22326719.611 6  92990008.17006  22326719.036 7  92990006.17807
R09  19422339.419 7 103714208.44007  19422339.851 7 103714212.45007  19422351.861 8  80666659.56308  19422351.478 8  80666658.57108  19422336.145 8  77874318.65908
R10  20515159.078 7 109357365.10307  20515158.978 7 109357365.10007
R22  23173654.836 7 123702509.65407  23173655.449 7 123702511.66007  23173670.686 6  96213112.82406  23173670.600 6  96213109.81206  23173656.098 6  92915282.89706
R23  22886817.104 6 122429021.77606  22886817.393 6 122429025.78006
S31  36911041.105 8 193968831.31008  36911015.936 5 144846755.85515
S33  37043549.434 8 194665167.14508
S35  36961695.654 8 194235022.36008
> 2024 11 23 17 32 30.0000000  0 38
C11                                                                  26707313.459 6 139071975.02106  26707323.680 5 107539251.07205
C14                                                                  22553163.159 7 117440242.69207  22553166.160 8  90812256.89008  22553158.320 6  95429797.12106
C21  24066031.016 5 126467828.08705  24066036.601 4  94440266.35004  24066033.267 5 125318122.86305                                  24066029.603 5 101831218.70205  24066038.650 6  96903937.91806
C24  22320019.292 8 117292504.64408  22320019.477 6  87588565.98606  22320019.224 8 116226209.74808                                  22320017.124 6  94443313.42006  22320022.339 8  89873496.40308
C25  26567260.539 4 139611908.20004                                  26567263.143 5 138342713.63205
C26  22092485.595 7 116096792.70707  22092488.495 5  86695665.88705  22092485.440 7 115041365.79107                                  22092485.266 6  93480530.78106  22092491.091 8  88957302.76808
C28  26769367.635 5 140673984.64005                                  26769369.974 5 139395125.83305
C33  24391129.592 7 128176261.07907  24391160.073 5  95716158.87205  24391129.795 7 127011026.95507                                  24391143.439 5 103206926.12405  24391162.574 7  98213115.62207
C42  21942893.326 8 115310682.10408  21942906.009 6  86108675.39506  21942893.274 8 114262401.69008                                  21942901.096 6  92847592.95606  21942909.382 8  88355001.42408
C43  26708298.572 6 140353024.48606                                  26708299.196 6 139077082.99206                                                                  26708312.494 6 107543308.88206
E02  26344091.903 5 138439141.49305                                                                  26344103.100 7 106076777.81807
E07  23839792.529 7 125278952.86707  23839789.687 5 101687448.30805  23839797.002 5  93552481.78705  23839799.583 8  95992991.83708  23839798.228 8  94772735.37908
E08  25705243.364 5 135081952.33005                                  25705248.673 4 100872896.72604  25705250.927 7 103504373.57607
E13  26701394.873 6 140316743.47006                                  26701404.879 4 104782009.37904  26701407.027 6 107515460.63006  26701406.412 6 106148728.57606
E26  25224906.301 7 132557765.91807  25224904.809 4 107595573.72404  25224910.144 5  98987949.32205  25224912.638 7 101570253.52807  25224911.348 7 100279094.48607
E27  26997533.985 6 141873021.12906                                                                  26997547.056 6 108707966.04306
E29  26266206.051 7 138029846.23107                                                                  26266213.919 7 105763160.81107
E30  25255275.829 6 132717379.06106                                  25255282.661 5  99107167.36005  25255284.208 8 101692574.76208  25255283.058 7 100399850.12907
E33  26678841.536 6 140198257.87306                                                                  26678849.981 7 107424673.58507
G02  23688677.188 7 124484810.24007  23688675.936 4  23688682.689 4  97001154.54504
G03  20024931.984 8 105231729.69408  20024931.631 8  20024937.598 8  81998771.77808  20024938.164 7  81998771.78507  20024934.390 6  78582145.85706
G04  21564634.377 7 113322924.82907  21564633.783 5  21564639.665 5  88303598.27805  21564639.735 7  88303599.27907  21564640.498 5  84624286.91905  21564634.390 7 113322925.83307
G07  24970028.642 6 131218403.32306  24970027.914 4  24970038.510 4 102248152.87004  24970038.513 5 102248173.88005
G09  23636801.672 6 124212241.36506  23636800.930 5  23636810.746 5  96788796.83605  23636810.665 6  96788802.84606  23636807.808 4
G16  22018537.105 6 115708217.47306  22018535.983 4  22018543.137 4  90162275.82104
G21  24554561.828 6 129035041.70306  24554560.420 3  24554571.362 3 100546798.76403
G26  21395629.249 6 112434791.43506  21395628.418 6  21395637.716 6  87611566.37706  21395638.188 7  87611563.38307  21395633.388 5  83961064.12105
G28  24117013.703 3                                                                  24117021.398 4                                                  24117016.836 3
G31  21370192.945 7 112301109.85107  21370192.346 6  21370197.386 6  87507363.80806  21370197.695 7  87507365.81007
R07  20014357.612 7 107138421.59707  20014357.478 7 107138422.61007  20014370.632 7  83329938.87207  20014370.843 7  83329940.86807
R08  22311355.866 7 119476302.71607  22311356.583 6 119476302.71806  22311370.517 6  92926082.75506  22311370.087 7  92926080.73907
R09  19423068.476 7 103718095.52407  19423067.974 7 103718099.53407  19423079.604 8  80669682.85008  19423079.610 8  80669681.84008  19423063.805 8  77877237.27808
R10  20496537.092 7 109258099.78407  20496536.723 7 109258099.78107
R22  23191556.515 7 123798067.96607  23191556.146 7 123798069.98907  23191572.411 6  96287435.73606  23191572.585 6  96287432.72206  23191557.383 6  92987058.30606
R23  22894022.605 6 122467558.89606  22894022.429 6 122467562.91606
S31  36911042.410 8 193968845.47108
S33  37043552.296 8 194665179.22608
S35  36961684.886 8 194234962.08608
> 2024 11 23 17 33  0.0000000  0 38
C11                                                                  26720524.934 6 139140769.46506  26720538.565 6 107592446.92906
C14                                                                  22544049.559 8 117392784.17808  22544052.150 8  90775558.99408  22544044.350 6  95391233.21206
C21  24076634.547 5 126523549.79305  24076639.480 4  94481876.52904  24076633.905 5 125373338.01505                                  24076632.756 5 101876085.41105  24076641.811 6  96946633.61506
C24  22307052.662 8 117224364.42808  22307053.001 6  87537682.10706  22307052.724 8 116158689.00008                                  22307050.479 6  94388447.31806  22307055.620 8  89821285.12508
C25  26548043.602 5 139510911.94105                                  26548044.700 6 138242635.43306
C26  22096788.343 7 116119403.83007  22096790.672 5  86712550.84005  22096788.483 7 115063771.36507                                  22096787.807 6  93498737.15306  22096793.859 8  88974628.17308
C28  26774901.742 5 140703078.44905                                  26774901.299 5 139423955.20805
C33  24377262.133 7 128103388.34907  24377292.610 5  95661741.01205  24377262.638 7 126938816.69407                                  24377275.679 5 103148249.43805  24377295.377 7  98157278.13707
C42  21940797.027 8 115299666.96608  21940810.094 6  86100449.81206  21940797.030 8 114251486.68608                                  21940805.052 6  92838723.63006  21940813.253 8  88346561.25808
C43  26720443.514 5 140416846.29205                                  26720443.378 6 139140324.74106                                                                  26720458.265 5 107592211.03605
E02  26348928.172 5 138464554.16705                                                                  26348938.770 7 106096249.79607
E07  23838881.959 7 125274168.57107  23838879.044 5 101683564.96405  23838886.324 6  93548909.11706  23838889.105 8  95989325.95808  23838887.788 8  94769116.10108
E08  25712952.483 6 135122466.03206                                  25712958.305 5 100903150.39505  25712960.074 7 103535416.46907
E13  26718354.966 6 140405868.13106                                                                  26718367.390 6 107583750.69206  26718366.521 6 106216150.53106
E26  25233193.252 7 132601314.59707  25233192.806 4 107630921.61304  25233197.408 5  99020469.35605  25233199.772 7 101603621.93607  25233198.495 7 100312038.71207
E27  26980696.152 6 141784538.79506                                                                  26980709.233 6 108640168.22706
E29  26257247.534 7 137982770.09207                                                                  26257255.630 7 105727089.54507
E30  25245946.451 6 132668354.94806                                  25245953.470 5  99070558.50705  25245955.032 8 101655010.88608  25245953.939 7 100362763.76607
E33  26673758.622 6 140171547.42506                                                                  26673766.979 7 107404207.17407
G02  23703409.885 7 124562230.40907  23703408.629 4  23703415.509 4  97061481.76004
G03  20020873.109 8 105210400.13908  20020872.761 8  20020878.474 8  81982151.35608  20020879.354 7  81982151.35507  20020875.385 6  78566217.96106
G04  21555846.851 7 113276745.49707  21555846.248 5  21555852.086 5  88267614.39105  21555852.109 7  88267615.38507  21555852.750 5  84589802.34405  21555846.734 7 113276746.50807
G07  24953802.253 6 131133134.10606  24953801.529 4  24953812.816 4 102181709.56304  24953812.320 5 102181730.62605
G09  23623010.014 6 124139766.33506  23623009.286 5  23623018.617 5  96732322.90605  23623019.261 6  96732328.91906  23623016.639 4
G16  22003375.543 6 115628541.17506  22003374.430 4  22003380.558 4  90100190.42404
G21  24569434.044 6 129113193.97406  24569432.645 3  24569443.777 3 100607696.28803
G26  21394919.910 6 112431065.66506  21394919.079 6  21394928.512 6  87608663.22306  21394929.105 7  87608660.22907  21394924.670 5  83958281.94005
G28  24135511.330 4                                                                                                                                  24135514.154 4
G31  21385038.979 7 112379125.93807  21385038.380 6  21385043.083 6  87568155.48306  21385043.447 7  87568157.48107
R07  20009030.248 7 107109902.20807  20009030.161 7 107109903.22207  20009043.208 7  83307757.14107  20009043.149 7  83307759.13207
R08  22295999.717 7 119394071.89107  22296000.212 7 119394071.88207  22296014.495 6  92862125.47506  22296014.657 6  92862123.45406
R09  19423942.912 7 103722768.50107  19423943.214 7 103722772.49907  19423954.442 8  80673317.35108  19423954.469 8  80673316.34708  19423938.864 8  77880745.98108
R10  20478014.475 7 109159364.28707  20478014.287 7 109159364.29007
R22  23209490.097 7 123893800.03907  23209489.454 7 123893802.04807  23209505.156 6  96361893.78106  23209505.235 6  96361890.76406  23209491.796 6  93058964.20206
R23  22901342.401 6 122506718.36206  22901342.887 6 122506722.35006
S31  36911043.184 8 193968854.47908
S33  37043554.634 8 194665186.14608
S35  36961671.614 8 194234896.55108
> 2024 11 23 17 33 30.0000000  0 38
C11                                                                  26733706.037 5 139209408.81905  26733719.149 6 107645522.95606
C14                                                                  22534967.314 8 117345488.82908  22534969.489 8  90738987.26208  22534961.812 6  95352801.88606
C21  24087283.400 5 126579506.76705  24087287.897 4  94523662.41604  24087283.188 5 125428786.27405                                  24087281.027 4 101921141.55104  24087291.333 7  96989509.58807
C24  22294155.306 8 117156589.03908  22294155.558 6  87487070.67306  22294155.413 8 116091529.74608                                  22294153.262 6  94333874.97306  22294158.391 8  89769353.38608
C25  26528825.363 4 139409938.98104                                  26528827.197 5 138142580.51205
C26  22101180.532 7 116142485.15507  22101183.188 5  86729786.88905  22101180.848 7 115086642.85307                                  22101180.271 6  93517322.10506  22101186.078 8  88992313.87008
C28  26780503.220 4 140732506.02704                                  26780505.749 5 139453115.21805
C33  24363402.206 7 128030554.70607  24363432.769 5  95607352.30905  24363403.089 7 126866645.17407                                  24363416.323 5 103089604.21705  24363435.505 7  98101470.60307
C42  21938750.252 7 115288910.31607  21938763.150 6  86092417.26506  21938750.148 8 114240827.84108                                  21938758.039 6  92830062.45306  21938766.355 8  88338319.18008
C43  26732579.772 6 140480616.77606                                  26732581.594 5 139203515.50605
E02  26353841.903 5 138490375.43905                                                                  26353852.358 7 106116034.87707
E07  23837983.976 7 125269449.82607  23837981.456 5 101679734.82205  23837988.912 5  93545385.38005  23837991.132 8  95985710.30308  23837989.846 8  94765546.40608
E08  25720669.868 6 135163020.84806                                  25720675.858 5 100933434.74005  25720677.915 7 103566490.85507
E13  26735319.743 6 140495017.25406                                  26735329.478 4 104915135.33504  26735332.050 6 107652059.52206  26735331.222 6 106283591.00806
E26  25241548.924 7 132645224.20807  25241548.346 4 107666562.49904  25241552.974 5  99053258.92305  25241555.569 7 101637266.90307  25241554.276 7 100345255.98407
E27  26963859.714 6 141696062.77806                                                                  26963872.526 6 108572375.22806
E29  26248293.116 7 137935714.28307                                                                  26248301.298 7 105691033.85707
E30  25236680.214 6 132619662.03606                                  25236687.145 5  99034197.02005  25236688.934 8 101617700.82208  25236687.883 7 100325927.99307
E33  26668756.196 6 140145259.18706                                                                  26668764.515 6 107384064.27306
G02  23718162.336 7 124639752.72807  23718161.062 4  23718167.240 4  97121888.57004
G03  20016914.759 8 105189598.95908  20016914.402 8  20016919.948 8  81965942.65208  20016921.149 7  81965942.65407  20016917.164 6  78550684.62106
G04  21547080.374 7 113230677.49507  21547079.775 5  21547085.108 5  88231717.26105  21547085.541 7  88231718.26807  21547086.388 5  84555400.94405  21547080.424 7 113230678.49507
G07  24937607.687 6 131048029.95706  24937606.963 4  24937617.941 4 102115394.88804  24937616.621 5 102115415.89405
G09  23609222.910 6 124067315.16006  23609222.204 5  23609231.536 5  96675867.58505  23609232.158 6  96675873.62206  23609229.545 4
G16  21988285.478 6 115549246.58506  21988284.347 4  21988290.504 4  90038402.45104
G21  24584293.471 6 129191279.63706  24584292.063 3  24584303.726 3 100668541.94603
G26  21394328.420 6 112427954.26506  21394327.589 6  21394336.519 6  87606238.80206  21394336.900 7  87606235.81007  21394332.717 5  83955958.55005
G28  24154014.001 4                                                                  24154014.425 3                                                  24154012.859 4
G31  21399940.449 7 112457432.73807  21399939.841 6  21399944.193 6  87629173.70406  21399945.024 6  87629175.70306
R07  20003747.221 7 107081627.80807  20003748.334 7 107081628.79907  20003761.216 8  83285765.94208  20003761.219 8  83285767.94508
R08  22280639.695 7 119311814.93807  22280639.111 6 119311814.97406  22280653.550 7  92798147.90707  22280654.044 7  92798145.89707
R09  19424967.127 7 103728241.39207  19424967.837 7 103728245.38707  19424979.579 8  80677574.02108  19424979.316 8  80677573.02408  19424964.075 8  77884855.31908
R10  20459594.024 7 109061175.00307  20459593.845 7 109061175.00607
R22  23227459.011 7 123989715.11807  23227458.826 7 123989717.11607  23227474.456 6  96436494.17006  23227474.708 6  96436491.17006  23227460.070 6  93131007.58106
R23  22908781.879 6 122546510.91106  22908781.292 6 122546514.92506
S31  36911042.974 8 193968870.59808
S33  37043559.808 8 194665200.02008
S35  36961660.587 8 194234837.91808
> 2024 11 23 17 34  0.0000000  0 38
C11                                                                  26746855.397 5 139277881.74605  26746870.443 6 107698470.15806
C14                                                                  22525914.256 8 117298348.76508  22525916.887 8  90702535.61208  22525908.923 6  95314496.76006
C21  24097975.478 5 126635689.80105  24097978.734 4  94565617.13104  24097976.553 5 125484458.50305                                  24097972.162 4 101966379.68404  24097982.684 7  97032558.76207
C24  22281326.078 8 117089170.63708  22281326.343 6  87436725.84506  22281326.176 8 116024724.24208                                  22281323.937 6  94279590.06706  22281328.969 8  89717695.18608
C25  26509613.554 5 139308981.71805                                  26509615.265 5 138042541.10005
C26  22105660.480 7 116166026.26407  22105662.935 5  86747366.30805  22105660.252 7 115109969.95107                                  22105659.671 6  93536277.30606  22105665.852 8  89010351.87708
C28  26786165.129 5 140762256.26205                                  26786166.675 5 139482594.97905
C33  24349548.595 7 127957752.02307  24349578.593 5  95552986.76105  24349549.641 7 126794504.32507                                  24349562.157 5 103030983.93805  24349581.462 7  98045686.78607
C42  21936750.834 8 115278404.10608  21936763.525 6  86084571.73506  21936750.754 8 114230417.13108                                  21936758.626 6  92821602.91106  21936767.107 8  88330268.98608
C43  26744703.814 6 140544324.56506                                  26744705.455 6 139266644.01206
E02  26358831.182 5 138516595.50605                                                                  26358841.975 7 106136125.48207
E07  23837096.920 7 125264787.38507  23837093.986 5 101675950.38305  23837101.187 5  93541903.68905  23837103.806 8  95982137.78808  23837102.582 8  94762019.30708
E08  25728393.530 6 135203607.81506                                  25728399.318 5 100963743.11105  25728401.428 7 103597589.89207
E13  26752286.889 6 140584179.48206                                  26752297.368 4 104981717.29504  26752299.498 6 107720378.39206  26752298.503 6 106351041.40506
E26  25249971.411 7 132689483.95607  25249970.736 4 107702487.55604  25249975.154 5  99086309.96905  25249977.750 7 101671180.15507  25249976.649 7 100378738.13607
E27  26947022.680 6 141607585.70006                                                                  26947035.556 6 108504581.39006
E29  26239340.795 7 137888669.21407                                                                  26239348.827 7 105654986.39507
E30  25227476.149 6 132571292.64206                                  25227482.869 5  98998077.10005  25227484.567 8 101580638.63208  25227483.491 7 100289336.93707
E33  26663832.293 6 140119384.45106                                                                  26663840.656 7 107364238.21407
G02  23732931.531 7 124717364.67107  23732930.262 4  23732936.388 4  97182365.21504
G03  20013055.340 8 105169318.38208  20013054.987 8  20013060.808 8  81950139.61008  20013061.780 7  81950139.61207  20013057.917 6  78535540.02406
G04  21538333.364 7 113184711.72607  21538332.765 5  21538337.644 5  88195899.82305  21538338.867 7  88195900.82507  21538339.477 5  84521075.90705  21538333.409 7 113184712.72607
G07  24921442.182 6 130963082.84806  24921441.489 4  24921452.261 4 102049202.55904  24921452.463 5 102049223.58305
G09  23595439.178 6 123994878.67206  23595438.481 5  23595447.759 5  96619423.68605  23595448.529 6  96619429.68206  23595445.397 4
G16  21973267.793 6 115470327.37406  21973266.653 4  21973273.159 4  89976906.99404
G21  24599138.047 6 129269287.04806  24599136.648 3  24599148.618 3 100729326.61203
G26  21393851.337 6 112425448.43906  21393850.515 6  21393859.607 6  87604286.26806  21393860.262 7  87604283.27507  21393855.514 5  83954087.37105
G28  24172521.188 3                                                                  24172528.767 4                                                  24172517.721 3
G31  21414894.529 7 112536018.05407  21414893.921 6  21414898.797 6  87690408.94306  21414899.445 7  87690410.95307
R07  19998510.619 7 107053591.00707  19998510.570 7 107053592.00307  19998523.806 8  83263959.56308  19998523.813 8  83263961.56308
R08  22265272.298 7 119229523.55907  22265271.982 6 119229523.58906  22265286.287 7  92734143.54107  22265286.029 7  92734141.54307
R09  19426140.482 7 103734503.53607  19426140.856 7 103734507.54107  19426152.200 8  80682444.58508  19426152.053 8  80682443.57408  19426136.590 8  77889557.26108
R10  20441275.823 7 108963527.19407  20441275.553 7 108963527.19807
R22  23245459.078 7 124085799.33907  23245459.713 7 124085801.33207  23245474.463 6  96511226.14406  23245474.121 6  96511223.13506  23245460.615 6  93203177.97306
R23  22916336.639 6 122586924.22506  22916335.799 6 122586928.25506
S31  36911053.124 8 193968885.56008
S33  37043557.684 8 194665213.54408
S35  36961649.578 8 194234778.84108  36961630.316 5 145045377.77715
> 2024 11 23 17 34 30.0000000  0 38
C11                                                                  26759972.400 5 139346185.24005  26759985.498 6 107751286.54106
C14                                                                  22516891.421 8 117251364.25508  22516893.818 8  90666204.24608  22516886.408 6  95276318.02406
C21  24108708.182 5 126692097.76505  24108712.424 4  94607739.85304  24108709.251 5 125540353.74805                                  24108707.234 4 102011799.02404  24108716.961 7  97075780.33507
C24  22268564.789 8 117022109.55808  22268565.196 6  87386647.79106  22268564.837 8 115958272.80808                                  22268562.452 6  94225592.88006  22268567.647 8  89666310.76808
C25  26490406.466 5 139208040.80405                                  26490404.998 4 137942517.84804
C26  22110227.092 7 116190024.88107  22110229.628 5  86765287.36905  22110227.201 7 115133750.41007                                  22110226.697 6  93555600.86606  22110232.634 8  89028740.44308
C28  26791885.808 4 140792326.59904                                  26791887.194 5 139512391.93905
C33  24335700.271 7 127884980.29107  24335730.453 5  95498644.26905  24335701.282 7 126722394.17407                                  24335714.683 5 102972388.55805  24335733.379 7  97989926.68407
C42  21934799.284 8 115268148.35008  21934812.205 6  86076913.23706  21934799.229 8 114220254.61208                                  21934807.113 6  92813345.04806  21934815.638 8  88322410.69308
C43  26756811.747 5 140607965.94805                                  26756815.089 6 139329706.91106                                                                  26756829.031 6 107738659.39316
E02  26363897.029 6 138543212.52206                                                                  26363906.819 7 106156520.28607
E07  23836220.158 7 125260180.12707  23836217.434 5 101672210.71005  23836224.712 6  93538463.20506  23836227.073 8  95978607.56308  23836225.876 8  94758533.95608
E08  25736123.151 6 135244226.05106                                  25736128.551 4 100994074.84104  25736131.047 7 103628712.91507
E13  26769256.124 6 140673351.57606                                  26769266.336 4 105048306.52304  26769268.593 6 107788704.82906  26769267.676 6 106418499.26106
E26  25258460.000 7 132734091.08407  25258458.499 4 107738694.61404  25258463.571 5  99119620.43505  25258466.249 7 101705359.58207  25258465.197 7 100412483.07307
E27  26930186.120 6 141519108.26406                                                                  26930198.513 6 108436787.26206
E29  26230389.838 7 137841633.44207                                                                  26230397.956 7 105618946.06207
E30  25218333.461 6 132523247.11706                                  25218339.885 5  98962199.01805  25218341.920 8 101543824.59408  25218340.677 7 100252990.87507
E33  26658987.338 6 140093922.58606                                                                  26658995.545 7 107344728.51007
G02  23747716.899 7 124795062.41507  23747715.647 4  23747722.412 4  97242908.70104
G03  20009295.222 8 105149558.68108  20009294.869 8  20009300.786 8  81934742.45408  20009301.514 7  81934742.45807  20009297.632 6  78520784.43006
G04  21529605.682 7 113138847.19807  21529605.079 5  21529610.392 5  88160161.25905  21529611.039 7  88160162.26007  21529611.391 5  84486826.45905  21529605.404 7 113138848.19807
G07  24905307.609 6 130878292.48906  24905306.912 4  24905316.456 4 101983132.35404  24905317.787 5 101983153.34405
G09  23581656.619 6 123922455.70606  23581655.917 5  23581666.102 5  96562990.28505  23581666.431 6  96562996.30006  23581663.150 4
G16  21958322.322 6 115391785.90806  21958321.169 4  21958327.754 4  89915705.87904
G21  24613966.899 6 129347212.83906  24613965.513 3  24613977.319 3 100790047.68203
G26  21393489.273 6 112423547.50406  21393488.451 6  21393498.452 6  87602805.07206  21393498.671 7  87602802.08307  21393494.146 5  83952667.92305
G28  24191037.703 3                                                                  24191039.755 4                                                  24191035.958 3
G31  21429901.076 7 112614878.53907  21429900.473 6  21429905.455 6  87751858.60006  21429906.470 6  87751860.60506
R07  19993317.577 7 107025792.72007  19993317.309 7 107025793.72807  19993330.723 7  83242338.70807  19993330.698 7  83242340.70507
R08  22249898.358 7 119147197.92707  22249898.016 6 119147197.94506  22249912.773 6  92670112.54006  22249912.471 6  92670110.53606
R09  19427460.570 8 103741553.61708  19427461.085 7 103741557.62507  19427472.366 8  80687927.96908  19427472.253 8  80687926.96608  19427456.919 8  77894850.84008
R10  20423058.911 7 108866422.88707  20423058.730 7 108866422.88407
R22  23263488.557 7 124182047.07207  23263489.555 7 124182049.06407  23263504.935 6  96586085.26706  23263504.995 6  96586082.25806  23263491.246 6  93275471.21206
R23  22924006.910 6 122627954.21206  22924006.456 6 122627958.22806
S31  36911048.545 8 193968897.90508
S33  37043563.421 8 194665224.22708
S35  36961637.013 8 194234717.13508
> 2024 11 23 17 35  0.0000000  0 38
C11                                                                  26773057.064 6 139414316.55906  26773067.278 5 107803969.65105
C14                                                                  22507898.689 8 117204536.12508  22507900.789 8  90629993.80908  22507893.348 6  95238266.35706
C21  24119485.105 5 126748730.18905  24119490.325 4  94650030.10804  24119486.145 5 125596471.29205                                  24119484.086 5 102057399.02105  24119493.064 6  97119173.86406
C24  22255871.547 8 116955406.63608  22255871.713 6  87336837.21006  22255871.766 8 115892176.27408                                  22255869.372 6  94171884.06206  22255874.319 8  89615200.77608
C25  26471201.379 5 139107117.15305                                  26471201.273 5 137842511.65605                                                                  26471215.552 5 106588625.43715
C26  22114880.645 7 116214479.23407  22114882.905 5  86783548.75305  22114881.124 7 115157982.44107                                  22114880.301 6  93575291.40806  22114886.199 8  89047478.21908
C28  26797669.863 5 140822714.36605                                  26797671.454 5 139542503.48105
C33  24321858.494 7 127812240.07707  24321888.451 5  95444325.36805  24321859.237 7 126650315.22407                                  24321872.623 5 102913818.54605  24321891.313 7  97934190.72307
C42  21932895.511 7 115258143.63107  21932908.559 6  86069442.18606  21932895.791 8 114210340.84008                                  21932903.131 6  92805289.30106  21932911.698 8  88314744.74908
C43  26768909.929 6 140671538.07906                                  26768909.740 5 139392701.15105
E02  26369037.281 6 138570225.26206                                                                  26369047.330 7 106177218.30307
E07  23835353.737 7 125255627.51307  23835351.008 5 101668515.42605  23835358.339 5  93535063.53605  23835360.790 8  95975119.21108  23835359.615 8  94755089.94508
E08  25743857.851 6 135284875.36906                                  25743864.304 4 101024429.78004  25743866.308 7 103659859.72007
E13  26786226.440 6 140762530.82306                                  26786237.355 4 105114901.16804  26786238.913 6 107857036.71906  26786238.109 6 106485962.51706
E26  25267014.202 7 132779043.42707  25267013.702 4 107775181.81404  25267017.788 5  99153188.66405  25267020.535 7 101739803.52807  25267019.411 7 100446489.16307
E27  26913349.035 6 141430631.72706                                                                  26913361.727 6 108368993.81606
E29  26221440.951 7 137794606.07107                                                                  26221448.958 7 105582912.15907
E30  25209252.437 6 132475526.38306                                  25209258.787 5  98926563.48605  25209260.857 8 101507259.44108  25209259.612 7 100216890.53707
E33  26654220.515 6 140068873.53806                                                                  26654229.118 6 107325535.11206
G02  23762518.310 7 124872842.81407  23762517.050 4  23762523.818 4  97303516.60004
G03  20005634.776 8 105130320.75308  20005634.419 8  20005639.985 8  81919751.86908  20005640.709 7  81919751.87107  20005636.740 6  78506418.44506
G04  21520896.917 7 113093083.53307  21520896.323 5  21520902.010 5  88124501.29505  21520902.509 7  88124502.29607  21520902.984 5  84452652.32005  21520896.886 7 113093084.53607
G07  24889202.529 6 130793659.06706  24889201.805 4  24889211.004 4 101917184.41504  24889212.437 5 101917205.45705
G09  23567877.748 6 123850045.84106  23567877.064 5  23567886.547 5  96506567.09205  23567887.104 6  96506573.08906  23567884.091 4
G16  21943448.744 6 115313624.87406  21943447.586 4  21943453.760 4  89854801.21304
G21  24628779.927 6 129425054.22106  24628778.497 3  24628790.307 3 100850702.98603
G26  21393243.118 6 112422251.29606  21393242.296 6  21393251.543 6  87601795.09806  21393251.594 7  87601792.09407  21393246.952 5  83951700.01905
G28                                                                                  24209551.629 5
G31  21444959.796 7 112694010.87807  21444959.188 6  21444963.837 6  87813520.08906  21444964.669 6  87813522.11006
R07  19988169.325 7 106998234.02507  19988169.590 7 106998235.02807  19988182.995 8  83220904.17508  19988182.546 8  83220906.17608
R08  22234518.645 6 119064838.53206  22234517.647 6 119064838.58106  22234533.106 7  92606055.29907  22234532.672 7  92606053.28307
R09  19428928.370 7 103749389.80007  19428928.537 7 103749393.80807  19428939.903 8  80694022.78008  19428939.795 8  80694021.78708  19428924.173 8  77900734.70008
R10  20404945.275 7 108769865.36607  20404944.612 7 108769865.38107
R22  23281549.119 7 124278453.17107  23281548.645 7 124278455.16707  23281565.264 6  96661067.53606  23281565.790 6  96661064.53606  23281551.347 6  93347883.38906
R23  22931791.744 6 122669597.28406  22931790.934 6 122669601.26306
S31  36911048.411 8 193968906.51008
S33  37043567.513 8 194665230.95308
S35  36961625.695 8 194234651.69008
> 2024 11 23 17 35 30.0000000  0 38
C11                                                                  26786108.073 5 139482282.53405  26786124.229 6 107856524.82406
C14                                                                  22498937.724 8 117157874.49808  22498940.021 8  90593912.12208  22498932.282 6  95200350.01306
C21  24130307.655 5 126805595.96205  24130311.879 4  94692494.61204  24130309.308 5 125652820.07405                                  24130305.157 4 102103186.92604  24130314.374 6  97162746.20606
C24  22243248.574 8 116889072.16708  22243248.844 6  87287301.77006  22243248.715 8 115826444.84808                                  22243246.289 6  94118471.92606  22243251.296 8  89564373.10708
C25  26452001.262 6 139006221.28106                                  26452003.757 5 137742533.07905
C26  22119622.462 7 116239397.03007  22119624.783 5  86802156.22605  22119622.630 7 115182673.72407                                  22119622.051 6  93595355.10306  22119628.126 8  89066571.09008
C28  26803513.688 4 140853426.82604                                  26803516.353 4 139572936.70404
C33  24308024.143 7 127739541.39807  24308054.383 5  95390037.40705  24308025.064 7 126578277.46107                                  24308038.014 5 102855281.99705  24308057.256 7  97878486.58807
C42  21931041.539 7 115248400.04107  21931054.265 6  86062166.14006  21931041.210 8 114200685.83408                                  21931048.881 6  92797443.82306  21931057.404 8  88307278.89708
C43  26780997.845 6 140735047.79206                                  26780999.623 6 139455633.32506                                                                  26781013.087 6 107836037.08216
E02  26374254.554 6 138597641.99406                                                                  26374264.471 6 106198225.89706
E07  23834499.652 7 125251138.45207  23834496.704 5 101664871.71305  23834503.961 5  93531711.33805  23834506.738 8  95971679.56108  23834505.352 8  94751694.02108
E08  25751600.616 6 135325564.85706                                  25751606.793 4 101054814.70204  25751609.596 7 103691037.32707
E13  26803199.657 6 140851724.00806                                  26803210.470 4 105181506.20804  26803212.005 6 107925379.30706  26803211.360 6 106553436.32006
E26  25275635.463 7 132824348.26807  25275634.318 4 107811955.23004  25275639.383 5  99187020.14205  25275641.979 7 101774517.57107  25275640.708 7 100480761.92107
E27  26896514.753 6 141342166.94106                                                                  26896527.298 7 108301209.34407
E29  26212495.218 7 137747595.64707                                                                  26212503.105 7 105546891.21707
E30  25200235.058 6 132428140.83506                                  25200241.901 5  98891178.25705  25200243.595 8 101470951.10708  25200242.348 7 100181043.75407
E33  26649534.369 6 140044246.72606                                                                  26649542.410 7 107306665.25907
G02  23777336.263 7 124950711.79607  23777335.011 4  23777341.778 4  97364193.53004
G03  20002074.964 8 105111614.86808  20002074.602 8  20002080.345 8  81905175.85708  20002081.199 8  81905175.86208  20002077.137 6  78492449.78106
G04  21512209.227 7 113047429.82907  21512208.633 5  21512214.215 5  88088927.01505  21512214.830 7  88088928.02507  21512215.652 5  84418560.29305  21512209.344 7 113047430.83407
G07  24873128.495 6 130709192.55106  24873127.776 4  24873137.676 4 101851366.51204  24873137.501 5 101851387.49305
G09  23554103.010 6 123777657.99006  23554102.335 5  23554111.061 5  96450161.03905  23554112.257 6  96450167.05106  23554109.302 4
G16  21928649.622 6 115235856.56506  21928648.478 4  21928654.858 4  89794202.59104
G21  24643577.670 6 129502817.51006  24643576.244 3  24643588.372 3 100911297.43103
G26  21393112.703 6 112421569.08106  21393111.881 6  21393121.070 6  87601263.54106  21393121.361 7  87601260.54307  21393117.000 5  83951190.63705
G28  24228061.289 3                                                                  24228071.672 5                                                  24228059.387 3
G31  21460071.000 7 112773421.29907  21460070.397 6  21460074.844 6  87875398.28106  21460075.623 6  87875400.27506
R07  19983067.678 7 106970926.13307  19983068.238 7 106970927.13107  19983081.227 8  83199664.70408  19983080.993 8  83199666.71108
R08  22219134.997 6 118982455.58406  22219133.235 6 118982455.59006  22219148.493 7  92541979.68707  22219148.246 7  92541977.70207
R09  19430544.486 7 103758020.42407  19430544.470 7 103758024.43007  19430556.140 8  80700735.48708  19430555.882 8  80700734.49608  19430540.541 8  77907215.04808
R10  20386935.873 7 108673867.22307  20386935.586 7 108673867.22907
R22  23299640.233 7 124375022.22707  23299640.066 7 124375024.22607  23299656.121 7  96736176.55307  23299656.034 6  96736173.55406  23299642.558 6  93420417.95506
R23  22939691.303 6 122711859.09606  22939691.406 6 122711863.08006
S31  36911054.819 8 193968920.73908
S33  37043567.065 8 194665243.88108
S35  36961613.501 8 194234592.56008
> 2024 11 23 17 36  0.0000000  0 38
C11                                                                  26799126.474 5 139550074.66505  26799141.830 6 107908945.87406
C14                                                                  22490007.314 8 117111374.56008  22490009.927 8  90557955.46808  22490002.217 6  95162565.04506
C21  24141170.831 5 126862688.84105  24141175.671 4  94735128.82204  24141172.832 5 125709393.93105                                  24141169.120 4 102149157.71104  24141178.987 6  97206492.56206
C24  22230694.752 8 116823101.21408  22230694.544 6  87238037.81306  22230694.775 8 115761073.63508                                  22230692.245 6  94065352.48106  22230697.449 8  89513823.97608
C25  26432804.285 5 138905348.46905                                  26432807.434 5 137642577.27905
C26  22124450.684 7 116264770.66707  22124453.125 5  86821104.08405  22124450.906 7 115207816.69507                                  22124450.468 6  93615785.85106  22124456.358 8  89086013.24708
C28  26809416.412 3                                                  26809417.700 4
C33  24294197.079 7 127666879.07407  24294226.740 5  95335776.60905  24294197.896 7 126506275.69607                                  24294211.024 5 102796774.70605  24294230.013 7  97822810.29507
C42  21929235.983 8 115238912.43508  21929248.936 6  86055081.25706  21929235.632 8 114191284.47708                                  21929243.498 6  92789804.47006  21929251.773 8  88300009.18208
C43  26793069.175 6 140798486.27506                                  26793070.905 7 139518495.07807
E02  26379547.155 6 138625455.74406                                                                  26379557.348 6 106219537.69206
E07  23833656.189 7 125246706.65307  23833653.319 5 101661274.49305  23833660.776 5  93528401.90105  23833663.417 8  95968283.78308  23833661.959 8  94748341.41008
E08  25759350.177 5 135366288.53205                                  25759356.763 4 101085225.16904  25759358.742 7 103722241.11007
E13  26820173.376 6 140940922.73506                                  26820185.335 4 105248115.39004  26820186.285 6 107993726.13506  26820185.608 6 106620914.32606
E26  25284322.434 7 132869997.63407  25284321.653 4 107849008.23704  25284326.046 5  99221108.90705  25284328.752 7 101809495.60107  25284327.546 7 100515295.31607
E27  26879681.746 6 141253709.39306                                                                  26879694.156 7 108233430.41907
E29  26203551.220 7 137700595.59107                                                                  26203559.172 7 105510878.21607
E30  25191280.415 6 132381085.63606                                  25191287.447 5  98856039.72705  25191289.231 8 101434895.90408  25191287.969 7 100145446.88607
E33  26644927.042 6 140020036.33806                                                                  26644935.376 7 107288114.45907
G02  23792169.442 7 125028660.34207  23792168.190 4  23792174.279 4  97424932.45204
G03  19998615.504 8 105093436.13308  19998615.142 9  19998621.013 9  81891010.61509  19998621.939 8  81891010.62408  19998617.864 6  78478874.74806
G04  21503541.446 7 113001879.91307  21503540.865 5  21503546.578 5  88053433.61605  21503546.792 7  88053434.61907  21503547.683 5  84384545.80905  21503541.397 7 113001880.92107
G07  24857085.958 6 130624887.54106  24857085.270 4  24857094.854 4 101785674.40004  24857095.061 5 101785695.42005
G09  23540330.517 6 123705285.87206  23540329.820 5  23540339.447 5  96393767.19705  23540339.729 6  96393773.21806  23540337.456 4
G16  21913924.857 6 115158477.88406  21913923.735 4  21913930.185 4  89733907.57804
G21  24658359.304 6 129580494.06706  24658357.909 2  24658369.473 2 100971824.29302
G26  21393098.909 6 112421494.92706  21393098.087 6  21393106.573 6  87601205.80506  21393107.507 7  87601202.81107  21393102.869 5  83951135.30805
G28  24246581.238 3                                                                  24246591.882 5  99285743.89815                                  24246584.036 3
G31  21475233.617 7 112853100.94707  21475233.005 6  21475237.790 6  87937486.24706  21475238.605 7  87937488.25807
R07  19978012.804 7 106943864.74107  19978012.568 7 106943865.75307  19978025.839 8  83178616.98608  19978025.724 8  83178618.99308
R08  22203743.266 7 118900043.68007  22203743.632 6 118900043.68506  22203758.246 7  92477881.58907  22203758.057 7  92477879.59307
R09  19432307.921 7 103767438.12007  19432308.252 7 103767442.12507  19432319.744 8  80708060.39808  19432319.695 8  80708059.39608  19432304.127 8  77914286.39908
R10  20369030.917 7 108578425.10807  20369030.637 7 108578425.11707
R22  23317760.387 7 124471743.36407  23317760.194 7 124471745.36807  23317775.078 7  96811403.84407  23317774.841 6  96811400.85406  23317761.261 6  93493066.74506
R23  22947706.217 6 122754730.36706  22947706.329 6 122754734.40106
S31  36911057.788 8 193968934.91708
S33  37043569.006 8 194665255.59508
S35  36961602.412 8 194234532.43708
> 2024 11 23 17 36 30.0000000  0 38
C11                                                                  26812113.610 5 139617694.42205  26812129.836 6 107961233.28006
C14                                                                  22481109.613 8 117065040.91108  22481112.340 8  90522127.40208  22481104.319 6  95124915.18106
C21  24152080.405 4 126920012.01204  24152084.295 4  94777934.91404  24152077.948 5 125766196.02205                                  24152077.974 4 102195313.90904  24152087.680 7  97250415.37707
C24  22218210.834 8 116757498.42808  22218211.007 6  87189048.76006  22218211.291 8 115696067.23208                                  22218208.260 6  94012529.49306  22218213.551 8  89463556.94408
C25  26413613.323 5 138804503.56205                                  26413614.254 6 137542649.19506
C26  22129366.111 7 116290602.23407  22129368.942 5  86840393.91305  22129366.683 7 115233413.42607                                  22129365.820 6  93636585.29306  22129371.935 8  89105806.26508
C28  26815384.266 5                                                  26815385.550 5 139634755.71415
C33  24280377.589 7 127594257.49407  24280407.869 5  95281546.26605  24280378.239 7 126434314.31407                                  24280391.357 5 102738300.20705  24280410.456 7  97767165.22807
C42  21927480.151 8 115229685.17308  21927492.991 6  86048190.77406  21927480.108 8 114182141.10508                                  21927487.626 6  92782374.73906  21927496.069 8  88292938.95308
C43  26805126.857 5 140861854.52605                                  26805128.364 6 139581287.31706                                                                  26805143.143 6 107933202.01016
E02  26384915.808 6 138653668.99706                                                                  26384926.463 7 106241155.62807
E07  23832824.319 7 125242335.36407  23832821.551 5 101657726.40005  23832828.676 5  93525137.65305  23832831.558 8  95964934.36908  23832830.090 8  94745034.57708
E08  25767107.201 6 135407049.93106                                  25767113.608 4 101115663.80004  25767115.797 7 103753473.79707
E13  26837148.957 6 141030128.08806                                  26837160.191 4 105314729.49004  26837161.926 6 108062078.00806  26837161.202 6 106688397.30206
E26  25293075.047 7 132915993.12307  25293074.157 4 107886342.14104  25293078.895 5  99255456.10105  25293081.279 7 101844738.84107  25293080.246 7 100550090.54307
E27  26862850.820 6 141165264.23006                                                                  26862863.397 7 108165660.97607
E29  26194610.073 7 137653608.78307                                                                  26194617.621 7 105474875.36907
E30  25182389.981 6 132334365.43806                                  25182396.801 5  98821151.36905  25182398.671 8 101399097.39708  25182397.368 7 100110103.45007
E33  26640400.028 6 139996245.99406                                                                  26640408.148 7 107269885.52007
G02  23807017.920 7 125106688.50307  23807016.677 4  23807023.407 4  97485733.39304
G03  19995257.437 8 105075789.11808  19995257.075 9  19995262.758 9  81877259.69709  19995263.716 7  81877259.69507  19995259.815 6  78465696.79006
G04  21494893.979 7 112956437.27207  21494893.389 5  21494899.332 5  88018023.80805  21494899.146 7  88018024.80507  21494899.723 5  84350611.43305  21494894.098 7 112956438.26807
G07  24841074.364 6 130540748.05106  24841073.662 4  24841083.565 4 101720111.25904  24841083.542 5 101720132.22305
G09  23526562.512 6 123632932.86006  23526561.824 5  23526571.200 5  96337388.24505  23526571.950 6  96337394.26506  23526569.026 4
G16  21899275.539 6 115081495.22806  21899274.431 4  21899280.617 4  89673921.16004
G21  24673125.365 6 129658084.75506  24673123.979 2  24673134.945 2 101032284.25302
G26  21393201.187 6 112422032.37806  21393200.351 6  21393209.456 6  87601624.61306  21393209.418 7  87601621.61907  21393205.281 5  83951536.68005
G28  24265107.528 4                                                                  24265116.852 5  99361596.92005                                  24265107.884 3
G31  21490447.820 7 112933050.32407  21490447.212 6  21490452.110 6  87999784.38406  21490452.514 7  87999786.39207
R07  19973005.243 7 106917054.66307  19973004.301 7 106917055.68407  19973017.251 8  83157764.70508  19973017.706 8  83157766.70908
R08  22188348.867 7 118817607.15807  22188349.324 6 118817607.15206  22188363.871 7  92413764.32307  22188364.080 7  92413762.33707
R09  19434219.268 7 103777645.50207  19434219.522 7 103777649.49607  19434231.336 8  80715999.49208  19434231.461 8  80715998.49408  19434215.803 8  77921950.68908
R10  20351232.221 7 108483546.46607  20351231.871 7 108483546.46807
R22  23335907.816 7 124568615.33807  23335908.269 7 124568617.33107  23335923.283 7  96886748.45307  23335923.086 6  96886745.46406  23335907.956 6  93565828.80906
R23  22955835.563 6 122798211.49806  22955834.411 6 122798215.52306
S31  36911058.960 8 193968950.19108
S33  37043572.485 8 194665269.68608
S35  36961591.465 8 194234474.88408
> 2024 11 23 17 37  0.0000000  0 38
C11                                                                  26825063.521 5 139685131.40405  26825079.376 6 108013379.57006
C14                                                                  22472241.897 8 117018866.81208  22472244.790 8  90486422.69908  22472236.983 6  95087394.99406
C21  24163030.528 5 126977557.44405  24163035.353 4  94820906.94104  24163030.009 5 125823218.32205                                  24163028.008 4 102241649.03404  24163037.869 7  97294508.46607
C24  22205795.739 8 116692256.97908  22205795.900 6  87140329.53006  22205796.198 8 115631418.89008                                  22205793.542 6  93959997.45106  22205798.466 8  89413566.78508
C25  26394426.159 5 138703680.03105                                  26394428.368 6 137442742.26806
C26  22134367.034 7 116316882.29407  22134369.687 5  86860018.62705  22134367.658 7 115259454.57707                                  22134366.847 6  93657745.85306  22134372.843 8  89125942.94208
C28  26821405.498 4                                                  26821404.304 4 139666122.78904
C33  24266564.589 7 127521669.67907  24266594.281 5  95227341.11405  24266565.152 7 126362386.39207                                  24266578.476 5 102679852.89405  24266597.483 7  97711546.02407
C42  21925772.508 8 115220711.27208  21925785.267 6  86041489.48906  21925772.277 8 114173248.78108                                  21925779.995 6  92775148.99406  21925788.432 8  88286062.85108
C43  26817171.195 6 140925142.02806                                  26817172.835 6 139643999.46206                                                                  26817186.511 5 107981694.86405
E02  26390358.938 6 138682272.91106                                                                  26390369.447 6 106263072.90406
E07  23832002.308 7 125238016.44807  23831999.734 5 101654220.79005  23832007.070 5  93521912.49405  23832009.755 8  95961625.08208  23832008.179 8  94741767.35708
E08  25774870.016 6 135447841.15706                                  25774875.572 4 101146124.70104  25774877.355 7 103784729.32807
E13  26854123.634 6 141119329.81806                                  26854134.510 4 105381340.85404  26854136.883 6 108130427.11806  26854135.951 6 106755877.54806
E26  25301891.902 7 132962324.92907  25301891.008 4 107923949.13204  25301895.717 5  99290054.47405  25301898.124 7 101880239.77107  25301896.989 7 100585140.18607
E27  26846021.268 6 141076825.17406                                                                  26846033.867 7 108097896.19307
E29  26185669.501 7 137606626.76507                                                                  26185677.308 7 105438876.18307
E30  25173562.146 6 132287973.61606                                  25173568.630 5  98786508.20205  25173570.650 8 101363550.48108  25173569.214 7 100075008.40707
E33  26635951.197 6 139972868.08306                                                                  26635959.617 6 107251972.57106
G02  23821879.534 7 125184785.23807  23821878.278 4  23821885.698 4  97546587.76004
G03  19991999.195 8 105058667.05008  19991998.833 9  19992004.523 9  81863917.82109  19992005.482 8  81863917.82508  19992001.546 6  78452910.81506
G04  21486265.154 7 112911093.87907  21486264.564 5  21486270.125 5  87982691.33605  21486270.769 7  87982692.34707  21486271.297 5  84316751.16305  21486265.467 7 112911094.88807
G07  24825093.531 6 130456766.90406  24825092.847 4  24825102.590 4 101654671.50204  24825101.837 5 101654692.48605
G09  23512796.420 6 123560590.90506  23512795.727 5  23512804.689 5  96281017.93205  23512806.036 6  96281023.95306  23512802.917 4
G16  21884701.089 6 115004903.75706  21884699.981 4  21884705.878 4  89614239.57804
G21  24687871.685 6 129735578.95706  24687870.264 2  24687881.636 2 101092669.00802
G26  21393417.907 6 112423173.59706  21393417.076 6  21393426.093 6  87602513.90606  21393426.651 7  87602510.90107  21393422.551 5  83952388.89405
G28  24283633.107 4                                                                  24283642.411 5  99437455.44505                                  24283632.480 4
G31  21505710.720 7 113013258.46507  21505710.121 6  21505714.961 6  88062284.16806  21505715.452 7  88062286.17507
R07  19968042.262 7 106890489.82107  19968041.972 7 106890490.83007  19968054.608 8  83137103.16508  19968054.520 8  83137105.15908
R08  22172948.214 7 118735139.12107  22172948.623 6 118735139.11506  22172963.943 7  92349622.57907  22172963.991 7  92349620.58207
R09  19436276.837 7 103788632.98707  19436277.099 7 103788636.99007  19436288.627 8  80724545.36308  19436288.645 8  80724544.35908  19436273.098 8  77930200.75108
R10  20333537.630 7 108389226.24807  20333537.563 7 108389226.24207
R22  23354080.434 7 124665625.24207  23354081.042 7 124665627.24207  23354097.433 7  96962200.37607  23354096.555 6  96962197.37406  23354081.964 6  93638694.54806
R23  22964075.627 6 122842290.77006  22964075.222 6 122842294.78406
S31  36911068.395 8 193968960.49008
S33  37043568.282 8 194665278.47908
S35  36961579.741 8 194234411.41708
> 2024 11 23 17 37 30.0000000  0 38
C11                                                                  26837979.011 5 139752395.37305  26837996.649 5 108065391.93105
C14                                                                  22463408.032 8 116972865.36408  22463410.663 8  90450851.52008  22463403.000 6  95050015.09606
C21  24174026.071 5 127035336.81705  24174030.781 4  94864053.74104  24174026.542 5 125880472.37805                                  24174023.255 4 102288172.61504  24174033.362 7  97338780.83607
C24  22193451.934 8 116627390.05908  22193452.247 6  87091890.00006  22193452.228 8 115567141.67808                                  22193449.689 6  93907766.97806  22193454.745 8  89363863.60808
C25  26375247.478 6 138602891.41306                                  26375247.537 6 137342869.86606                                                                  26375260.504 5 106202255.64615
C26  22139455.456 7 116343621.42107  22139458.001 5  86879986.17405  22139455.275 7 115285950.61907                                  22139455.101 6  93679276.05706  22139461.121 8  89146431.36508
C28  26827494.252 4                                                  26827492.341 5 139697805.20205
C33  24252760.185 7 127449128.61207  24252790.245 5  95173170.85305  24252760.733 7 126290504.79807                                  24252774.308 5 102621443.23805  24252793.289 7  97655962.65007
C42  21924115.538 8 115212003.73808  21924128.583 6  86034987.11706  21924115.296 8 114164620.40608                                  21924123.063 6  92768137.74106  21924131.258 8  88279390.84608
C43  26829201.247 6 140988358.54906                                  26829202.231 6 139706641.23206                                                                  26829217.816 6 108030133.00706
E02  26395878.674 6 138711278.62006                                                                  26395889.127 7 106285298.03607
E07  23831192.707 7 125233761.81507  23831189.928 5 101650767.34305  23831197.386 6  93518735.36806  23831199.913 8  95958365.05408  23831198.471 8  94738548.77308
E08  25782639.994 6 135488674.40506                                  25782645.726 4 101176616.98604  25782647.783 7 103816017.06007
E13  26871099.483 6 141208537.64706                                  26871110.608 4 105447956.76004  26871112.884 7 108198780.89507  26871111.893 6 106823362.40506
E26  25310774.357 7 133009003.22907  25310773.792 4 107961837.30504  25310778.506 5  99324911.55205  25310780.787 7 101916006.19107  25310779.595 7 100620451.94807
E27  26829195.313 6 140988405.90806                                                                  26829208.207 7 108030146.60507
E29  26176732.334 7 137559661.09507                                                                  26176740.190 7 105402889.52007
E30  25164798.808 6 132241923.42806                                  25164805.410 5  98752120.13805  25164807.321 8 101328265.33708  25164806.019 7 100040171.80807
E33  26631583.281 6 139949914.82706                                                                  26631591.649 6 107234385.03406
G02  23836755.813 7 125262959.68007  23836754.553 4  23836762.196 4  97607502.68504
G03  19988843.468 8 105042083.10208  19988843.106 9  19988848.846 9  81850995.26009  19988849.604 8  81850995.26408  19988845.841 6  78440526.68906
G04  21477657.615 7 112865861.84307  21477657.016 5  21477662.399 5  87947445.64905  21477663.254 7  87947446.65007  21477663.910 5  84282974.05305  21477657.930 7 112865862.85107
G07  24809144.317 6 130372956.88906  24809143.665 5  24809154.110 5 101589365.06705  24809154.599 5 101589386.05605
G09  23499034.050 6 123488271.90006  23499033.380 5  23499042.532 5  96224665.50005  23499043.823 6  96224671.51106  23499040.569 4
G16  21870202.867 6 114928718.39406  21870201.732 4  21870208.270 4  89554874.44904
G21  24702602.042 6 129812986.41306  24702600.594 2  24702612.498 2 101152986.19502
G26  21393752.674 6 112424930.64006  21393751.820 6  21393760.704 6  87603883.05706  21393761.517 7  87603880.04407  21393756.261 5  83953700.98705
G28  24302159.545 4                                                                  24302172.845 4  99513327.27304                                  24302160.496 4
G31  21521024.424 7 113093734.75407  21521023.821 6  21521028.958 6  88124992.89706  21521030.188 7  88124994.89107
R07  19963128.140 7 106864184.47007  19963127.780 7 106864185.49107  19963140.465 7  83116643.45907  19963140.627 7  83116645.45807
R08  22157544.112 7 118652652.69107  22157545.032 6 118652652.69406  22157559.480 7  92285466.51707  22157559.201 7  92285464.53307
R09  19438483.125 7 103800411.44707  19438483.210 7 103800415.44707  19438494.416 8  80733706.41208  19438494.387 8  80733705.41908  19438478.859 8  77939044.71808
R10  20315951.078 7 108295479.73607  20315950.814 7 108295479.73507
R22  23372281.363 7 124762780.81907  23372281.869 7 124762782.80207  23372298.359 7  97037765.55407  23372298.378 7  97037762.55507  23372282.827 6  93711669.62706
R23  22972428.423 6 122886976.90506  22972428.777 6 122886980.89506
S31  36911063.494 8 193968976.61908
S33  37043577.109 8 194665291.99608
S35  36961568.937 8 194234354.09808
> 2024 11 23 17 38  0.0000000  0 38
C11                                                                  26850862.902 5 139819472.74505  26850878.183 5 108117260.09705
C14                                                                  22454605.217 8 116927026.29608  22454607.842 8  90415405.90008  22454600.010 6  95012767.12706
C21  24185062.350 4 127093338.41604  24185068.319 4  94907366.49104  24185061.672 5 125937946.65805                                  24185061.054 4 102334875.04804  24185071.285 7  97383223.46507
C24  22181177.313 8 116562887.21408  22181177.805 6  87043722.35606  22181177.586 8 115503225.22208                                  22181175.082 6  93855829.65706  22181180.091 8  89314439.39208
C25  26356072.456 5 138502127.45405                                  26356072.012 5 137243021.99605                                                                  26356087.587 5 106125047.26205
C26  22144628.459 7 116370806.50907  22144631.161 5  86900286.71405  22144628.511 7 115312888.57807                                  22144628.194 6  93701165.35906  22144634.308 8  89167261.49308
C28  26833635.140 5                                                  26833637.167 5 139729789.02305
C33  24238962.965 7 127376623.66807  24238993.092 5  95119027.60705  24238963.287 7 126218658.98007                                  24238977.151 5 102563062.64605  24238996.207 7  97600406.94007
C42  21922507.193 8 115203551.87508  21922520.129 6  86028675.66406  21922507.126 8 114156245.37608                                  21922514.760 6  92761332.33806  21922522.939 8  88272914.74308
C43  26841215.145 5 141051489.95105                                  26841213.832 6
E02  26401472.660 6 138740673.53706                                                                  26401482.725 6 106307821.40206
E07  23830393.073 7 125229559.67907  23830389.926 5 101647356.55705  23830397.946 5  93515597.41405  23830400.115 8  95955145.25408  23830398.851 8  94735369.90308
E08  25790416.346 6 135529538.14006                                  25790421.306 4 101207132.02504  25790424.230 7 103847328.14707
E13  26888073.909 6 141297737.67906                                  26888084.689 4 105514566.87304  26888087.344 7 108267128.68407  26888086.387 6 106890841.34406
E26  25319720.335 7 133056014.53807  25319720.265 4 107999995.75704  25319724.415 5  99360017.33105  25319726.692 7 101952027.78107  25319725.613 7 100656015.63107
E27  26812371.592 6 140899996.53406                                                                  26812384.401 7 107962404.57107
E29  26167795.743 7 137512699.62207                                                                  26167803.651 7 105366906.05507
E30  25156098.333 6 132196204.45506                                  25156105.077 5  98717979.44905  25156107.041 8 101293234.00408  25156105.963 7 100005585.79207
E33  26627293.862 6 139927374.88306                                                                  26627302.509 6 107217114.16606
G02  23851644.089 7 125341197.20607  23851642.829 4  23851650.320 4  97668466.76004
G03  19985787.986 8 105026026.75508  19985787.624 9  19985793.350 9  81838483.82009  19985794.313 8  81838483.82308  19985790.585 6  78428536.56006
G04  21469069.399 7 112820729.52407  21469068.805 5  21469074.303 5  87912277.65205  21469074.979 7  87912278.65707  21469075.448 5  84249271.37705  21469069.475 7 112820730.52807
G07  24793227.036 6 130289307.18206  24793226.343 4  24793236.488 4 101524183.57304  24793236.308 6 101524204.59606
G09  23485274.861 6 123415964.14706  23485274.218 5  23485282.429 5  96168321.84605  23485283.985 6  96168327.85006  23485281.297 4
G16  21855780.978 6 114852930.85906  21855779.834 4  21855786.585 4  89495819.32704
G21  24717313.941 6 129890292.85906  24717312.435 2  24717323.810 2 101213224.67302
G26  21394201.391 6 112427291.94806  21394200.546 6  21394210.308 6  87605723.05406  21394210.701 7  87605720.05807  21394206.129 5  83955464.36105
G28  24320689.484 3                                                                  24320705.215 3                                                  24320690.533 3
G31  21536387.325 7 113174464.68107  21536386.722 6  21536391.826 6  88187899.23406  21536392.640 7  88187901.22607
R07  19958260.402 7 106838128.01307  19958260.302 7 106838129.03507  19958273.345 7  83096377.33307  19958273.485 7  83096379.33707
R08  22142135.791 7 118570137.11407  22142135.879 6 118570137.11806  22142150.412 6  92221287.78806  22142150.527 6  92221285.78006
R09  19440834.065 7 103812968.11807  19440834.304 7 103812972.11807  19440845.926 8  80743472.77108  19440845.690 8  80743471.77308  19440830.373 8  77948473.01308
R10  20298470.503 7 108202299.10207  20298470.263 7 108202299.11007
R22  23390506.072 7 124860065.43907  23390506.387 7 124860067.43207  23390522.206 6  97113431.11206  23390521.776 6  97113428.10106  23390507.563 6  93784741.66706
R23  22980893.368 6 122932255.08706  22980893.844 6 122932259.07406
S31  36911068.404 8 193968986.42908
S33  37043576.670 8 194665300.54408  37043556.353 5 145366870.93415
S35  36961557.289 8 194234290.75008
> 2024 11 23 17 38 30.0000000  0 38
C11                                                                  26863709.156 5 139886368.95405  26863725.280 5 108168988.10505
C14                                                                  22445835.309 8 116881358.54508  22445837.788 8  90380092.75408  22445830.115 6  94975658.39806
C21  24196143.948 4 127151569.78004  24196149.709 4  94950850.75804  24196142.948 4 125995648.75404                                  24196141.927 5 102381762.61305  24196152.284 7  97427842.17807
C24  22168973.872 8 116498757.39808  22168974.030 6  86995833.25006  22168973.938 8 115439678.41008                                  22168971.570 6  93804192.69906  22168976.492 8  89265301.01208
C25  26336904.039 5 138401397.47305                                  26336905.155 6 137143207.78406                                                                  26336918.763 5 106047864.91305
C26  22149887.541 7 116398443.94507  22149890.450 5  86920925.04505  22149887.694 7 115340274.76407                                  22149887.418 6  93723418.86006  22149893.491 8  89188438.22008
C28  26839834.428 5                                                  26839837.375 5 139762080.10705
C33  24225174.260 7 127304163.67507  24225204.275 5  95064917.91005  24225174.927 7 126146857.71707                                  24225188.549 5 102504718.27505  24225207.556 7  97544885.69207
C42  21920949.097 8 115195364.47708  21920961.975 6  86022561.70206  21920949.020 8 114148132.40308                                  21920956.771 6  92754739.89306  21920965.004 8  88266641.28108
C43  26853212.236 5 141114541.32205                                  26853210.827 4 139831719.01614                                                                  26853228.224 5 108126823.94215
E02  26407141.482 6 138770464.57206                                                                  26407151.332 6 106330648.27706
E07  23829605.029 7 125225417.74107  23829602.478 5 101643994.60005  23829609.664 6  93512504.44306  23829611.871 8  95951971.58908  23829610.647 8  94732236.58208
E08  25798199.423 6 135570440.29606                                  25798206.082 4 101237675.70704  25798207.564 7 103878668.66907
E13  26905047.947 6 141386935.42106                                  26905058.796 4 105581175.26404  26905061.366 7 108335474.70507  26905060.421 6 106958318.54306
E26  25328730.879 7 133103364.80707  25328731.014 4 108038429.37504  25328734.897 5  99395376.22305  25328737.239 7 101988309.08107  25328736.160 7 100691835.72307
E27  26795551.123 6 140811606.51606                                                                  26795564.020 7 107894677.39307
E29  26158861.564 7 137465749.71407                                                                  26158869.282 7 105330931.45907
E30  25147463.260 6 132150825.81606                                  25147469.760 5  98684092.92105  25147471.956 8 101258463.44508  25147470.651 8  99971257.23708
E33  26623085.152 6 139905256.25806                                                                  26623093.499 7 107200166.14107
G02  23866545.268 6 125419502.46406  23866543.999 4  23866551.287 4  97729483.62204
G03  19982834.827 8 105010506.94008  19982834.465 9  19982840.018 9  81826390.45709  19982840.972 8  81826390.45808  19982837.044 6  78416947.09306
G04  21460501.811 7 112775704.80807  21460501.208 5  21460506.634 5  87877193.50605  21460506.716 7  87877194.50707  21460507.779 5  84215649.08805  21460501.567 7 112775705.80707
G07  24777340.326 6 130205826.08706  24777339.602 4  24777349.717 4 101459133.49704  24777350.645 5 101459154.51405
G09  23471518.884 6 123343675.37006  23471518.263 5  23471526.613 5  96111992.98605  23471528.056 6  96111998.97306  23471524.877 5
G16  21841436.870 6 114777551.71106  21841435.748 4  21841441.986 4  89437082.42704
G21  24732006.063 6 129967503.54506  24732004.570 2  24732016.998 2 101273388.50502
G26  21394767.398 6 112430265.44206  21394766.558 6  21394776.300 6  87608040.05606  21394776.475 7  87608037.05807  21394772.288 5  83957684.80505
G28  24339223.782 3                                                                  24339232.515 3                                                  24339223.012 4
G31  21551798.935 7 113255453.26407  21551798.323 6  21551803.420 6  88251007.13606  21551804.241 7  88251009.13707
R07  19953441.397 7 106812330.58107  19953441.105 7 106812331.59007  19953454.059 7  83076312.66107  19953453.964 8  83076314.66008
R08  22126721.745 7 118487601.29807  22126722.916 6 118487601.30006  22126737.132 6  92157093.29906  22126737.435 7  92157091.28507
R09  19443332.826 7 103826309.73407  19443332.949 7 103826313.73507  19443344.543 8  80753849.62508  19443344.278 8  80753848.62308  19443328.558 8  77958490.67608
R10  20281098.466 7 108109695.28607  20281098.134 7 108109695.29407
R22  23408755.010 7 124957482.50107  23408755.477 6 124957484.48906  23408772.279 6  97189199.69306  23408772.661 6  97189196.68206  23408757.701 6  93857913.16206
R23  22989469.645 6 122978129.22506  22989469.209 6 122978133.21406
S31  36911072.249 8 193968998.24408
S33  37043576.934 8 194665310.23408
S35  36961546.136 8 194234229.62808
> 2024 11 23 17 39  0.0000000  0 38
C11                                                                  26876522.381 5 139953082.50105  26876536.484 5 108220574.86505
C14                                                                  22437098.795 8 116835864.10408  22437101.092 8  90344913.61708  22437093.285 6  94938690.48006
C21  24207269.472 4 127210031.58004  24207274.462 4  94994507.15804  24207271.681 5 126053579.02805                                  24207267.793 5 102428835.62705  24207277.416 7  97472637.43007
C24  22156841.808 8 116435002.52208  22156841.509 6  86948224.16206  22156841.718 8 115376503.12308                                  22156839.530 6  93752857.64306  22156844.313 8  89216449.92108
C25  26317741.948 5 138300703.77705                                  26317743.416 6 137043429.43306                                                                  26317757.808 5 105970710.20105
C26  22155232.933 7 116426533.01607  22155235.678 5  86941900.63505  22155232.853 7 115368108.47507                                  22155232.438 6  93746036.01706  22155238.492 8  89209960.99808
C28  26846096.054 4                                                  26846096.624 5 139794677.21505                                                                  26846109.713 5 108098156.03915
C33  24211394.487 7 127231750.37307  24211425.050 5  95010843.07405  24211395.204 7 126075102.72307                                  24211408.679 5 102446411.47505  24211427.619 7  97489400.21707
C42  21919441.738 8 115187443.30108  21919454.652 6  86016646.53006  21919441.802 8 114140283.23908                                  21919449.267 6  92748361.78406  21919457.740 8  88260571.79908
C43  26865196.564 6 141177511.34906                                  26865198.904 6 139894116.44106                                                                  26865211.753 6 108175073.54906
E02  26412885.481 5 138800651.55905                                                                  26412895.819 6 106353778.55706
E07  23828828.305 7 125221336.60707  23828825.617 5 101640682.00105  23828832.777 6  93509456.86506  23828835.215 8  95948844.50808  23828834.047 8  94729149.25308
E08  25805990.448 5 135611381.74105                                  25805996.933 5 101268248.77905  25805998.389 7 103910039.30007
E13  26922021.389 6 141476129.38306                                  26922032.456 4 105647780.84504  26922034.707 7 108403817.82707  26922033.756 6 107025792.88206
E26  25337805.716 7 133151052.88807  25337805.691 4 108077137.20704  25337809.555 5  99430987.38805  25337812.051 7 102024849.24507  25337810.969 7 100727911.38807
E27  26778735.069 6 140723238.38406                                                                  26778747.862 7 107826966.99607
E29  26149929.714 7 137418811.63107                                                                  26149937.195 7 105294965.94207
E30  25138893.311 6 132105789.50206                                  25138899.426 5  98650461.96605  25138901.932 8 101223955.18108  25138900.447 8  99937187.64308
E33  26618956.536 6 139883559.99506                                                                  26618964.983 7 107183541.71707
G02  23881459.058 7 125497873.21407  23881457.766 4  23881465.584 4  97790551.50304
G03  19979983.778 8 104995525.53908  19979983.416 9  19979989.216 9  81814716.63909  19979990.027 8  81814716.63808  19979986.042 6  78405759.68806
G04  21451954.537 7 112730788.47707  21451953.920 5  21451959.141 5  87842193.81905  21451959.234 7  87842194.82207  21451960.538 5  84182107.74005  21451954.302 7 112730789.48107
G07  24761487.287 6 130122515.16206  24761486.545 4  24761495.069 4 101394216.03504  24761498.031 5 101394237.04805
G09  23457765.967 6 123271406.23006  23457765.359 5  23457774.594 5  96055679.43005  23457775.628 6  96055685.44306  23457772.384 4
G16  21827170.973 6 114702584.76106  21827169.860 4  21827175.950 4  89378666.73804
G21  24746679.990 6 130044616.74406  24746678.573 2  24746692.112 2 101333476.39802
G26  21395450.154 6 112433851.86106  21395449.323 6  21395458.526 6  87610834.65906  21395459.025 7  87610831.65807  21395454.750 5  83960362.95705
G28  24357759.431 3                                                                  24357764.663 4                                                  24357758.598 3
G31  21567260.132 7 113336698.53207  21567259.524 6  21567264.149 6  88314315.04806  21567264.607 7  88314317.03907
R07  19948670.228 7 106786794.84307  19948670.863 7 106786795.84207  19948683.566 7  83056451.52707  19948683.603 7  83056453.53207
R08  22111305.023 7 118405047.06407  22111305.830 6 118405047.08106  22111320.882 6  92092884.48306  22111320.741 7  92092882.48607
R09  19445978.704 7 103840435.61407  19445978.571 7 103840439.62107  19445989.803 8  80764836.46208  19445989.663 8  80764835.46208  19445973.992 8  77969097.21708
R10  20263834.787 7 108017672.16307  20263834.496 7 108017672.16607
R22  23427029.106 7 125055027.99307  23427030.006 7 125055029.99407  23427046.106 6  97265068.13806  23427046.499 6  97265065.14006  23427031.659 6  93931181.12106
R23  22998156.208 6 123024597.09206  22998156.396 6 123024601.11806
S31  36911074.163 8 193969011.69808
S33  37043579.099 8 194665322.57808
S35  36961534.671 8 194234169.92608
