     2.11           OBSERVATION DATA    M (MIXED)           RINEX VERSION / TYPE
teqc  2019Feb25     NOAA/NOS/NGS/CORS   20241124 12:29:04UTCPGM / RUN BY / DATE
Linux 2.4.21-27.ELsmp|Opteron|gcc|Linux 64|=+               COMMENT
teqc  2019Feb25     NOAA/NOS/NGS/CORS   20241124 12:28:49UTCCOMMENT
teqc  2016Nov7      SOPAC               20241124 12:05:58UTCCOMMENT
      ------------------------------------------------      COMMENT
      SOPAC - Scripps Orbit and Permanent Array Center      COMMENT
    IGPP - Institute of Geophysics and Planetary Physics    COMMENT
         SIO - Scripps Institution of Oceanography          COMMENT
         UCSD - University of California, San Diego         COMMENT
              email: archive@gpsmail.ucsd.edu               COMMENT
                   ftp://garner.ucsd.edu                    COMMENT
                   http://sopac.ucsd.edu                    COMMENT
     The header coordinates are CSRC Epoch 2017.5 ITRF:     COMMENT
     (http://sopac-csrc.ucsd.edu/index.php/epoch2017/)      COMMENT
                   ---------------------                    COMMENT
Linux 2.4.20-8|Pentium IV|gcc -static|Linux|486/DX+         COMMENT
     2              OBSERVATION DATA                        COMMENT
Geodetics RTD 3.5 EV                    20241122 23:59:42UTCCOMMENT
SIO5                                                        MARKER NAME
40460M006                                                   MARKER NUMBER
Anne Sullivan       SOPAC                                   OBSERVER / AGENCY
618-01142           TPS NET-G3A         4.7p6               REC # / TYPE / VERS
383-1917            TPSCR.G3        SCIT                    ANT # / TYPE
 -2456114.4350 -4768907.0740  3439232.5510                  APPROX POSITION XYZ
        0.0083        0.0000        0.0000                  ANTENNA: DELTA H/E/N
     1     1                                                WAVELENGTH FACT L1/2
     5    L1    L2    P1    P2    C1                        # / TYPES OF OBSERV
    30.0000                                                 INTERVAL
teqc.e windowed: start @ 2024 Nov 23 00:00:00.000           COMMENT
teqc.e windowed: delta = 86400.000 sec                      COMMENT
teqc.e edited: all SBAS satellites excluded                 COMMENT
teqc.e edited: all QZSS satellites excluded                 COMMENT
    18                                                      LEAP SECONDS
Forced Modulo Decimation to 30 seconds                      COMMENT
  2024    11    23     0     0    0.0000000     GPS         TIME OF FIRST OBS
                                                            END OF HEADER
 24 11 23  0  0  0.0000000  0 17G17G22G19G14G07G30G02G21G15G13R20R22
                                R11R01R12R10R21
 142433950.969 9 110987560.501 8                  27104249.920    27104248.760
 145264542.063 9 113193199.932 6                  27642892.196    27642891.216
 154160300.346 7 120124943.190 4                  29335712.846    29335710.586
 142289775.455 8 110875198.675 6                  27076816.560    27076814.860
 150547927.137 8 117310090.126 6                  28648309.530    28648306.510
 142310535.031 9 110891388.975 9                  27080774.980    27080771.800
 158272361.903 6 123329131.037 4                  30118208.560    30118206.120
 160336956.189 6 124937867.414 2                  30511098.558    30511093.458
 158245429.381 6 123308171.211 4                  30113094.780    30113088.240
 146071293.256 8 113821817.488 6                  27796416.176    27796414.176
 159119629.273 6 123759729.489 6                  29756180.524    29756174.804
 152354343.749 8 118497882.428 6                  28541082.632    28541080.112
 145734515.694 9 113349092.344 8                  27272203.860    27272203.240
 149745279.326 8 116468593.507 5                  28012933.256    28012929.656
 148459036.190 9 115468206.828 7                  27791813.816    27791810.416
 162836695.879 6                                                  30547733.300
 146217428.045 9 113724697.431 7                  27324187.480    27324185.920
 24 11 23  0  0 30.0000000  0 17G17G22G19G14G07G30G02G21G15G13R20R22
                                R11R01R12R10R21
 142152731.608 9 110768428.610 8                  27050735.620    27050734.500
 145020298.656 9 113002880.426 6                  27596414.176    27596413.756
 153828115.775 7 119866098.279 4                  29272499.846    29272497.666
 142063195.221 9 110698642.661 6                  27033699.700    27033698.220
 150373078.625 8 117173844.497 6                  28615036.730    28615034.070
 142091913.196 9 110721034.312 9                  27039172.540    27039169.380
 158035798.058 7 123144795.673 4                  30073191.640    30073189.380
 160136420.980 6 124781606.269 2                  30472937.778    30472932.258
 157952766.214 6 123080122.172 4                  30057402.800    30057396.180
 145803930.472 9 113613482.902 6                  27745538.756    27745537.256
 158964080.630 5 123638747.161 6                  29727092.664    29727084.764
 152002913.708 8 118224548.153 6                  28475247.472    28475245.432
 145524754.946 9 113185945.123 8                  27232949.720    27232949.860
 149601237.217 8 116356560.645 5                  27985986.436    27985982.916
 148177359.946 9 115249125.396 7                  27739083.036    27739080.076
 162669679.285 6                                                  30516400.460
 145959890.062 9 113524390.165 7                  27276060.260    27276059.060
 24 11 23  0  1  0.0000000  0 17G17G22G19G14G07G30G02G21G15G13R20R22
                                R11R01R12R10R21
 142160239.543 9 110774279.024 9                  27052164.240    27052163.060
 145064495.588 8 113037319.623 6                  27604824.436    27604823.876
 153784356.278 7 119832000.176 4                  29264172.506    29264170.446
 142125034.158 9 110746828.860 6                  27045467.240    27045465.640
 150486776.659 8 117262440.346 6                  28636672.870    28636670.090
 142161893.384 9 110775564.347 9                  27052489.360    27052486.240
 158087935.761 7 123185422.555 4                  30083112.880    30083110.980
 160224620.081 6 124850332.924 2                  30489722.058    30489717.038
 157948819.648 6 123077047.100 4                  30056651.600    30056645.100
 145825355.346 9 113630177.659 5                  27749615.596    27749613.716
 159102399.574 5 123746328.537 5                  29752958.184    29752951.324
 151944499.911 8 118179115.408 6                  28464304.732    28464302.092
 145608193.614 9 113250841.889 8                  27248564.320    27248564.380
 149750808.768 8 116472893.980 5                  28013968.436    28013962.776
 148188730.815 9 115257969.492 7                  27741211.476    27741208.936
 162795050.221 6                                                  30539919.020
 145996629.523 9 113552965.355 7                  27282925.860    27282924.620
 24 11 23  0  1 30.0000000  0 16G17G22G19G14G07G30G02G21G15G13R22R11
                                R01R12R10R21
 142201556.810 9 110806474.371 8                  27060026.500    27060025.400
 145142212.467 8 113097878.261 6                  27619613.456    27619612.756
 153774104.970 7 119824012.348 4                  29262221.686    29262219.146
 142220373.000 8 110821118.892 6                  27063609.580    27063608.180
 150634103.060 8 117377240.110 6                  28664708.230    28664705.350
 142265557.992 9 110856341.974 9                  27072216.020    27072213.080
 158173856.883 6 123252374.178 4                  30099463.280    30099461.100
 160346634.540 6 124945409.185 2                  30512939.798    30512935.558
 157978672.661 6 123100309.360 4                  30062332.420    30062326.040
 145880649.896 8 113673264.374 6                  27760137.656    27760136.056
 151920159.952 8 118160184.540 6                  28459744.752    28459741.912
 145725612.259 9 113342167.520 8                  27270537.480    27270537.820
 149934679.529 8 116615904.447 5                  28048363.816    28048360.536
 148234020.049 9 115293194.543 7                  27749689.456    27749686.896
 162954227.265 6                                                  30569780.600
 146068064.230 9 113608525.743 7                  27296275.120    27296274.060
 24 11 23  0  2  0.0000000  0 16G17G22G19G14G07G30G02G21G15G13R22R11
                                R01R12R10R21
 142201056.165 9 110806084.334 8                  27059931.220    27059930.080
 145177820.370 9 113125624.707 6                  27626389.356    27626388.736
 153721735.628 8 119783205.257 4                  29252255.706    29252253.806
 142273582.731 8 110862581.050 6                  27073735.060    27073733.660
 150739429.232 8 117459312.417 6                  28684751.190    28684748.670
 142327279.621 9 110904436.758 9                  27083961.260    27083958.180
 158217934.095 7 123286720.161 4                  30107850.860    30107849.100
 160426835.583 6 125007903.572 2                  30528201.058    30528197.118
 157966698.248 6 123090978.835 4                  30060053.700    30060047.720
 145894187.504 9 113683813.214 6                  27762713.896    27762712.036
 151853075.132 8 118108007.638 6                  28447177.912    28447174.412
 145800107.517 9 113400108.300 7                  27284478.420    27284478.020
 150075913.623 8 116725753.068 5                  28074785.636    28074780.956
 148236350.255 9 115295007.009 7                  27750125.776    27750123.556
 163070496.793 5                                                  30591591.976
 146097183.689 9 113631174.266 7                  27301716.560    27301715.640
 24 11 23  0  2 30.0000000  0 16G17G22G19G14G07G30G02G21G15G13R22R11
                                R01R12R10R21
 142303237.101 9 110885705.918 8                  27079375.520    27079374.440
 145315816.763 9 113233154.387 6                  27652649.016    27652648.516
 153771748.998 7 119822176.905 4                  29261772.706    29261770.886
 142429160.909 8 110983810.828 6                  27103340.520    27103338.840
 150947253.475 8 117621253.359 6                  28724298.730    28724296.070
 142491557.382 9 111032445.414 9                  27115222.320    27115219.420
 158364666.701 7 123401057.371 4                  30135772.960    30135771.300
 160609720.602 6 125150411.434 2                  30563003.618    30562998.658
 158057396.808 6 123161653.211 4                  30077312.760    30077306.200
 146010467.744 9 113774421.243 6                  27784841.276    27784839.316
 151890031.598 8 118136751.739 6                  28454100.092    28454097.612
 145978615.889 9 113538948.172 8                  27317883.600    27317883.340
 150321494.084 8 116916759.975 5                  28120727.236    28120722.616
 148342606.159 9 115377650.577 7                  27770017.196    27770014.076
 163290433.084 5                                                  30632851.696
 146231131.799 9 113735356.179 7                  27326748.180    27326746.920
 24 11 23  0  3  0.0000000  0 16G17G22G19G14G07G30G02G21G15G13R22R11
                                R01R12R10R21
 142063959.978 8 110699256.288 8                  27033842.440    27033841.420
 145112059.757 8 113074382.718 6                  27613875.556    27613874.916
 153480006.421 7 119594845.211 4                  29206255.886    29206254.186
 142242966.771 9 110838724.519 6                  27067908.940    27067907.340
 150813436.117 8 117516980.070 6                  28698834.190    28698831.730
 142314252.175 9 110894285.522 9                  27081482.240    27081479.240
 158169915.273 6 123249303.131 4                  30098713.000    30098710.200
 160451149.550 6 125026849.651 2                  30532828.958    30532823.138
 157806629.545 6 122966250.332 4                  30029593.120    30029586.140
 145785351.704 8 113599006.196 6                  27742002.976    27742001.036
 151579875.149 9 117895519.136 6                  28395997.072    28395994.812
 145809504.357 9 113407416.993 7                  27286236.740    27286236.980
 150219625.429 8 116837528.699 5                  28101669.836    28101665.916
 148101312.401 9 115189977.731 7                  27724846.436    27724843.196
 163163514.430 6                                                  30609042.796
 146017641.807 9 113569308.470 7                  27286852.320    27286851.100
 24 11 23  0  3 30.0000000  0 16G17G22G19G14G07G30G02G21G15G13R22R11
                                R01R12R10R21
 142099151.579 8 110726678.392 9                  27040539.300    27040538.080
 145182474.360 8 113129251.273 6                  27627274.916    27627274.256
 153462436.496 7 119581154.541 4                  29202912.546    29202909.726
 142330924.684 8 110907263.188 6                  27084646.620    27084645.060
 150953901.410 8 117626433.515 6                  28725563.750    28725560.770
 142411289.829 9 110969899.285 9                  27099947.860    27099944.900
 158249606.322 6 123311400.165 4                  30113877.860    30113875.160
 160567046.246 6 125117158.845 2                  30554883.878    30554877.618
 157830324.003 6 122984713.712 4                  30034101.720    30034095.220
 145834765.943 9 113637510.849 6                  27751406.076    27751404.776
 151548268.974 8 117870936.756 6                  28390076.332    28390073.952
 145919090.172 9 113492650.431 8                  27306744.620    27306744.120
 150396838.421 8 116975360.897 5                  28134820.436    28134816.856
 148138566.644 9 115218953.343 7                  27731820.496    27731817.656
 163314518.211 6                                                  30637370.916
 146083912.026 9 113620852.028 7                  27299236.440    27299235.340
 24 11 23  0  4  0.0000000  0 16G17G22G19G14G07G30G02G21G15G13R22R11
                                R01R12R10R21
 142022671.530 9 110667083.626 8                  27025985.480    27025984.200
 145140918.399 9 113096870.037 6                  27619366.956    27619366.476
 153332899.830 7 119480217.043 4                  29178262.066    29178260.446
 142306892.969 8 110888537.204 6                  27080073.380    27080071.940
 150982508.746 7 117648724.919 6                  28731007.770    28731005.130
 142396530.258 9 110958398.328 9                  27097139.180    27097136.240
 158217599.362 7 123286459.783 4                  30107786.840    30107784.540
 160571269.274 6 125120449.589 3                  30555686.598    30555681.858
 157742340.713 6 122916155.480 4                  30017358.800    30017352.180
 145772570.297 9 113589046.762 6                  27739570.496    27739569.036
 151402974.501 9 117757930.117 6                  28362857.012    28362855.052
 145914718.397 9 113489250.183 7                  27305926.520    27305925.820
 150460335.712 8 117024747.555 5                  28146700.736    28146695.316
 148061850.158 9 115159285.046 7                  27717458.696    27717456.016
 163351754.774 6                                                  30644355.416
 146036736.102 9 113584159.692 7                  27290420.260    27290419.360
 24 11 23  0  4 30.0000000  0 16G17G22G19G14G07G30G02G21G15G13R22R11
                                R01R12R10R21
 142060867.539 9 110696846.831 8                  27033253.800    27033252.560
 145213736.774 9 113153611.661 6                  27633223.936    27633223.336
 153317744.755 7 119468408.063 4                  29175377.746    29175375.866
 142397216.896 8 110958919.523 6                  27097261.560    27097260.000
 151125603.411 7 117760227.223 6                  28758237.510    28758234.970
 142496320.223 9 111036156.751 9                  27116128.660    27116125.560
 158300241.230 7 123350856.148 4                  30123512.680    30123511.280
 160690164.307 6 125213095.147 2                  30578311.878    30578306.298
 157769027.496 6 122936950.544 4                  30022436.780    30022430.220
 145825112.065 9 113629988.449 6                  27749569.076    27749567.356
 151373919.229 9 117735331.765 6                  28357413.812    28357411.752
 146026553.865 9 113576233.349 8                  27326854.860    27326854.060
 150640357.915 8 117164764.711 5                  28180377.096    28180372.216
 148101247.436 9 115189927.462 7                  27724833.916    27724831.416
 163504823.530 6                                                  30673070.376
 146106603.662 9 113638501.190 7                  27303476.540    27303476.040
 24 11 23  0  5  0.0000000  0 16G17G22G19G14G07G30G02G21G15G13R22R11
                                R01R12R10R21
 141881479.549 8 110557064.059 9                  26999117.300    26999116.200
 145068667.915 9 113040571.026 6                  27605618.196    27605617.576
 153084712.566 7 119286824.699 4                  29131033.186    29131031.606
 142269635.476 8 110859505.468 6                  27072983.640    27072982.200
 151050925.726 8 117702036.784 6                  28744026.830    28744024.330
 142378400.304 9 110944271.108 9                  27093689.240    27093685.960
 158165272.273 7 123245685.626 4                  30097829.100    30097827.280
 160591470.208 6 125136190.735 2                  30559529.678    30559525.478
 157578125.263 6 122788195.727 4                  29986109.140    29986102.820
 145660131.950 9 113501432.560 6                  27718174.436    27718172.516
 151123596.775 9 117540636.710 6                  28310519.952    28310517.752
 145916731.181 9 113490815.710 8                  27306302.960    27306302.360
 150598916.199 8 117132532.139 5                  28172624.736    28172620.236
 147919010.668 9 115048187.844 7                  27690718.716    27690716.016
 163436689.847 5                                                  30660288.556
 145955175.035 9 113520723.435 7                  27275178.820    27275177.800
 24 11 23  0  5 30.0000000  0 16G17G22G19G14G07G30G02G21G15G13R22R11
                                R01R12R10R21
 141667767.517 8 110390535.277 9                  26958449.222    26958448.242
 144888969.943 9 112900546.674 6                  27571422.878    27571422.258
 152817064.766 8 119078268.123 5                  29080101.586    29080099.466
 142107406.972 8 110733093.681 6                  27042112.660    27042110.920
 150941734.127 7 117616952.392 6                  28723248.410    28723245.450
 142226030.277 9 110825541.219 9                  27064694.120    27064690.900
 157995952.395 7 123113748.147 4                  30065608.460    30065606.800
 160458445.078 6 125032534.870 2                  30534216.398    30534211.238
 157352895.110 6 122612691.872 4                  29943249.182    29943243.102
 145460890.107 9 113346179.217 6                  27680259.996    27680258.356
 150838166.712 9 117318635.741 6                  28257049.152    28257047.332
 145771601.773 9 113377937.300 8                  27279143.780    27279143.420
 150522422.021 8 117073036.546 5                  28158315.296    28158310.616
 147701425.267 9 114878954.830 7                  27649986.256    27649983.576
 163333247.199 5                                                  30640883.376
 145769064.037 9 113375970.483 7                  27240399.360    27240398.820
 24 11 23  0  6  0.0000000  0 16G17G22G19G14G07G30G02G21G15G13R22R11
                                R01R12R10R21
 141689528.645 9 110407492.078 8                  26962590.102    26962588.902
 144944437.699 9 112943768.343 6                  27581977.936    27581977.536
 152784600.602 7 119052971.542 5                  29073923.648    29073921.628
 142180326.585 8 110789914.194 6                  27055988.680    27055987.140
 151067824.139 8 117715204.313 6                  28747242.790    28747239.870
 142309006.733 9 110890198.200 9                  27080484.080    27080480.720
 158062078.151 7 123165274.790 4                  30078191.520    30078189.520
 160560884.023 6 125112357.491 2                  30553709.778    30553704.758
 157363134.818 6 122620671.014 4                  29945197.602    29945191.742
 145497183.615 8 113374459.916 6                  27687166.096    27687164.456
 150791693.141 9 117282489.817 6                  28248343.172    28248340.932
 145865513.677 9 113450979.915 7                  27296717.860    27296718.320
 150685314.118 8 117199730.277 5                  28188786.712    28188782.632
 147722743.126 9 114895535.467 7                  27653976.276    27653974.116
 163468168.942 5                                                  30666193.716
 145823005.220 9 113417924.789 7                  27250479.380    27250478.580
 24 11 23  0  6 30.0000000  0 17G17G22G19G14G07G30G02G21G15G13R20R22
                                R11R01R12R10R21
 141788242.689 9 110484412.188 8                  26981374.720    26981373.820
 145076549.591 9 113046712.723 6                  27607117.796    27607117.176
 152828800.665 8 119087413.312 5                  29082334.766    29082332.886
 142329872.758 9 110906443.710 6                  27084446.280    27084444.880
 151270674.635 8 117873269.606 6                  28785843.868    28785841.368
 142468809.637 9 111014719.945 9                  27110893.700    27110890.420
 158205129.534 7 123276743.478 4                  30105413.240    30105411.120
 160740265.205 6 125252135.106 2                  30587844.596    30587840.196
 157450324.921 6 122688611.495 4                  29961789.382    29961782.582
 145610492.848 8 113462752.865 6                  27708728.216    27708726.356
 160164354.230 5 124572290.237 5                  29951547.604    29951540.804
 150823154.629 9 117306960.048 6                  28254236.972    28254234.492
 146037272.332 9 113584569.993 8                  27328860.140    27328860.380
 150926336.625 8 117387192.096 5                  28233876.192    28233871.132
 147821825.358 9 114972599.505 7                  27672525.316    27672523.036
 163680657.085 5                                                  30706056.776
 145955577.750 9 113521036.810 7                  27275253.660    27275252.620
 24 11 23  0  7  0.0000000  0 17G17G22G19G14G07G30G02G21G15G13R20R22
                                R11R01R12R10R21
 141655987.231 9 110381356.056 9                  26956207.282    26956206.262
 144977381.301 8 112969438.774 6                  27588246.656    27588246.196
 152641743.597 8 118941654.713 5                  29046738.588    29046736.828
 142248121.813 8 110842741.708 6                  27068889.580    27068888.000
 151242363.061 8 117851208.608 6                  28780456.448    28780453.708
 142397516.836 9 110959167.117 9                  27097327.100    27097323.580
 158117184.290 7 123208214.792 4                  30088677.620    30088675.540
 160688665.237 6 125211927.416 2                  30578025.918    30578020.558
 157306543.643 6 122576574.269 4                  29934428.262    29934422.102
 145492895.338 9 113371118.487 6                  27686350.196    27686348.416
 160160882.430 5 124569596.943 5                  29950898.004    29950890.684
 150619766.753 9 117148769.660 6                  28216134.652    28216132.812
 145973760.326 9 113535171.774 7                  27316974.780    27316974.740
 150932257.515 8 117391797.122 5                  28234983.072    28234978.992
 147685663.568 9 114866695.987 7                  27647035.476    27647032.396
 163658364.056 5                                                  30701874.756
 145853224.598 9 113441428.855 7                  27256126.380    27256125.620
 24 11 23  0  7 30.0000000  0 17G17G22G19G14G07G30G02G21G15G13R20R22
                                R11R01R12R10R21
 141553043.832 9 110301140.490 8                  26936617.722    26936616.722
 144907212.145 8 112914761.559 6                  27574893.898    27574893.338
 152483712.271 8 118818513.585 5                  29016666.008    29016664.448
 142195353.269 8 110801623.389 6                  27058848.040    27058846.600
 151243169.028 7 117851836.600 6                  28780609.948    28780606.828
 142355409.222 9 110926355.991 9                  27089314.180    27089311.080
 158058522.996 7 123162504.767 4                  30077515.160    30077513.060
 160666363.261 6 125194549.320 2                  30573781.098    30573777.638
 157192073.139 6 122487376.613 4                  29912645.082    29912639.862
 145404672.460 8 113302373.437 6                  27669561.976    27669559.976
 160187250.051 5 124590105.190 5                  29955829.284    29955821.904
 150445927.374 8 117013561.429 6                  28183568.252    28183566.432
 145939649.583 9 113508641.205 7                  27310591.520    27310591.200
 150967836.094 8 117419469.213 5                  28241638.852    28241634.852
 147578836.511 9 114783608.361 7                  27627037.036    27627034.336
 163665310.672 5                                                  30703177.576
 145780990.041 9 113385246.462 7                  27242627.740    27242626.580
 24 11 23  0  8  0.0000000  0 18G17G22G19G14G07G30G02G21G15G13R03R20
                                R22R11R01R12R10R21
 141525200.927 9 110279444.788 9                  26931319.402    26931318.202
 144911829.153 9 112918359.279 6                  27575772.438    27575771.838
 152400497.032 8 118753670.698 5                  29000830.768    29000829.068
 142217354.403 8 110818767.156 6                  27063034.680    27063033.220
 151318880.179 8 117910832.273 6                  28795017.508    28795014.468
 142388275.462 9 110951966.048 9                  27095568.420    27095565.100
 158074934.511 6 123175293.032 4                  30080637.940    30080635.740
 160719146.602 6 125235679.270 2                  30583826.116    30583820.816
 157152702.960 6 122456698.682 4                  29905153.102    29905147.522
 145391613.442 9 113292197.613 6                  27667076.756    27667075.096
 164065869.505 6 127606791.964 5                  30648887.856    30648881.796
 160290039.322 5 124670052.392 5                  29975051.364    29975043.264
 150348152.736 9 116937514.661 6                  28165252.036    28165250.476
 145981501.034 9 113541192.350 7                  27318423.100    27318423.220
 151079644.112 8 117506430.897 5                  28262555.332    28262550.392
 147547888.493 9 114759537.759 7                  27621242.996    27621240.816
 163747944.411 5                                                  30718680.136
 145785500.922 9 113388754.975 7                  27243470.800    27243469.780
 24 11 23  0  8 30.0000000  0 18G17G22G19G14G07G30G02G21G15G13R03R20
                                R22R11R01R12R10R21
 141537310.826 9 110288881.132 9                  26933623.642    26933622.922
 144956082.522 9 112952842.478 6                  27584193.416    27584193.096
 152356951.047 7 118719738.931 5                  28992543.928    28992542.168
 142278975.932 9 110866783.954 6                  27074760.800    27074759.600
 151434347.655 8 118000806.899 6                  28816990.168    28816987.268
 142460967.718 9 111008609.365 9                  27109401.280    27109397.980
 158131270.767 6 123219191.485 4                  30091358.140    30091356.100
 160811865.623 6 125307927.926 2                  30601469.496    30601464.376
 157153286.521 6 122457153.528 4                  29905264.042    29905258.422
 145418570.502 9 113313203.154 6                  27672206.376    27672204.496
 164032474.706 7 127580818.429 5                  30642651.456    30642644.256
 160433481.431 5 124781622.733 5                  30001877.100    30001869.280
 150290743.348 9 116892863.108 6                  28154497.796    28154496.016
 146063573.508 9 113605026.505 7                  27333782.100    27333782.060
 151231923.172 8 117624870.023 5                  28291041.792    28291037.472
 147557090.363 9 114766694.847 7                  27622965.836    27622963.276
 163870611.501 5                                                  30741690.616
 145830966.393 9 113424117.054 7                  27251966.700    27251966.120
 24 11 23  0  9  0.0000000  0 18G17G22G19G14G07G30G02G21G15G13R03R20
                                R22R11R01R12R10R21
 141549043.176 9 110298023.290 9                  26935856.222    26935855.402
 144999640.163 8 112986783.555 6                  27592482.056    27592481.876
 152312745.683 7 118685293.371 5                  28984131.528    28984130.088
 142339886.125 9 110914246.465 6                  27086351.620    27086350.180
 151549240.195 8 118090333.515 6                  28838853.648    28838850.488
 142533155.709 9 111064859.744 9                  27123138.140    27123135.040
 158187201.363 7 123262773.839 4                  30102001.320    30101999.660
 160904188.693 6 125379868.058 2                  30619037.656    30619033.696
 157153493.433 6 122457314.881 4                  29905303.162    29905297.842
 145445213.561 9 113333964.020 6                  27677276.336    27677274.516
 163998662.664 7 127554520.381 5                  30636332.176    30636327.416
 160576541.092 5 124892890.662 5                  30028628.140    30028621.700
 150232735.434 9 116847746.032 6                  28143630.496    28143628.736
 146144856.226 9 113668246.411 7                  27348993.120    27348993.020
 151383642.770 8 117742874.050 5                  28319424.552    28319419.712
 147565445.192 9 114773193.134 7                  27624529.516    27624527.096
 163992402.522 5                                                  30764538.376
 145876318.344 9 113459390.839 7                  27260442.000    27260440.920
 24 11 23  0  9 30.0000000  0 17G17G22G19G14G07G30G02G21G15G13R03R20
                                R22R11R01R12R21
 141526639.922 9 110280566.277 9                  26931592.862    26931591.842
 145008742.586 8 112993876.411 6                  27594214.096    27594213.776
 152234124.427 8 118624030.235 5                  28969170.588    28969168.368
 142366325.586 8 110934848.658 6                  27091382.900    27091381.360
 151629798.953 8 118153106.536 6                  28854183.228    28854180.708
 142571081.308 9 111094412.158 9                  27130355.020    27130352.060
 158208968.024 7 123279734.942 4                  30106143.560    30106141.600
 160962356.031 6 125425193.328 2                  30630106.816    30630102.296
 157119566.701 6 122430878.577 4                  29898847.082    29898841.362
 145437784.717 9 113328175.351 6                  27675862.576    27675860.936
 163930048.311 6 127501153.899 5                  30623518.416    30623509.916
 160684849.829 5 124977130.442 5                  30048882.300    30048875.300
 150139841.271 9 116775495.199 6                  28126227.456    28126226.196
 146191021.572 9 113704152.797 7                  27357632.100    27357631.920
 151500457.917 8 117833730.128 5                  28341276.632    28341273.592
 147538636.879 9 114752342.315 6                  27619511.096    27619508.576
 145887180.803 9 113467839.463 7                  27262471.880    27262470.660
 24 11 23  0 10  0.0000000  0 17G17G22G19G14G07G30G02G21G15G13R03R20
                                R22R11R01R12R21
 141397738.318 9 110180123.532 9                  26907063.682    26907062.902
 144911025.120 9 112917732.986 6                  27575619.058    27575618.838
 152048725.594 7 118479563.783 5                  28933889.808    28933888.188
 142285930.107 8 110872202.844 6                  27076084.160    27076082.500
 151603660.047 7 118132738.520 6                  28849209.328    28849206.788
 142502381.772 9 111040880.057 9                  27117281.840    27117279.080
 158124207.941 7 123213688.195 4                  30090014.260    30090012.480
 160914003.010 6 125387515.713 2                  30620905.396    30620901.036
 156979144.260 6 122321458.602 4                  29872125.442    29872120.702
 145323921.270 8 113239450.624 6                  27654195.116    27654193.756
 163752921.792 6 127363389.016 5                  30590425.736    30590419.416
 160684771.329 5 124977071.632 5                  30048868.240    30048862.160
 149938558.371 9 116618942.003 6                  28088520.196    28088518.916
 146128485.531 9 113655513.658 7                  27345929.220    27345929.180
 151508753.861 8 117840182.396 5                  28342829.932    28342825.272
 147403106.664 9 114646930.027 7                  27594139.296    27594137.256
 145789866.947 9 113392150.948 7                  27244286.380    27244285.380
 24 11 23  0 10 30.0000000  0 16G17G22G19G14G07G30G02G21G15G13R03R22
                                R11R01R12R21
 141323074.993 9 110121944.387 9                  26892855.682    26892855.322
 144867222.796 9 112883601.355 6                  27567283.658    27567283.738
 151917287.461 8 118377144.652 5                  28908878.268    28908876.488
 142259434.801 8 110851557.164 6                  27071042.380    27071040.400
 151631558.852 8 118154477.806 6                  28854518.128    28854515.488
 142487793.492 9 111029512.563 9                  27114505.840    27114502.440
 158093657.338 7 123189882.608 4                  30084200.520    30084198.560
 160919864.298 6 125392083.014 2                  30622020.716    30622016.196
 156892963.552 6 122254304.914 4                  29855725.682    29855719.862
 145264360.002 9 113193039.285 6                  27642860.756    27642859.456
 163631020.842 6 127268577.302 5                  30567656.480    30567648.060
 149792167.199 9 116505082.406 6                  28061096.756    28061095.116
 146120696.636 9 113649455.650 7                  27344471.460    27344471.640
 151572030.835 8 117889397.689 5                  28354666.932    28354662.292
 147322245.254 9 114584037.913 7                  27579001.780    27579000.200
 145748054.490 9 113359630.184 7                  27236472.140    27236471.540
 24 11 23  0 11  0.0000000  0 16G17G22G19G14G07G30G02G21G15G13R03R22
                                R11R01R12R21
 141292714.700 9 110098287.080 9                  26887078.262    26887077.382
 144867398.661 8 112883738.440 6                  27567317.418    27567317.018
 151829876.701 8 118309032.550 5                  28892243.708    28892242.448
 142276903.493 8 110865169.140 6                  27074366.480    27074364.740
 151703559.756 8 118210582.359 6                  28868219.808    28868216.788
 142517381.572 9 111052568.214 9                  27120136.420    27120133.280
 158107381.268 7 123200576.649 4                  30086811.700    30086810.060
 160970003.916 6 125431152.913 2                  30631561.756    30631557.216
 156851090.428 6 122221676.610 4                  29847757.682    29847751.922
 145249166.065 9 113181199.893 6                  27639969.316    27639968.116
 163554227.795 7 127208849.573 5                  30553309.520    30553301.260
 149690579.769 9 116426070.163 6                  28042064.896    28042063.596
 146157551.733 9 113678120.748 7                  27351368.780    27351368.940
 151680177.405 7 117973511.549 5                  28374897.612    28374893.252
 147285952.920 9 114555810.648 7                  27572207.500    27572205.640
 145751627.054 9 113362408.891 7                  27237139.880    27237139.280
 24 11 23  0 11 30.0000000  0 16G17G22G19G14G07G30G02G21G15G13R03R22
                                R11R01R12R21
 141291827.448 9 110097595.774 9                  26886909.362    26886908.702
 144896720.721 9 112906586.843 6                  27572897.178    27572896.498
 151771664.169 8 118263672.321 5                  28881166.268    28881165.188
 142323504.380 8 110901481.538 6                  27083234.300    27083232.540
 151804830.890 8 118289494.884 6                  28887491.048    28887488.068
 142576315.623 9 111098490.854 9                  27131351.300    27131347.840
 158150549.290 7 123234214.135 4                  30095026.420    30095024.500
 161049589.444 6 125493167.670 2                  30646706.576    30646702.056
 156838695.402 6 122212018.259 4                  29845398.582    29845392.282
 145263509.564 8 113192376.680 6                  27642698.816    27642697.176
 163507438.376 7 127172457.908 5                  30544569.540    30544561.780
 149618735.172 9 116370191.221 6                  28028606.396    28028604.536
 146223970.515 9 113729779.818 7                  27363797.900    27363797.860
 151818102.310 8 118080786.342 5                  28400700.192    28400695.092
 147279153.917 9 114550522.637 7                  27570934.980    27570932.520
 145785482.517 9 113388740.955 7                  27243466.880    27243465.960
 24 11 23  0 12  0.0000000  0 16G17G22G19G14G07G30G02G21G15G13R03R22
                                R11R01R12R21
 141358363.084 9 110149441.787 9                  26899570.662    26899569.882
 144993137.185 8 112981716.592 6                  27591244.736    27591244.036
 151780601.185 8 118270636.412 5                  28882866.628    28882865.368
 142437186.037 8 110990064.662 6                  27104867.180    27104865.480
 151973321.415 7 118420786.166 6                  28919553.568    28919550.588
 142702545.440 9 111196851.748 9                  27155372.100    27155368.760
 158261110.646 7 123320365.910 4                  30116065.520    30116063.660
 161196568.974 6 125607697.235 2                  30674675.836    30674670.896
 156893728.877 6 122254901.598 4                  29855871.042    29855865.562
 145345339.875 9 113256140.600 6                  27658270.756    27658269.176
 163529312.470 7 127189471.248 5                  30548653.720    30548648.040
 149615186.870 9 116367431.643 6                  28027941.636    28027939.376
 146358543.277 9 113834447.536 7                  27388981.720    27388981.820
 152024404.011 8 118241243.081 5                  28439292.412    28439289.192
 147340424.310 9 114598177.491 7                  27582405.016    27582402.456
 145888265.170 9 113468683.060 7                  27262674.400    27262673.460
 24 11 23  0 12 30.0000000  0 16G17G22G19G14G07G30G02G21G15G13R03R22
                                R11R01R12R21
 141316050.771 9 110116471.221 9                  26891518.782    26891517.822
 144980376.156 9 112971772.978 6                  27588816.176    27588815.716
 151680418.915 8 118192572.494 5                  28863802.668    28863801.128
 142441676.938 9 110993564.091 6                  27105721.720    27105720.500
 152032760.307 7 118467102.145 6                  28930864.448    28930861.988
 142719800.864 9 111210297.535 9                  27158655.620    27158652.200
 158262795.121 6 123321678.548 4                  30116385.740    30116383.860
 161234670.635 6 125637386.904 2                  30681926.616    30681921.296
 156839921.247 6 122212973.673 4                  29845631.722    29845626.382
 145318387.119 8 113235138.497 6                  27653141.796    27653140.316
 163440294.279 7 127120234.983 5                  30532024.960    30532018.280
 149500883.008 9 116278528.839 6                  28006528.276    28006526.896
 146382025.297 9 113852711.350 8                  27393375.860    27393376.000
 152119770.304 8 118315416.728 5                  28457134.072    28457128.912
 147290582.075 9 114559411.411 7                  27573074.360    27573071.800
 145880478.909 9 113462627.121 7                  27261218.900    27261218.460
 24 11 23  0 13  0.0000000  0 16G17G22G19G14G07G30G02G21G15G13R03R22
                                R11R01R12R21
 141204238.380 9 110029344.744 9                  26870241.482    26870240.702
 144897783.778 9 112907415.322 6                  27573099.278    27573098.938
 151510466.546 8 118060142.255 5                  28831461.148    28831459.908
 142376323.461 8 110942639.325 6                  27093285.320    27093283.960
 152022494.104 7 118459102.463 6                  28928910.988    28928908.148
 142667429.467 9 111169488.658 9                  27148689.580    27148686.440
 158194950.325 7 123268812.538 4                  30103475.380    30103473.520
 161203240.953 6 125612896.309 2                  30675944.956    30675940.516
 156716620.986 6 122116895.646 4                  29822168.562    29822162.682
 145221999.282 9 113160031.128 6                  27634799.676    27634798.356
 163280467.321 7 126995925.252 5                  30502167.600    30502161.500
 149315796.908 9 116134573.191 6                  27971855.256    27971854.036
 146334428.680 9 113815691.767 7                  27384469.080    27384468.980
 152144221.180 8 118334433.934 5                  28461707.152    28461703.412
 147169624.351 9 114465333.296 7                  27550430.600    27550427.920
 145802191.335 9 113401736.831 7                  27246589.060    27246588.480
 24 11 23  0 13 30.0000000  0 17G17G22G19G14G07G30G02G21G15G13R03R20
                                R22R11R01R12R21
 142918233.749 9 111364925.609 9                  27196403.960    27196403.300
 146640665.176 8 114265504.768 6                  27904758.514    27904758.194
 153166055.554 8 119350211.800 5                  29146509.286    29146508.246
 144136430.390 9 112314151.238 6                  27428222.458    27428221.158
 153837825.580 8 119873646.423 6                  29274357.206    29274354.266
 144440736.801 9 112551286.582 9                  27486138.738    27486135.498
 159952881.992 7 124638629.485 4                  30437998.618    30437996.878
 162997582.144 6 127011084.342 2                  31017395.994    31017390.894
 158419137.072 6 123443531.666 4                  30146146.660    30146140.640
 146951483.356 9 114507681.099 6                  27963909.814    27963907.994
 164980505.236 7 128318177.074 5                  30819748.476    30819743.716
 163148865.313 5 126893583.417 5                  30509666.640    30509659.160
 150985190.154 9 117432990.369 6                  28284588.412    28284587.372
 148143035.091 9 115222385.653 8                  27722925.056    27722925.156
 154025707.610 7 119797812.115 5                  28813679.108    28813674.368
 148904159.217 9 115814416.061 7                  27875139.196    27875136.036
 147583392.643 9 114787115.674 8                  27579449.160    27579447.920
 24 11 23  0 14  0.0000000  0 16G17G22G19G14G07G30G02G21G15G13R03R22
                                R11R01R12R21
 141478147.710 9 110242780.707 9                  26922364.482    26922363.782
 145229132.425 9 113165609.159 6                  27636152.756    27636152.296
 151667292.160 8 118182344.406 5                  28861304.008    28861303.088
 142742112.116 8 111227669.488 6                  27162892.520    27162890.980
 152498875.245 7 118830308.455 6                  29019563.128    29019560.348
 143059839.832 9 111475262.974 9                  27223362.780    27223359.400
 158556705.148 7 123550699.540 4                  30172314.780    30172313.040
 161637812.325 6 125951523.522 2                  30758640.936    30758636.956
 156967579.753 6 122312448.139 4                  29869924.362    29869918.722
 145526951.875 8 113397656.612 6                  27692830.456    27692828.696
 163467606.431 7 127141478.130 5                  30537126.220    30537120.020
 149450484.959 9 116239330.968 6                  27997086.656    27997085.056
 146743943.657 9 114134203.443 7                  27461104.100    27461104.040
 152698552.645 7 118765580.334 5                  28565407.672    28565401.472
 147432054.988 9 114669446.205 7                  27599557.976    27599555.316
 146153065.489 9 113674639.039 7                  27312158.000    27312157.320
 24 11 23  0 14 30.0000000  0 17G17G22G19G14G07G30G02G21G15G13R03R13
                                R22R11R01R12R21
 141400170.848 9 110182019.573 9                  26907525.882    26907525.322
 145179371.974 8 113126834.818 6                  27626683.596    27626683.056
 151530374.284 8 118075655.335 5                  28835249.068    28835247.988
 142709553.876 9 111202299.458 6                  27156696.760    27156695.380
 152521823.320 8 118848190.031 6                  29023930.048    29023927.308
 143040923.761 9 111460523.183 9                  27219763.180    27219760.060
 158522606.411 7 123524129.153 4                  30165825.900    30165824.180
 161640112.754 6 125953316.142 2                  30759078.236    30759074.696
 156878141.832 6 122242756.355 4                  29852904.642    29852898.282
 145464594.587 9 113349066.551 6                  27680963.936    27680962.356
 163342227.386 7 127043961.254 5                  30513704.600    30513697.880
 163540600.870 5                                                  30625900.896
 149299241.283 9 116121697.185 6                  27968752.996    27968751.616
 146729534.130 9 114122996.066 7                  27458407.380    27458407.260
 152756736.864 7 118810834.568 5                  28576290.952    28576286.712
 147344086.211 9 114601026.140 7                  27583089.616    27583087.096
 146110043.267 9 113641177.348 8                  27304118.480    27304117.900
 24 11 23  0 15  0.0000000  0 17G17G22G19G14G07G30G02G21G15G13R03R13
                                R22R11R01R12R21
 141404739.988 9 110185580.002 9                  26908395.322    26908394.582
 145211819.908 9 113152118.959 6                  27632858.156    27632857.736
 151475738.983 8 118033082.547 5                  28824852.048    28824851.108
 142759192.657 8 111240979.059 6                  27166142.680    27166141.300
 152627108.413 7 118930230.328 6                  29043965.008    29043962.628
 143104427.152 9 111510006.351 9                  27231847.440    27231844.400
 158571023.289 7 123561856.645 4                  30175039.200    30175037.520
 161724921.068 6 126019400.610 2                  30775216.436    30775213.016
 156871260.484 6 122237394.372 5                  29851594.802    29851589.362
 145484848.563 9 113364848.909 6                  27684818.116    27684816.456
 163300933.700 7 127011844.079 5                  30505990.340    30505984.180
 163505959.963 6 127171302.694 3                  30619413.896    30619414.116
 149231680.224 9 116069149.873 6                  27956096.536    27956095.256
 146798657.381 9 114176758.624 7                  27471342.540    27471342.960
 152898650.430 8 118921211.625 5                  28602840.132    28602835.332
 147339557.773 9 114597504.108 7                  27582242.056    27582240.256
 146151347.438 9 113673302.860 7                  27311837.240    27311836.180
 24 11 23  0 15 30.0000000  0 17G17G22G19G14G07G30G02G21G15G13R03R13
                                R22R11R01R12R21
 141333602.137 9 110130147.965 9                  26894858.162    26894857.522
 145168221.895 9 113118146.519 6                  27624561.716    27624561.196
 151345133.958 7 117931312.571 5                  28799998.848    28799997.688
 142732774.215 9 111220393.288 6                  27161115.560    27161114.320
 152656476.767 8 118953114.719 6                  29049553.788    29049551.308
 143092096.905 9 111500398.377 9                  27229501.020    27229497.940
 158543702.953 7 123540568.127 4                  30169840.780    30169839.080
 161733982.181 6 126026461.287 2                  30776940.636    30776937.016
 156788683.109 6 122173048.472 5                  29835880.882    29835875.502
 145429460.828 9 113321689.674 6                  27674278.176    27674276.736
 163182521.932 7 126919746.178 5                  30483869.360    30483863.880
 163393800.244 5                                                  30598407.716
 149087051.824 9 115956661.302 6                  27929002.416    27929001.056
 146790390.409 9 114170328.768 7                  27469795.480    27469795.860
 152963308.724 7 118971501.244 5                  28614934.832    28614930.492
 147257602.436 9 114533761.148 7                  27566899.400    27566897.680
 146115828.693 9 113645677.217 7                  27305199.620    27305198.960
 24 11 23  0 16  0.0000000  0 17G17G22G19G14G07G30G02G21G15G13R03R13
                                R22R11R01R12R21
 141205476.224 9 110030309.643 9                  26870476.462    26870475.962
 145067295.305 9 113039502.459 6                  27605356.016    27605355.616
 151157280.090 8 117784933.102 5                  28764251.050    28764250.250
 142649016.485 8 111155127.553 6                  27145176.800    27145175.460
 152628646.328 8 118931428.623 6                  29044257.828    29044255.288
 143022652.158 9 111446285.595 9                  27216286.160    27216283.200
 158459364.500 6 123474849.901 4                  30153791.700    30153789.180
 161686013.810 6 125989083.413 2                  30767812.996    30767808.736
 156649129.544 7 122064305.536 5                  29809325.022    29809318.722
 145317150.428 9 113234175.114 6                  27652906.196    27652904.596
 163006062.722 6 126782500.254 5                  30450906.300    30450899.100
 163223141.736 5                                                  30566449.520
 148884375.034 9 115799023.965 6                  27891033.816    27891033.076
 146723768.206 9 114118511.519 7                  27457328.180    27457328.100
 152969748.338 7 118976509.679 5                  28616141.272    28616135.032
 147117248.303 9 114424596.902 7                  27540624.900    27540623.160
 146022548.102 9 113573125.684 7                  27287767.960    27287767.280
 24 11 23  0 16 30.0000000  0 17G17G22G19G14G07G30G02G21G15G13R03R13
                                R22R11R01R12R21
 141150945.255 9 109987818.027 9                  26860099.662    26860099.222
 145039621.968 8 113017938.855 6                  27600089.896    27600089.716
 151042762.804 8 117695699.002 5                  28742459.230    28742458.370
 142638501.511 9 111146934.098 6                  27143175.980    27143174.160
 152674199.351 7 118966924.448 6                  29052926.448    29052923.248
 143026676.109 9 111449421.150 9                  27217051.960    27217048.580
 158448590.269 6 123466454.442 4                  30151741.140    30151738.980
 161711596.852 6 126009018.331 2                  30772681.396    30772677.516
 156583183.912 6 122012919.417 5                  29796775.682    29796769.702
 145278500.622 9 113204058.419 6                  27645551.376    27645549.796
 162904578.424 6 126703568.152 5                  30431947.520    30431941.440
 163126677.201 5                                                  30548385.980
 148756300.591 9 115699410.679 6                  27867041.456    27867040.096
 146731577.351 9 114124585.321 7                  27458789.800    27458789.320
 153050796.696 7 119039547.133 5                  28631302.072    28631296.572
 147051234.940 9 114373253.252 7                  27528267.360    27528264.840
 146004478.639 9 113559071.697 8                  27284391.200    27284390.520
 24 11 23  0 17  0.0000000  0 17G17G22G19G14G07G30G02G21G15G13R03R13
                                R22R11R01R12R21
 141110305.367 9 109956150.635 9                  26852366.142    26852365.462
 145025496.887 8 113006932.335 6                  27597401.896    27597401.756
 150941879.617 8 117617088.879 5                  28723261.650    28723260.710
 142641524.701 9 111149289.857 6                  27143751.200    27143749.880
 152733431.423 7 119013079.273 6                  29064198.028    29064195.128
 143044465.227 9 111463282.806 9                  27220437.100    27220433.720
 158451676.522 6 123468859.362 4                  30152327.980    30152326.640
 161751026.676 6 126039742.941 2                  30780184.816    30780179.436
 156531143.272 7 121972368.364 5                  29786872.722    29786866.622
 145253807.943 9 113184817.405 6                  27640852.236    27640850.856
 162817254.233 6 126635649.464 5                  30415633.460    30415629.040
 163043737.548 6                                                  30532851.820
 148642185.540 9 115610654.699 7                  27845663.696    27845663.036
 146753107.145 9 114141330.740 7                  27462818.580    27462818.520
 153145716.421 7 119113373.404 5                  28649060.052    28649053.792
 146998872.468 9 114332526.955 7                  27518464.940    27518462.720
 146000823.391 9 113556228.776 7                  27283707.820    27283707.100
 24 11 23  0 17 30.0000000  0 17G17G22G19G14G07G30G02G21G15G13R03R13
                                R22R11R01R12R21
 140956970.684 9 109836669.107 9                  26823187.422    26823186.762
 144898332.701 9 112907843.390 6                  27573203.418    27573203.178
 150728046.073 8 117450465.479 5                  28682570.230    28682569.250
 142531499.138 8 111063555.681 6                  27122813.980    27122812.680
 152679755.891 8 118971254.134 6                  29053983.908    29053980.748
 142949433.796 9 111389232.348 9                  27202353.160    27202349.700
 158342037.197 7 123383426.172 4                  30131464.500    30131462.480
 161677715.562 6 125982617.467 2                  30766234.236    30766229.896
 156366422.340 7 121844014.483 5                  29755527.022    29755521.682
 145116486.672 8 113077813.850 6                  27614720.876    27614719.696
 162615144.766 6 126478453.343 5                  30377878.940    30377872.620
 162845690.202 5                                                  30495766.480
 148413447.656 9 115432747.622 7                  27802812.776    27802811.876
 146659636.705 9 114068631.527 7                  27445326.920    27445327.200
 153125735.994 7 119097832.908 5                  28645321.272    28645316.332
 146831484.397 9 114202336.291 7                  27487129.400    27487126.740
 145882679.647 9 113464339.235 8                  27261629.960    27261629.400
 24 11 23  0 18  0.0000000  0 17G17G22G19G14G07G30G02G21G15G13R03R13
                                R22R11R01R12R21
 141138101.202 9 109977809.820 9                  26857655.482    26857654.982
 145105287.546 9 113069106.950 6                  27612585.536    27612585.156
 150848424.734 8 117544267.176 5                  28705477.830    28705476.770
 142755583.454 8 111238166.867 6                  27165455.700    27165454.480
 152960330.790 7 119189883.883 6                  29107375.746    29107372.906
 143188741.322 9 111575705.749 9                  27247891.780    27247888.580
 158566832.143 6 123558591.119 4                  30174241.460    30174240.180
 161938820.754 6 126186076.118 2                  30815920.556    30815916.776
 156536181.876 6 121976294.731 5                  29787831.122    29787825.362
 145313696.598 8 113231483.957 6                  27652248.836    27652247.136
 162753755.342 6 126586261.695 5                  30403772.180    30403766.000
 162986920.136 6                                                  30522214.360
 148524317.114 9 115518979.584 7                  27823582.756    27823581.496
 146905869.316 9 114260145.801 7                  27491405.580    27491405.900
 153445713.049 7 119346703.776 5                  28705180.312    28705174.692
 147003615.049 9 114336215.748 7                  27519352.580    27519349.900
 146105389.956 9 113637558.405 7                  27303248.480    27303248.080
 24 11 23  0 18 30.0000000  0 17G17G22G19G14G07G30G02G21G15G13R03R13
                                R22R11R01R12R21
 141042659.350 9 109903439.593 9                  26839493.542    26839492.922
 145035323.039 9 113014589.195 6                  27599271.736    27599271.396
 150691978.305 8 117422360.993 5                  28675706.810    28675705.510
 142702739.509 8 111196989.801 6                  27155399.840    27155398.580
 152964119.032 7 119192835.706 6                  29108096.566    29108093.346
 143151350.959 9 111546570.408 9                  27240776.760    27240773.660
 158515023.592 7 123518220.872 4                  30164382.880    30164381.060
 161923304.382 6 126173985.506 2                  30812968.016    30812963.776
 156429385.054 6 121893076.508 5                  29767508.442    29767502.722
 145234400.262 8 113169694.643 6                  27637159.076    27637157.616
 162610650.873 6 126474958.344 5                  30377038.200    30377032.700
 162846515.442 5                                                  30495918.560
 148354104.729 9 115386592.315 7                  27791695.956    27791694.676
 146870459.486 9 114232604.839 7                  27484779.400    27484779.180
 153484079.307 7 119376544.020 5                  28712359.172    28712352.392
 146894135.538 9 114251065.071 7                  27498857.280    27498855.540
 146046734.593 9 113591937.597 8                  27292287.500    27292286.760
 24 11 23  0 19  0.0000000  0 17G17G22G19G14G07G30G02G21G15G13R03R13
                                R22R11R01R12R21
 140801445.983 9 109715481.170 9                  26793592.122    26793591.382
 144819238.907 9 112846211.999 6                  27558152.178    27558151.718
 150389509.492 8 117186671.129 5                  28618148.650    28618147.850
 142503767.260 9 111041946.523 6                  27117536.680    27117535.540
 152821920.119 7 119082031.309 6                  29081037.246    29081034.406
 142968063.730 9 111403749.196 9                  27205898.360    27205895.360
 158317412.468 6 123364238.234 4                  30126778.620    30126776.560
 161761965.150 6 126048266.679 2                  30782266.196    30782262.056
 156176833.383 7 121696283.082 5                  29719449.322    29719444.022
 145009398.690 8 112994368.774 6                  27594342.556    27594341.436
 162319074.750 7 126248177.061 5                  30322569.540    30322564.180
 162557389.874 6                                                  30441778.960
 148035682.524 9 115138930.756 7                  27732044.576    27732043.536
 146686415.506 9 114089459.530 7                  27450338.060    27450337.420
 153373883.947 7 119290836.331 5                  28691744.612    28691737.752
 146636007.190 9 114050298.630 7                  27450535.400    27450533.060
 145839907.602 9 113431072.188 7                  27253636.720    27253636.500
 24 11 23  0 19 30.0000000  0 17G17G22G19G14G07G30G02G21G15G13R03R13
                                R22R11R01R12R21
 140890432.213 9 109784821.136 9                  26810525.542    26810524.902
 144933004.292 8 112934860.396 6                  27579800.878    27579800.598
 150416992.754 8 117208086.777 5                  28623378.250    28623377.930
 142634636.511 9 111143922.590 6                  27142440.240    27142438.920
 153009703.877 7 119228356.260 6                  29116771.306    29116768.286
 143114850.231 9 111518128.297 9                  27233830.840    27233827.620
 158449969.156 6 123467529.215 4                  30152003.260    30152001.760
 161930772.697 6 126179805.066 2                  30814388.796    30814384.056
 156254498.858 7 121756801.714 5                  29734228.462    29734223.002
 145114663.173 8 113076393.079 6                  27614373.796    27614372.096
 162363882.082 7 126283027.351 5                  30330939.760    30330933.260
 162603205.030 6                                                  30450355.900
 148052547.157 9 115152047.840 7                  27735203.756    27735202.876
 146837738.398 9 114207155.118 7                  27478656.300    27478656.200
 153599292.099 7 119466153.594 5                  28733911.992    28733905.432
 146713061.554 9 114110229.860 7                  27464960.440    27464957.620
 145969589.503 9 113531935.921 7                  27277871.160    27277870.100
 24 11 23  0 20  0.0000000  0 17G17G22G19G14G07G30G02G21G15G13R03R13
                                R22R11R01R12R21
 140922277.573 9 109809635.754 9                  26816585.522    26816584.982
 144989277.997 8 112978710.082 6                  27590509.316    27590509.036
 150387088.019 8 117184784.499 5                  28617687.710    28617686.890
 142708006.302 8 111201093.880 6                  27156402.020    27156400.620
 153140129.695 7 119329986.719 6                  29141590.646    29141587.626
 143204370.683 9 111587884.497 9                  27250866.020    27250863.080
 158525353.334 6 123526270.194 4                  30166348.340    30166346.660
 162042384.952 6 126266775.683 2                  30835627.696    30835623.536
 156275041.617 7 121772809.143 5                  29738137.202    29738132.222
 145162853.159 9 113113943.756 6                  27623544.076    27623542.616
 162350507.940 7 126272625.399 5                  30328442.080    30328436.540
 162590358.628 5                                                  30447949.820
 148011241.540 9 115119921.398 7                  27727465.436    27727464.976
 146930553.546 9 114279344.699 7                  27496025.380    27496024.800
 153766285.961 7 119596037.555 5                  28765150.572    28765145.132
 146731561.376 9 114124618.671 7                  27468423.100    27468420.520
 146041351.576 9 113587750.903 7                  27291281.640    27291280.560
 24 11 23  0 20 30.0000000  0 17G17G22G19G14G07G30G02G21G15G13R03R13
                                R22R11R01R12R21
 140872543.862 9 109770882.268 9                  26807121.442    26807120.742
 144963620.481 9 112958717.263 6                  27585626.716    27585626.496
 150275358.983 8 117097723.027 5                  28596425.930    28596425.690
 142699437.491 8 111194416.909 6                  27154771.380    27154769.800
 153188758.424 7 119367879.188 6                  29150844.366    29150841.346
 143212186.970 9 111593975.112 9                  27252353.400    27252350.200
 158519126.345 7 123521418.044 4                  30165163.180    30165161.780
 162072362.063 6 126290134.499 2                  30841332.296    30841328.196
 156214024.241 6 121725263.217 5                  29726525.942    29726520.522
 145129530.764 9 113087978.286 6                  27617203.356    27617201.696
 162254060.402 7 126197610.781 5                  30310423.940    30310416.760
 162494021.228 6                                                  30429909.460
 147886945.464 9 115023246.818 7                  27704180.576    27704179.856
 146940011.002 9 114286700.506 7                  27497794.740    27497794.500
 153850001.509 7 119661149.475 5                  28780810.848    28780806.108
 146666664.819 9 114074143.627 7                  27456274.560    27456272.020
 146030307.602 9 113579161.183 8                  27289217.640    27289216.860
 24 11 23  0 21  0.0000000  0 17G17G22G19G14G07G30G02G21G15G13R03R13
                                R22R11R01R12R21
 140771717.036 9 109692315.968 9                  26787934.582    26787933.922
 144886516.604 8 112898636.367 6                  27570954.238    27570954.318
 150112293.336 8 116970658.995 5                  28565395.530    28565395.110
 142639415.262 9 111147646.361 6                  27143349.640    27143348.180
 153186074.822 7 119365788.014 6                  29150333.866    29150330.466
 143168785.196 9 111560155.550 9                  27244094.320    27244091.280
 158461774.465 7 123476728.324 4                  30154249.540    30154247.760
 162051188.387 6 126273635.564 2                  30837303.416    30837299.236
 156101933.476 7 121637919.843 5                  29705195.582    29705190.382
 145045181.814 9 113022251.864 6                  27601151.996    27601150.696
 162105597.341 7 126082139.653 5                  30282689.340    30282684.500
 162345168.583 5                                                  30402034.560
 147710630.869 9 114886113.393 7                  27671151.356    27671150.156
 146897111.631 9 114253334.332 7                  27489767.120    27489766.700
 153881445.204 7 119685605.508 5                  28786693.868    28786688.688
 146549361.643 9 113982907.888 7                  27434315.100    27434312.880
 145967501.170 9 113530311.770 7                  27277480.580    27277479.820
 24 11 23  0 21 30.0000000  0 17G17G22G19G14G07G30G02G21G15G13R03R13
                                R22R11R01R12R21
 140771611.447 8 109692233.741 9                  26787914.482    26787913.642
 144909779.327 9 112916763.223 6                  27575381.078    27575381.058
 150049707.579 8 116921890.983 5                  28553485.830    28553485.310
 142679753.214 8 111179078.552 6                  27151025.640    27151024.360
 153283892.612 7 119442009.613 6                  29168947.846    29168944.726
 143225979.869 9 111604722.832 9                  27254978.040    27254975.060
 158505111.573 6 123510497.557 4                  30162496.100    30162494.240
 162130676.595 6 126335574.458 2                  30852429.876    30852425.056
 156090584.625 6 121629076.665 5                  29703036.102    29703030.522
 145061620.526 9 113035061.281 6                  27604279.996    27604278.656
 162059767.639 7 126046494.470 5                  30274128.280    30274122.280
 162298067.760 5 126231825.801 3                  30393213.160    30393213.240
 147636515.453 9 114828468.227 7                  27657266.516    27657265.816
 146956231.380 9 114299316.374 7                  27500830.420    27500830.500
 154015041.193 7 119789513.301 5                  28811685.988    28811680.088
 146533973.346 9 113970939.283 7                  27431433.960    27431432.260
 146007524.019 9 113561440.688 8                  27284959.700    27284958.940
 24 11 23  0 22  0.0000000  0 17G17G22G19G14G07G30G02G21G15G13R03R13
                                R22R11R01R12R21
 140878784.017 9 109775744.896 9                  26808308.602    26808307.902
 145039964.583 9 113018206.337 6                  27600154.576    27600154.236
 150094160.533 8 116956529.758 5                  28561944.870    28561943.930
 142827007.650 8 111293822.291 6                  27179047.280    27179045.880
 153488768.512 7 119601653.121 6                  29207934.586    29207932.086
 143390328.274 9 111732786.524 9                  27286252.498    27286249.498
 158655694.483 7 123627834.949 4                  30191151.200    30191148.880
 162317382.054 6 126481059.268 2                  30887958.874    30887953.574
 156186535.353 6 121703843.554 5                  29721294.662    29721289.862
 145185404.631 9 113131516.463 6                  27627835.356    27627833.836
 162123253.576 7 126095872.561 5                  30285988.040    30285982.340
 162359381.645 5                                                  30404695.620
 147671264.254 9 114855495.212 7                  27663775.996    27663775.696
 147124038.825 9 114429833.301 7                  27532233.280    27532233.180
 154257455.374 7 119978057.482 5                  28857036.188    28857029.308
 146627165.772 9 114043422.358 7                  27448879.640    27448878.220
 146157053.015 9 113677741.053 7                  27312902.560    27312901.920
 24 11 23  0 22 30.0000000  0 17G17G22G19G14G07G30G02G21G15G13R03R13
                                R22R11R01R12R21
 140795429.485 9 109710793.373 9                  26792446.622    26792446.082
 144979266.437 9 112970909.139 6                  27588603.956    27588603.816
 149947848.296 8 116842520.341 5                  28534102.530    28534101.890
 142783372.710 9 111259821.061 6                  27170743.680    27170742.280
 153502896.699 7 119612662.052 6                  29210622.686    29210619.786
 143364025.529 9 111712290.872 9                  27281247.378    27281244.538
 158615718.091 7 123596684.581 4                  30183543.740    30183542.080
 162313498.259 6 126478032.974 2                  30887219.714    30887215.154
 156091981.156 6 121630165.039 5                  29703301.402    29703295.982
 145118728.599 9 113079561.146 6                  27615147.476    27615146.176
 161992696.600 7 125994328.371 5                  30261599.360    30261592.820
 162226491.842 6                                                  30379810.380
 147512370.137 9 114731911.052 7                  27634009.376    27634008.996
 147097704.692 9 114409351.195 7                  27527305.160    27527305.220
 154305747.215 7 120015617.628 5                  28866068.548    28866062.108
 146526215.316 9 113964905.422 7                  27429980.960    27429979.760
 146112832.509 9 113643347.351 7                  27304639.120    27304638.560
 24 11 23  0 23  0.0000000  0 17G17G22G19G14G07G30G02G21G15G13R03R13
                                R22R11R01R12R21
 140811826.599 9 109723570.402 9                  26795566.822    26795566.442
 145017961.868 9 113001061.473 6                  27595967.436    27595967.176
 149901051.572 8 116806055.478 5                  28525197.210    28525196.590
 142839126.014 9 111303265.209 6                  27181353.140    27181351.880
 153616554.172 7 119701226.257 6                  29232251.246    29232248.326
 143437350.071 9 111769426.879 9                  27295200.498    27295197.478
 158675460.610 6 123643237.263 4                  30194912.060    30194910.760
 162409301.920 6 126552685.208 2                  30905449.634    30905444.374
 156097201.321 6 121634232.780 5                  29704294.402    29704289.462
 145151870.981 9 113105386.420 6                  27621454.056    27621452.676
 161963793.039 7 125971847.963 5                  30256200.540    30256192.480
 162194367.101 6                                                  30373794.300
 147454702.955 9 114687058.943 7                  27623206.576    27623205.636
 147172405.525 9 114467451.846 7                  27541284.440    27541284.540
 154455190.649 7 120131851.204 5                  28894024.668    28894019.288
 146526194.846 9 113964889.590 7                  27429977.300    27429975.500
 146170452.328 9 113688162.804 7                  27315406.780    27315406.120
 24 11 23  0 23 30.0000000  0 17G17G22G19G14G07G30G02G21G15G13R03R13
                                R22R11R01R12R21
 140832575.516 9 109739738.454 9                  26799515.222    26799514.882
 145060650.736 9 113034325.577 6                  27604090.836    27604090.536
 149858372.941 8 116772799.518 5                  28517075.650    28517074.870
 142898867.777 8 111349817.244 6                  27192721.640    27192720.220
 153734341.107 7 119793008.232 6                  29254665.346    29254662.686
 143514903.015 9 111829857.740 9                  27309958.298    27309955.278
 158739522.656 6 123693155.810 4                  30207102.800    30207101.680
 162509392.145 6 126630677.623 2                  30924496.374    30924492.034
 156106797.502 6 121641710.414 4                  29706120.362    29706114.922
 145189432.474 8 113134655.150 6                  27628601.516    27628600.496
 161939366.764 7 125952849.853 5                  30251635.980    30251630.400
 162166066.237 6                                                  30368493.860
 147401360.291 9 114645570.364 7                  27613213.276    27613212.436
 147251133.291 9 114528684.569 7                  27556017.480    27556017.500
 154608738.388 7 120251277.046 5                  28922751.088    28922743.948
 146530129.871 9 113967950.271 7                  27430714.120    27430712.020
 146232766.985 9 113736629.796 8                  27327051.880    27327051.280
 24 11 23  0 24  0.0000000  0 17G17G22G19G14G07G30G02G21G15G13R03R13
                                R22R11R01R12R21
 140787548.779 9 109704652.737 9                  26790946.822    26790946.522
 145037204.010 9 113016055.449 6                  27599628.836    27599628.776
 149749686.240 8 116688108.699 5                  28496393.090    28496392.510
 142892469.530 9 111344831.609 6                  27191504.220    27191502.920
 153786129.030 7 119833362.406 6                  29264520.406    29264517.506
 143526556.797 9 111838938.607 9                  27312175.938    27312172.918
 158737775.959 6 123691794.819 4                  30206770.480    30206768.960
 162543639.708 6 126657364.067 2                  30931013.214    30931008.934
 156050642.238 6 121597953.163 4                  29695434.522    29695429.382
 145161285.190 9 113112722.237 6                  27623245.316    27623244.276
 161847984.249 7 125881774.720 6                  30234565.360    30234558.440
 162070327.838 6                                                  30350565.840
 147281110.353 9 114552042.767 7                  27590686.316    27590685.316
 147262577.502 9 114537585.634 7                  27558158.800    27558158.420
 154695049.965 7 120318408.076 5                  28938896.708    28938890.808
 146466734.684 9 113918643.001 7                  27418846.780    27418844.560
 146228364.412 9 113733205.604 7                  27326229.120    27326228.440
 24 11 23  0 24 30.0000000  0 17G17G22G19G14G07G30G02G21G15G13R03R13
                                R22R11R01R12R21
 140708964.543 9 109643418.326 9                  26775992.622    26775992.202
 144979839.123 9 112971355.582 6                  27588712.796    27588712.696
 149607211.566 8 116577089.583 6                  28469281.052    28469280.352
 142852149.001 8 111313413.030 6                  27183831.460    27183830.160
 153804135.448 7 119847393.328 6                  29267946.966    29267943.986
 143504529.995 9 111821774.862 9                  27307984.478    27307981.398
 158702438.848 6 123664259.490 4                  30200046.020    30200044.580
 162544261.173 6 126657848.369 2                  30931132.614    30931128.114
 155960954.873 6 121528067.004 5                  29678367.304    29678362.604
 145099648.015 9 113064693.306 6                  27611516.176    27611514.956
 161722466.961 7 125784150.296 5                  30211117.300    30211112.120
 161939890.583 6                                                  30326137.640
 147126685.050 9 114431934.346 7                  27561757.560    27561756.260
 147239500.937 9 114519637.207 7                  27553840.300    27553840.460
 154746893.987 7 120358730.985 5                  28948595.268    28948589.468
 146368760.149 9 113842440.684 7                  27400505.100    27400503.200
 146190052.227 9 113703407.276 8                  27319069.280    27319068.320
 24 11 23  0 25  0.0000000  0 17G17G22G19G14G07G30G02G21G15G13R03R13
                                R22R11R01R12R21
 140537402.743 9 109509733.862 9                  26743345.482    26743345.242
 144829134.969 9 112853923.810 6                  27560034.678    27560034.738
 149371530.911 8 116393442.422 6                  28424432.212    28424432.012
 142718485.650 8 111209259.779 6                  27158396.060    27158394.500
 153728939.903 7 119788799.347 6                  29253637.926    29253634.506
 143389402.860 9 111732065.399 9                  27286076.398    27286073.338
 158574091.097 6 123564248.331 4                  30175622.100    30175620.940
 162451835.260 6 126585828.224 2                  30913543.414    30913539.194
 155778315.966 6 121385751.070 5                  29643612.384    29643607.024
 144945100.864 9 112944266.989 6                  27582106.676    27582105.636
 161502289.597 7 125612901.345 5                  30169986.440    30169981.420
 161714373.864 6                                                  30283905.860
 146877729.672 9 114238302.539 7                  27515119.180    27515118.620
 147121482.061 9 114427844.782 7                  27531754.840    27531755.280
 154703822.122 7 120325230.486 4                  28940538.248    28940531.548
 146175805.165 9 113692364.688 7                  27364383.580    27364382.100
 146057322.318 9 113600172.950 7                  27294265.380    27294264.740
 24 11 23  0 25 30.0000000  0 17G17G22G19G14G07G30G02G21G15G13R03R13
                                R22R11R01R12R21
 140403243.663 9 109405194.377 9                  26717815.882    26717815.522
 144715470.969 9 112765354.503 6                  27538405.098    27538405.178
 149173026.662 8 116238763.897 5                  28386658.172    28386657.632
 142621858.979 8 111133966.278 6                  27140008.460    27140007.320
 153690921.860 7 119759174.841 6                  29246403.586    29246400.726
 143311555.697 9 111671405.268 9                  27271262.540    27271259.580
 158483112.675 6 123493356.126 4                  30158309.320    30158307.560
 162396740.349 5 126542897.196 2                  30903059.154    30903054.694
 155633106.146 7 121272600.657 5                  29615979.844    29615975.104
 144828023.729 9 112853038.086 6                  27559827.538    27559826.618
 161320267.189 8 125471328.474 5                  30135982.160    30135978.220
 161526263.996 6                                                  30248680.100
 146666689.104 9 114074160.005 7                  27475584.320    27475583.040
 147041101.167 9 114365326.329 7                  27516712.380    27516712.620
 154698455.822 7 120321056.477 5                  28939534.548    28939528.908
 146020403.725 9 113571496.988 7                  27335292.060    27335290.000
 145962939.765 9 113526764.335 7                  27276628.100    27276627.280
 24 11 23  0 26  0.0000000  0 17G17G22G19G14G07G30G02G21G15G13R03R13
                                R22R11R01R12R21
 140478453.836 9 109463799.759 9                  26732127.802    26732127.522
 144810811.998 8 112839646.238 6                  27556547.858    27556547.938
 149183667.074 8 116247055.241 6                  28388682.872    28388682.152
 142734234.342 8 111221531.508 6                  27161392.640    27161391.440
 153862045.921 7 119892518.214 6                  29278967.486    29278964.686
 143442954.545 9 111773793.973 9                  27296266.838    27296263.898
 158601469.367 6 123585582.197 4                  30180831.800    30180830.200
 162550940.647 6 126663053.366 2                  30932402.354    30932398.394
 155697292.954 6 121322616.442 5                  29628194.404    29628189.024
 144920382.422 9 112925005.929 6                  27577402.718    27577402.098
 161351576.747 7 125495680.446 5                  30141830.940    30141826.760
 161550305.694 6                                                  30253180.760
 146668251.014 9 114075374.956 7                  27475877.040    27475875.960
 147173225.970 9 114468090.083 7                  27541438.080    27541437.740
 154905718.872 7 120482260.866 5                  28978308.168    28978301.408
 146077362.280 9 113615798.182 7                  27345954.740    27345952.720
 146082016.965 9 113619379.970 7                  27298880.300    27298879.940
 24 11 23  0 26 30.0000000  0 17G17G22G19G14G07G30G02G21G15G13R03R13
                                R22R11R01R12R21
 140572548.762 9 109537120.532 9                  26750033.402    26750032.962
 144924674.205 9 112928370.064 6                  27578215.098    27578215.258
 149212969.950 8 116269888.758 6                  28394258.912    28394258.532
 142865127.769 8 111323526.401 6                  27186301.000    27186299.460
 154051828.452 7 120040400.651 6                  29315081.466    29315078.886
 143593116.288 9 111890803.119 9                  27324841.798    27324838.738
 158738677.573 6 123692497.754 4                  30206941.600    30206940.140
 162723951.142 6 126797866.822 2                  30965325.234    30965320.334
 155780393.271 6 121387370.032 5                  29644007.624    29644002.604
 145031693.654 9 113011741.986 6                  27598584.596    27598583.536
 161402183.542 7 125535041.397 5                  30151284.960    30151280.060
 161592937.429 6                                                  30261164.240
 146688926.173 9 114091455.762 7                  27479749.720    27479749.100
 147324160.116 9 114585483.333 7                  27569683.440    27569683.300
 155131841.656 7 120658133.923 5                  29020607.628    29020602.888
 146153051.814 9 113674667.926 7                  27360123.840    27360121.900
 146220583.668 9 113727154.110 8                  27324774.820    27324773.960
 24 11 23  0 27  0.0000000  0 17G17G22G19G14G07G30G02G21G15G13R03R13
                                R22R11R01R12R21
 140391670.520 9 109396176.498 9                  26715613.442    26715612.742
 144763197.630 9 112802544.180 6                  27547487.138    27547487.018
 148967078.341 8 116078285.009 6                  28347467.072    28347466.892
 142720680.933 8 111210970.437 6                  27158813.740    27158812.440
 153966410.983 7 119973841.528 6                  29298827.486    29298824.226
 143468183.461 9 111793452.854 9                  27301067.978    27301064.798
 158600879.121 6 123585122.413 4                  30180718.940    30180718.060
 162621912.118 6 126718355.989 2                  30945907.994    30945903.714
 155588549.336 6 121237881.352 5                  29607500.844    29607496.324
 144868099.323 8 112884265.918 6                  27567453.738    27567452.678
 161172749.348 7 125356592.696 5                  30108424.060    30108420.080
 161355552.158 6                                                  30216709.700
 146430217.350 9 113890237.908 7                  27431284.840    27431284.120
 147195088.949 9 114485094.671 7                  27545529.080    27545529.380
 155077899.713 7 120616178.869 5                  29010517.848    29010512.248
 145948761.640 9 113515775.670 7                  27321880.160    27321878.580
 146079403.657 9 113617347.477 7                  27298391.660    27298391.260
 24 11 23  0 27 30.0000000  0 17G17G22G19G14G07G30G02G21G15G13R03R13
                                R22R11R01R12R21
 140417145.500 9 109416027.187 9                  26720461.182    26720460.462
 144807708.046 9 112837227.639 6                  27555957.138    27555956.898
 148927321.767 8 116047305.969 6                  28339901.692    28339901.772
 142782219.435 9 111258922.536 6                  27170524.060    27170523.120
 154087118.301 7 120067899.114 5                  29321797.386    29321793.666
 143549482.212 9 111856802.527 9                  27316538.598    27316535.238
 158669399.833 7 123638515.268 4                  30193758.440    30193757.180
 162726148.516 6 126799579.243 2                  30965742.714    30965739.994
 155603088.708 7 121249210.814 5                  29610267.144    29610262.764
 144910925.778 9 112917637.212 6                  27575603.398    27575602.258
 161153583.425 7 125341685.998 5                  30104844.180    30104838.740
 161327254.037 6                                                  30211410.800
 146381061.247 9 113852005.512 7                  27422076.060    27422075.620
 147275460.065 9 114547605.568 7                  27560569.600    27560569.380
 155233505.962 7 120737205.735 5                  29039627.568    29039620.468
 145953768.069 9 113519669.655 7                  27322817.260    27322815.680
 146148610.541 9 113671175.093 8                  27311324.780    27311324.380
 24 11 23  0 28  0.0000000  0 17G17G22G19G14G07G30G02G21G15G13R03R13
                                R22R11R01R12R21
 140461366.250 9 109450484.958 9                  26728875.942    26728875.322
 144870596.991 9 112886232.035 6                  27567924.558    27567924.338
 148906094.127 8 116030765.051 6                  28335862.112    28335861.832
 142862134.879 8 111321194.328 6                  27185731.560    27185730.280
 154226342.358 7 120176385.328 5                  29348290.626    29348287.566
 143649404.899 9 111934664.352 9                  27335553.258    27335549.998
 158756631.685 6 123706488.233 4                  30210358.220    30210356.960
 162849051.084 6 126895347.569 2                  30989130.154    30989127.174
 155636403.833 7 121275170.750 5                  29616606.844    29616602.444
 144972565.001 8 112965667.808 6                  27587332.996    27587331.836
 161153580.219 7 125341683.629 5                  30104843.640    30104837.700
 161317402.911 6 125469082.761 3                  30209565.080    30209565.100
 146350889.596 9 113828538.801 7                  27416423.940    27416423.160
 147374501.272 9 114624637.650 7                  27579103.660    27579103.880
 155407816.235 7 120872780.180 5                  29072235.948    29072229.588
 145977364.850 9 113538022.792 7                  27327234.520    27327232.820
 146237162.261 9 113740048.694 7                  27327872.800    27327872.140
 24 11 23  0 28 30.0000000  0 17G17G22G19G14G07G30G02G21G15G13R03R13
                                R22R11R01R12R21
 140389107.481 9 109394179.471 9                  26715125.442    26715125.162
 144816638.905 9 112844186.793 6                  27557656.498    27557656.498
 148768172.024 8 115923293.389 6                  28309616.432    28309615.692
 142825202.574 9 111292415.933 6                  27178703.400    27178702.240
 154248858.232 6 120193930.102 5                  29352575.266    29352571.566
 143632727.568 9 111921669.023 9                  27332379.718    27332376.258
 158727350.081 7 123683671.497 4                  30204786.060    30204784.460
 162855393.089 6 126900289.480 2                  30990337.694    30990333.894
 155553270.801 7 121210391.858 5                  29600786.844    29600782.644
 144917792.801 8 112922988.205 6                  27576910.138    27576908.678
 161034994.565 7 125249450.463 5                  30082690.600    30082685.120
 161188589.226 6                                                  30185443.340
 146202345.560 9 113713004.665 7                  27388596.200    27388595.840
 147354707.527 9 114609242.561 7                  27575399.500    27575399.680
 155463272.066 7 120915912.262 5                  29082610.248    29082603.488
 145882095.301 9 113463924.334 7                  27309399.780    27309398.360
 146207359.258 9 113716868.623 8                  27322303.500    27322302.900
 24 11 23  0 29  0.0000000  0 17G17G22G19G14G07G30G02G21G15G13R03R13
                                R22R11R01R12R21
 140592891.624 9 109552972.361 9                  26753904.322    26753903.902
 145038355.294 8 113016952.833 6                  27599847.836    27599847.596
 148906080.735 8 116030754.829 6                  28335859.372    28335858.732
 143063944.311 8 111478448.482 6                  27224134.700    27224133.100
 154547186.588 7 120426393.702 5                  29409345.484    29409342.204
 143891972.530 9 112123678.081 9                  27381712.518    27381709.078
 158974076.753 6 123875926.149 4                  30251736.280    30251735.120
 163137694.982 5 127120265.058 2                  31044057.894    31044052.414
 155746213.204 6 121360736.682 5                  29637502.624    29637497.944
 145139131.256 8 113095459.759 6                  27619029.256    27619027.956
 161197675.163 7 125375979.936 5                  30113081.000    30113074.220
 161339678.787 6                                                  30213736.360
 146334158.682 9 113815526.101 7                  27413289.140    27413288.920
 147615224.323 9 114811866.776 7                  27624151.536    27624151.876
 155799153.067 7 121177152.818 4                  29145444.028    29145437.788
 146066964.979 9 113607711.937 7                  27344007.700    27344006.240
 146458905.736 9 113912515.925 7                  27369310.780    27369310.260
 24 11 23  0 29 30.0000000  0 17G17G22G19G14G07G30G02G21G15G13R03R13
                                R22R11R01R12R21
 140619878.360 9 109574001.031 9                  26759039.662    26759039.282
 145082904.820 9 113051666.777 6                  27608325.236    27608325.256
 148866980.972 8 116000287.583 6                  28328418.532    28328418.372
 143125519.246 8 111526428.979 6                  27235851.900    27235850.580
 154668487.161 7 120520913.568 5                  29432428.424    29432425.384
 143974299.789 9 112187829.187 9                  27397378.678    27397375.438
 159043971.675 7 123930389.819 4                  30265036.740    30265035.140
 163243115.981 6 127202411.377 2                  31064118.534    31064114.634
 155762390.515 6 121373342.467 5                  29640581.184    29640576.424
 145183739.699 8 113130219.613 6                  27627517.796    27627516.916
 161180334.858 7 125362493.197 5                  30109840.920    30109836.460
 161310512.525 6                                                  30208275.160
 146286336.677 9 113778331.324 7                  27404330.420    27404329.700
 147695572.383 9 114874359.749 7                  27639187.736    27639187.656
 155954813.402 7 121298221.727 4                  29174563.388    29174557.388
 146071654.975 9 113611359.792 7                  27344885.780    27344883.680
 146530673.368 9 113968335.230 8                  27382722.160    27382721.660
 24 11 23  0 30  0.0000000  0 17G17G22G19G14G07G30G02G21G15G13R03R13
                                R22R11R01R12R21
 140648677.628 9 109596442.064 9                  26764519.922    26764519.662
 145128897.324 9 113087505.116 6                  27617077.356    27617076.996
 148829485.461 8 115971070.412 6                  28321283.552    28321282.952
 143188537.700 8 111575534.301 6                  27247843.760    27247842.640
 154791369.494 7 120616665.996 5                  29455811.844    29455809.144
 144058320.216 9 112253299.647 9                  27413367.258    27413364.018
 159115644.747 6 123986239.041 4                  30278675.320    30278674.020
 163350264.196 6 127285903.573 2                  31084507.814    31084504.274
 155780414.365 7 121387387.115 5                  29644011.144    29644006.484
 145230228.681 9 113166444.818 6                  27636364.516    27636363.556
 161164919.470 7 125350503.593 5                  30106961.880    30106955.540
 161282587.460 6                                                  30203045.820
 146240317.215 9 113742538.515 7                  27395709.520    27395708.740
 147777376.222 9 114937984.983 7                  27654496.316    27654496.556
 156111936.132 6 121420428.045 5                  29203957.308    29203949.188
 146077726.838 9 113616082.427 7                  27346022.540    27346020.320
 146604540.606 9 114025787.565 7                  27396526.180    27396525.580
 24 11 23  0 30 30.0000000  0 17G17G22G19G14G07G30G02G21G15G13R03R13
                                R22R11R01R12R21
 140676187.518 9 109617878.387 9                  26769754.822    26769754.842
 145173230.246 9 113122050.280 6                  27625513.476    27625513.416
 148790494.154 8 115940687.684 6                  28313863.452    28313863.172
 143249897.165 8 111623346.908 6                  27259520.020    27259518.580
 154912730.912 7 120711233.278 5                  29478906.544    29478903.324
 144140931.888 9 112317672.373 9                  27429087.718    27429084.678
 159185993.775 7 124041056.538 4                  30292062.038    30292061.738
 163456036.378 6 127368323.527 2                  31104634.654    31104630.894
 155797183.188 6 121400453.815 5                  29647201.924    29647197.564
 145275496.050 8 113201718.122 6                  27644978.636    27644977.076
 161148271.421 7 125337555.266 5                  30103851.520    30103846.140
 161252751.622 6                                                  30197457.640
 146192953.446 9 113705700.153 8                  27386836.720    27386836.020
 147857482.466 9 115000289.892 7                  27669486.856    27669486.696
 156267361.375 7 121541314.108 5                  29233032.468    29233026.248
 146082027.514 9 113619427.464 8                  27346827.400    27346825.840
 146677347.426 9 114082415.135 7                  27410131.640    27410131.060
 24 11 23  0 31  0.0000000  0 17G17G22G19G14G07G30G02G21G15G13R03R13
                                R22R11R01R12R21
 140508014.525 9 109486834.543 9                  26737752.422    26737752.322
 145021508.838 9 113003825.845 6                  27596641.916    27596641.976
 148555614.915 8 115757665.005 6                  28269167.432    28269167.532
 143115203.780 8 111518391.068 6                  27233888.720    27233887.380
 154838177.361 6 120653139.551 5                  29464719.504    29464716.284
 144027741.632 9 112229472.171 9                  27407548.338    27407545.258
 159060624.938 6 123943366.602 4                  30268204.860    30268204.680
 163366037.340 6 127298194.472 2                  31087509.394    31087506.334
 155618303.904 7 121261067.446 5                  29613161.924    29613157.584
 145125148.043 8 113084563.861 6                  27616368.356    27616366.876
 160932372.630 7 125169634.157 5                  30063519.820    30063514.040
 161023469.796 6                                                  30154520.060
 145946784.278 9 113514235.367 7                  27340720.760    27340720.140
 147738219.019 9 114907529.467 7                  27647168.416    27647168.616
 156223342.109 6 121507076.656 5                  29224798.508    29224791.368
 145886953.927 9 113467703.638 7                  27310308.900    27310307.240
 146551142.080 9 113984255.474 7                  27386547.280    27386546.540
 24 11 23  0 31 30.0000000  0 17G17G22G19G14G07G30G02G21G15G13R03R13
                                R22R11R01R12R21
 140300771.221 9 109325346.299 9                  26698315.162    26698315.142
 144830345.296 9 112854867.282 6                  27560264.538    27560264.198
 148281462.734 8 115544040.025 6                  28216997.952    28216997.812
 142941069.932 8 111382702.396 6                  27200752.140    27200750.820
 154724320.954 6 120564420.206 5                  29443053.284    29443050.164
 143875362.346 9 112110735.061 9                  27378551.438    27378548.278
 158896150.654 6 123815204.890 4                  30236906.900    30236905.720
 163236878.062 6 127197550.960 2                  31062931.054    31062927.794
 155400390.016 6 121091264.509 5                  29571694.324    29571690.004
 144935797.507 8 112937018.013 6                  27580335.898    27580334.718
 160676760.337 7 124970824.756 5                  30015768.560    30015762.720
 160753885.586 6                                                  30104035.020
 145660901.697 9 113291882.358 7                  27287164.360    27287164.120
 147578841.841 9 114783569.485 7                  27617343.056    27617343.156
 156139184.587 7 121441620.567 4                  29209055.128    29209047.828
 145651705.838 9 113284732.979 7                  27266269.980    27266268.900
 146385401.810 9 113855346.419 7                  27355574.260    27355573.840
 24 11 23  0 32  0.0000000  0 17G17G22G19G14G07G30G02G21G15G13R03R13
                                R22R11R01R12R21
 140367335.328 9 109377214.484 9                  26710981.942    26710981.602
 144912616.675 9 112918974.902 6                  27575920.278    27575920.138
 148280917.920 8 115543615.602 6                  28216894.112    28216893.732
 143040373.049 9 111460081.490 6                  27219648.860    27219647.560
 154884038.245 6 120688875.192 5                  29473446.624    29473443.244
 143996671.826 8 112205261.927 9                  27401635.918    27401632.618
 159005448.261 6 123900371.914 3                  30257705.320    30257704.500
 163381434.429 6 127310192.344 2                  31090439.254    31090436.374
 155456320.008 6 121134846.404 5                  29582337.544    29582332.964
 145020321.956 8 113002881.241 6                  27596420.296    27596419.356
 160700152.317 7 124989018.676 5                  30020138.500    30020132.780
 160761932.836 6                                                  30105541.540
 145653132.139 9 113285839.479 7                  27285709.480    27285708.960
 147697508.159 9 114875865.533 7                  27639549.736    27639549.596
 156333152.064 7 121592483.904 4                  29245340.608    29245334.648
 145694329.378 9 113317884.689 7                  27274249.040    27274247.960
 146498729.122 9 113943489.934 7                  27376752.260    27376752.240
 24 11 23  0 32 30.0000000  0 17G17G22G19G14G07G30G02G21G15G13R03R13
                                R22R11R01R12R21
 140275205.247 9 109305424.864 9                  26693450.162    26693450.002
 144835820.940 9 112859134.123 6                  27561306.478    27561306.298
 148121480.462 8 115419378.726 6                  28186554.032    28186554.032
 142980611.787 8 111413514.318 6                  27208276.420    27208275.480
 154884827.812 6 120689490.366 5                  29473597.284    29473593.304
 143959169.494 9 112176039.328 9                  27394499.398    27394496.378
 158956016.667 6 123861853.848 3                  30248298.700    30248297.960
 163367204.116 6 127299103.848 2                  31087730.954    31087727.634
 155353593.321 7 121054799.727 5                  29562789.244    29562784.644
 144946220.094 8 112945139.551 6                  27582319.316    27582318.236
 160561980.550 7 124881551.919 5                  29994327.100    29994321.340
 160608121.105 6                                                  30076736.660
 145484144.229 9 113154404.550 7                  27254051.660    27254051.760
 147654421.151 9 114842353.455 7                  27631486.816    27631486.736
 156365288.591 7 121617478.756 4                  29251353.588    29251347.748
 145575180.998 9 113225213.806 7                  27251944.240    27251942.540
 146450707.296 9 113906139.675 7                  27367778.360    27367778.000
 24 11 23  0 33  0.0000000  0 17G17G22G19G14G07G30G02G21G15G13R03R13
                                R22R11R01R12R21
 140374842.782 9 109383064.555 9                  26712410.562    26712410.202
 144950419.362 8 112948431.651 6                  27583113.836    27583113.636
 148153614.988 8 115444418.719 6                  28192668.712    28192668.712
 143112247.417 9 111516087.579 6                  27233325.780    27233324.900
 155077149.747 7 120839351.566 5                  29510194.844    29510191.204
 144113316.942 8 112296154.221 9                  27423832.698    27423829.558
 159098316.777 6 123972737.104 4                  30275377.480    30275376.100
 163544646.634 6 127437370.811 2                  31121497.454    31121492.694
 155442672.076 6 121124211.841 5                  29579740.524    29579735.824
 145063953.468 9 113036879.860 6                  27604723.316    27604722.076
 160619248.196 7 124926093.574 5                  30005023.840    30005018.920
 160648575.454 6                                                  30084313.580
 145509942.078 9 113174469.652 7                  27258884.420    27258884.120
 147805956.332 9 114960214.201 7                  27659844.116    27659844.676
 156592088.583 7 121793878.505 4                  29293781.408    29293774.388
 145650511.434 9 113283804.224 7                  27266046.100    27266044.720
 146598209.781 9 114020863.884 7                  27395342.780    27395342.400
 24 11 23  0 33 30.0000000  0 17G17G22G19G14G07G30G02G21G15G13R03R13
                                R22R11R01R12R21
 140420208.140 9 109418414.235 9                  26721043.262    26721042.822
 145010371.465 9 112995147.633 6                  27594522.196    27594522.156
 148131282.977 8 115427017.264 6                  28188419.112    28188418.972
 143189240.132 8 111576081.948 6                  27247977.080    27247975.800
 155214964.868 7 120946739.906 5                  29536420.244    29536416.824
 144213074.954 9 112373887.735 9                  27442815.978    27442812.918
 159186308.938 6 124041302.482 4                  30292121.618    30292120.918
 163667721.152 5 127533273.106 2                  31144917.214    31144913.474
 155477517.131 7 121151363.922 5                  29586371.524    29586366.364
 145127482.395 9 113086382.943 6                  27616812.516    27616811.116
 160621326.580 7 124927710.277 5                  30005412.540    30005406.360
 160633280.468 6                                                  30081449.980
 145480602.354 9 113151649.978 7                  27253388.240    27253387.840
 147901923.668 9 115034855.513 7                  27677802.676    27677803.456
 156763269.724 7 121927019.184 4                  29325804.748    29325797.168
 145670218.448 9 113299131.990 7                  27269735.140    27269733.780
 146690693.524 9 114092795.738 7                  27412625.420    27412625.280
 24 11 23  0 34  0.0000000  0 17G17G22G19G14G07G30G02G21G15G13R03R13
                                R22R11R01R12R21
 140470158.802 9 109457336.881 9                  26730548.462    26730548.342
 145074534.179 9 113045144.611 6                  27606731.956    27606731.676
 148113344.293 8 115413039.184 6                  28185005.492    28185005.852
 143270447.307 8 111639360.310 6                  27263430.220    27263429.200
 155357129.605 7 121057517.566 5                  29563473.244    29563469.944
 144317301.341 9 112455103.099 9                  27462649.738    27462646.398
 159278850.270 6 124113412.676 4                  30309731.898    30309730.458
 163795283.372 6 127632672.340 2                  31169191.774    31169187.734
 155516986.578 7 121182119.415 5                  29593882.144    29593877.144
 145195663.879 9 113139511.395 6                  27629786.796    27629785.556
 160628174.390 8 124933036.515 5                  30006691.420    30006686.480
 160622044.889 6                                                  30079344.900
 145455917.084 9 113132450.427 7                  27248763.680    27248763.380
 148002175.214 9 115112828.971 7                  27696563.596    27696564.376
 156938699.293 6 122063464.135 4                  29358621.768    29358615.148
 145694132.398 9 113317731.813 7                  27274212.080    27274209.720
 146788091.969 9 114168550.140 7                  27430826.140    27430826.380
 24 11 23  0 34 30.0000000  0 17G17G22G19G14G07G30G02G21G15G13R03R13
                                R22R11R01R12R21
 140300682.016 9 109325277.101 9                  26698298.082    26698297.882
 144918894.575 9 112923867.056 6                  27577114.818    27577114.758
 147875788.116 8 115227930.586 6                  28139800.174    28139799.834
 143131856.532 9 111531367.542 6                  27237057.260    27237055.980
 155279631.493 6 120997129.369 5                  29548726.224    29548722.224
 144201984.270 9 112365245.637 9                  27440705.698    27440702.498
 159151928.591 6 124014512.726 4                  30285579.638    30285578.478
 163703320.152 6 127561012.796 2                  31151691.414    31151687.514
 155337068.594 6 121041923.671 5                  29559644.744    29559639.464
 145044485.671 9 113021710.212 6                  27601018.596    27601017.476
 160411602.174 7 124764591.628 5                  29966234.204    29966228.244
 160387236.918 6                                                  30035372.340
 145208338.498 9 112939889.410 8                  27202383.840    27202383.260
 147878920.363 9 115016964.127 7                  27673498.516    27673498.676
 156890501.503 6 122025976.746 4                  29349605.948    29349599.168
 145494542.339 9 113162495.188 7                  27236848.160    27236846.640
 146662292.354 9 114070706.047 7                  27407317.620    27407317.320
 24 11 23  0 35  0.0000000  0 17G17G22G19G14G07G30G02G21G15G13R03R13
                                R22R11R01R12R21
 140147217.584 9 109205694.479 9                  26669094.804    26669094.644
 144778892.182 9 112814774.342 6                  27550473.238    27550473.038
 147654056.907 8 115055153.136 6                  28097605.914    28097605.974
 143008907.639 8 111435563.248 6                  27213660.900    27213659.600
 155217909.372 7 120949034.157 5                  29536980.584    29536977.504
 144102563.870 9 112287775.187 9                  27421786.598    27421783.238
 159040983.468 6 123928062.066 3                  30264467.180    30264465.600
 163627269.434 6 127501752.582 2                  31137219.774    31137215.714
 155173203.905 7 120914236.984 5                  29528462.204    29528456.644
 144909387.396 8 112916438.843 6                  27575310.238    27575308.978
 160211444.900 7 124608913.900 5                  29928841.944    29928838.344
 160168100.848 6                                                  29994333.020
 144977031.429 9 112759984.023 7                  27159052.460    27159052.040
 147771572.481 9 114933471.366 7                  27653409.676    27653409.956
 156858168.181 6 122000828.364 4                  29343556.688    29343550.548
 145310777.606 9 113019567.153 7                  27202446.960    27202445.500
 146553041.770 9 113985733.421 7                  27386901.380    27386901.160
 24 11 23  0 35 30.0000000  0 17G17G22G19G14G07G30G02G21G15G13R03R13
                                R22R11R01R12R21
 140199321.689 9 109246295.132 9                  26679009.944    26679009.504
 144844082.203 8 112865571.816 6                  27562878.278    27562878.118
 147637708.752 8 115042414.425 6                  28094494.674    28094495.174
 143091156.233 8 111499653.101 6                  27229312.260    27229310.720
 155361518.411 6 121060937.266 4                  29564308.524    29564304.964
 144208596.082 9 112370397.686 9                  27441963.918    27441960.578
 159135570.209 6 124001766.121 3                  30282466.358    30282464.998
 163756685.063 6 127602596.007 2                  31161846.174    31161842.574
 155214949.176 7 120946765.853 5                  29536406.244    29536400.464
 144979924.794 9 112971403.063 6                  27588733.036    27588731.876
 160220797.929 7 124616188.645 5                  29930589.884    29930584.264
 160157256.190 6                                                  29992302.780
 144954551.632 9 112742499.840 7                  27154841.100    27154840.640
 147872886.709 9 115012271.348 7                  27672368.816    27672369.276
 157034516.339 6 122137987.784 4                  29376546.428    29376540.588
 145335525.838 9 113038815.874 7                  27207079.640    27207078.340
 146653363.772 9 114063761.684 7                  27405648.940    27405648.600
 24 11 23  0 36  0.0000000  0 17G17G22G19G14G07G30G02G21G15G13R03R13
                                R22R11R01R12R21
 140218729.738 9 109261418.343 9                  26682703.062    26682702.882
 144876200.199 8 112890598.877 6                  27568990.078    27568990.118
 147588481.863 8 115004055.916 6                  28085127.014    28085127.174
 143140338.601 9 111537977.057 6                  27238671.340    27238670.340
 155472194.201 6 121147178.091 4                  29585369.224    29585365.724
 144281817.639 9 112427453.445 9                  27455897.458    27455894.098
 159197424.891 6 124049964.671 4                  30294236.678    30294236.238
 163853301.833 6 127677881.849 2                  31180230.872    31180228.212
 155224041.152 7 120953850.594 5                  29538136.044    29538130.544
 145017834.160 8 113000942.846 6                  27595946.916    27595945.656
 160196953.935 7 124597643.497 6                  29926135.264    29926130.544
 160112589.258 6                                                  29983937.420
 144898874.606 9 112699195.611 8                  27144410.160    27144410.320
 147940580.246 9 115064921.925 7                  27685036.956    27685037.156
 157177173.683 6 122248943.261 4                  29403234.964    29403227.964
 145326589.034 9 113031865.126 7                  27205406.780    27205405.440
 146720633.018 9 114116082.250 7                  27418219.960    27418219.660
 24 11 23  0 36 30.0000000  0 17G17G22G19G14G07G30G02G21G15G13R03R13
                                R22R11R01R12R21
 140446812.046 9 109439144.871 9                  26726105.502    26726105.262
 145116615.655 9 113077935.645 6                  27614739.516    27614739.636
 147747748.530 8 115128159.919 6                  28115434.434    28115434.314
 143397824.545 8 111738615.490 6                  27287669.398    27287668.198
 155791305.820 6 121395836.445 4                  29646094.684    29646090.684
 144563598.637 9 112647023.049 9                  27509518.578    27509515.358
 159467917.082 6 124260737.911 4                  30345709.438    30345708.498
 164158488.220 6 127915689.475 2                  31238306.752    31238304.012
 155441850.055 7 121123571.900 5                  29579583.704    29579578.664
 145264485.143 8 113193138.435 6                  27642883.136    27642881.776
 160385789.039 7 124744515.389 5                  29961411.384    29961405.964
 160279370.190 6                                                  30015169.720
 145055188.907 9 112820773.507 8                  27173693.140    27173693.000
 148220096.674 9 115282323.622 7                  27737344.496    27737345.376
 157531663.428 6 122524657.285 4                  29469548.184    29469541.384
 145529324.794 9 113189548.595 7                  27243359.640    27243357.200
 147000635.297 9 114333861.833 7                  27470545.120    27470544.700
 24 11 23  0 37  0.0000000  0 17G17G22G19G14G07G30G02G21G15G13R03R13
                                R22R11R01R12R21
 140532840.563 9 109506180.137 9                  26742476.042    26742475.922
 145214600.618 9 113154287.609 6                  27633385.516    27633385.616
 147764782.157 8 115141432.992 6                  28118675.734    28118675.454
 143512886.190 9 111828273.945 6                  27309564.578    27309563.558
 155968125.524 6 121533617.975 4                  29679742.342    29679738.382
 144703211.671 9 112755812.424 9                  27536086.078    27536083.098
 159596318.850 7 124360791.337 4                  30370143.198    30370142.378
 164321515.215 6 128042723.556 2                  31269329.192    31269326.312
 155517648.639 6 121182635.832 5                  29594007.724    29594001.804
 145369149.558 8 113274695.129 6                  27662799.996    27662798.796
 160430033.184 7 124778927.645 5                  29969675.564    29969671.044
 160301204.279 6                                                  30019260.420
 145067228.650 9 112830137.863 8                  27175948.780    27175948.540
 148354792.402 9 115387086.997 7                  27762550.916    27762551.476
 157741212.455 7 122687639.599 4                  29508749.724    29508742.464
 145587213.729 9 113234573.416 7                  27254196.240    27254194.420
 147136223.060 9 114439319.008 7                  27495882.720    27495882.960
 24 11 23  0 37 30.0000000  0 17G17G22G19G14G07G30G02G21G15G13R03R13
                                R22R11R01R12R21
 140477974.185 9 109463427.166 9                  26732035.282    26732035.282
 145171313.356 9 113120557.319 6                  27625148.076    27625147.856
 147640743.782 8 115044779.815 6                  28095071.894    28095072.114
 143486682.489 8 111807855.507 6                  27304578.058    27304577.258
 156003811.600 6 121561425.279 4                  29686532.982    29686530.282
 144701816.030 9 112754724.910 9                  27535820.538    27535817.418
 159583788.604 6 124351027.603 4                  30367758.978    30367758.378
 164343539.943 5 128059885.741 2                  31273521.012    31273517.052
 155452596.185 6 121131945.698 5                  29581628.784    29581622.684
 145332986.038 8 113246515.775 6                  27655918.316    27655916.956
 160330870.088 7 124701800.943 5                  29951150.764    29951146.524
 160179269.344 6 124583841.014 3                  29996422.960    29996424.220
 144936175.549 9 112728207.775 8                  27151397.620    27151398.020
 148345847.016 9 115380129.506 7                  27760877.336    27760877.576
 157806995.310 7 122738803.826 4                  29521054.984    29521048.884
 145501435.019 9 113167856.726 7                  27238137.880    27238136.960
 147128575.596 9 114433371.009 7                  27494454.020    27494453.520
 24 11 23  0 38  0.0000000  0 17G17G22G19G14G07G30G02G21G15G13R03R13
                                R22R11R01R12R21
 140437388.782 9 109431802.234 9                  26724312.062    26724311.922
 145141929.720 8 113097661.024 6                  27619556.576    27619556.356
 147530811.919 8 114959118.727 6                  28074152.334    28074152.534
 143474389.671 8 111798276.717 6                  27302238.898    27302237.958
 156053539.654 6 121600174.366 4                  29695995.842    29695992.702
 144714588.176 9 112764677.226 9                  27538251.018    27538247.938
 159585502.245 6 124352363.012 4                  30368085.098    30368083.458
 164379737.161 5 128088091.431 2                  31280409.232    31280404.412
 155401869.847 6 121092418.776 5                  29571975.924    29571970.504
 145311170.844 9 113229516.930 6                  27651767.016    27651765.616
 160246373.158 8 124636081.239 5                  29935366.484    29935362.144
 160071249.343 6                                                  29976196.064
 144819662.382 9 112637586.547 7                  27129570.820    27129570.600
 148351055.755 9 115384180.774 7                  27761852.156    27761852.156
 157886857.127 6 122800918.342 4                  29535996.504    29535988.384
 145429728.808 9 113112085.333 7                  27224713.980    27224713.220
 147135707.004 9 114438917.687 7                  27495786.720    27495786.140
 24 11 23  0 38 30.0000000  0 17G17G22G19G14G07G30G02G21G15G13R03R13
                                R22R11R01R12R21
 140523917.786 9 109499227.485 9                  26740777.962    26740777.702
 145239283.204 9 113173520.927 6                  27638082.156    27638082.616
 147547822.923 8 114972374.158 6                  28077389.454    28077389.494
 143588841.732 8 111887460.171 6                  27324018.358    27324017.338
 156230142.468 6 121737786.918 4                  29729602.062    29729598.182
 144854362.287 9 112873592.113 9                  27564849.078    27564845.958
 159714293.665 6 124452720.074 4                  30392593.118    30392592.738
 164542939.088 5 128215261.806 2                  31311465.752    31311460.712
 155478303.744 6 121151977.745 5                  29586520.444    29586515.664
 145416537.684 9 113311620.970 6                  27671817.416    27671816.436
 160291483.578 8 124671167.273 5                  29943792.724    29943788.724
 160091802.236 6                                                  29980043.360
 144832310.520 9 112647424.109 8                  27131940.420    27131940.080
 148485157.926 9 115488482.486 7                  27786947.396    27786947.316
 158095571.557 7 122963251.550 4                  29575040.784    29575033.964
 145486793.981 9 113156469.454 7                  27235396.880    27235395.660
 147272515.002 9 114545323.935 7                  27521352.240    27521352.520
 24 11 23  0 39  0.0000000  0 17G17G22G19G14G07G30G02G21G15G13R03R13
                                R22R11R01R12R21
 140425076.115 9 109422208.055 9                  26721969.062    26721968.702
 145150888.142 9 113104641.701 6                  27621260.936    27621261.496
 147379292.914 8 114841052.179 6                  28045319.134    28045319.034
 143517553.492 8 111831910.926 6                  27310452.538    27310451.638
 156221134.796 6 121730767.901 4                  29727888.402    29727883.702
 144808653.629 9 112837974.973 9                  27556150.998    27556148.038
 159657677.222 6 124408603.479 4                  30381819.138    30381818.418
 164520659.435 6 128197901.097 2                  31307226.332    31307220.912
 155369413.027 7 121067127.918 5                  29565799.164    29565793.884
 145336600.898 8 113249332.572 6                  27656606.176    27656604.836
 160147888.583 8 124559482.398 5                  29916969.444    29916964.124
 159923393.473 5                                                  29948505.344
 144656701.054 9 112510839.085 8                  27099042.600    27099042.580
 148430397.191 9 115445890.826 7                  27776699.536    27776699.676
 158115266.508 6 122978569.615 4                  29578726.264    29578717.004
 145354985.561 9 113053951.894 7                  27210721.940    27210720.700
 147220794.615 9 114505096.992 7                  27511687.420    27511686.380
 24 11 23  0 39 30.0000000  0 17G17G22G19G14G07G30G02G21G15G13R03R13
                                R22R11R01R12R21
 140416979.677 9 109415899.187 9                  26720428.242    26720428.122
 145152860.015 9 113106178.266 6                  27621636.016    27621636.456
 147301340.511 8 114780310.153 6                  28030485.334    28030485.414
 143536640.889 8 111846784.252 6                  27314084.858    27314083.618
 156302631.778 6 121794271.998 4                  29743396.742    29743393.582
 144853578.236 8 112872981.156 9                  27564699.778    27564696.998
 159691768.505 6 124435168.216 4                  30388306.418    30388305.518
 164589011.791 6 128251162.756 2                  31320232.972    31320228.972
 155351314.483 7 121053025.236 5                  29562355.164    29562349.984
 145347476.165 9 113257806.814 6                  27658675.636    27658674.216
 160096857.950 8 124519792.024 5                  29907435.004    29907431.324
 159846601.158 5 124325097.467 3                  29934124.404    29934124.644
 144573317.682 9 112445985.465 8                  27083422.160    27083421.680
 148467549.612 9 115474787.174 7                  27783651.776    27783652.496
 158226810.669 6 123065325.929 4                  29599594.144    29599584.484
 145314981.012 9 113022837.344 7                  27203232.920    27203231.780
 147261712.841 9 114536922.302 7                  27519333.560    27519333.060
 24 11 23  0 40  0.0000000  0 17G17G22G19G14G07G30G02G21G15G13R03R13
                                R22R11R01R12R21
 140343359.844 9 109358533.132 9                  26706418.762    26706418.662
 145088930.383 9 113056363.001 6                  27609470.776    27609471.216
 147157699.401 8 114668382.120 6                  28003151.214    28003151.474
 143489835.986 9 111810312.925 6                  27305178.278    27305176.978
 156318364.902 6 121806531.528 4                  29746390.802    29746386.702
 144832868.491 9 112856843.686 9                  27560758.958    27560755.598
 159660299.314 6 124410646.862 4                  30382317.678    30382317.078
 164591727.065 6 128253278.619 2                  31320749.352    31320746.032
 155267740.246 7 120987902.542 5                  29546451.204    29546446.164
 145292895.168 9 113215276.172 6                  27648289.236    27648288.336
 159979210.487 8 124428288.558 6                  29885458.324    29885453.484
 159702632.749 6                                                  29907164.764
 144423427.270 9 112329404.158 8                  27055342.220    27055342.280
 148437711.691 9 115451579.940 7                  27778068.596    27778068.596
 158271239.718 7 123099881.640 4                  29607905.864    29607896.884
 145207932.628 9 112939577.585 8                  27183193.500    27183191.960
 147236140.779 9 114517032.951 7                  27514554.640    27514553.840
 24 11 23  0 40 30.0000000  0 17G17G22G19G14G07G30G02G21G15G13R03R13
                                R22R11R01R12R21
 140264826.720 9 109297338.536 9                  26691474.342    26691474.282
 145019709.306 9 113002424.540 6                  27596298.436    27596298.776
 147008981.886 8 114552498.445 6                  27974851.114    27974851.014
 143437749.052 8 111769725.728 6                  27295266.578    27295265.238
 156328943.590 6 121814774.627 4                  29748403.562    29748400.242
 144807134.787 9 112836791.445 8                  27555861.978    27555858.838
 159623879.049 6 124382267.519 4                  30375387.338    30375386.778
 164589413.846 6 128251476.186 2                  31320309.452    31320304.532
 155179301.134 6 120918989.034 5                  29529621.824    29529616.684
 145233467.622 8 113168969.000 6                  27636980.436    27636979.656
 159856689.188 8 124332994.342 5                  29862569.684    29862566.164
 159553078.130 6                                                  29879157.264
 144268602.042 9 112208984.651 8                  27026338.040    27026338.340
 148402517.562 9 115424206.763 7                  27771481.736    27771482.616
 158310204.052 6 123130187.023 4                  29615193.864    29615185.784
 145095452.694 9 112852093.283 8                  27162136.840    27162135.200
 147205796.191 9 114493431.635 7                  27508883.960    27508883.660
 24 11 23  0 41  0.0000000  0 17G17G22G19G14G07G30G02G21G15G13R03R13
                                R22R11R01R12R21
 140273816.028 9 109304343.238 9                  26693184.862    26693184.762
 145037631.675 9 113016390.064 6                  27599708.916    27599709.036
 146947625.795 8 114504688.600 6                  27963175.254    27963175.434
 143472815.633 8 111797050.357 6                  27301939.338    27301938.078
 156426802.729 6 121891028.453 4                  29767026.222    29767022.002
 144868812.789 8 112884852.216 9                  27567598.958    27567595.678
 159674943.056 6 124422057.734 4                  30385104.318    30385104.058
 164674505.590 6 128317781.501 2                  31336500.852    31336497.892
 155178433.286 7 120918312.866 5                  29529456.424    29529451.984
 145261628.902 8 113190912.863 6                  27642339.656    27642338.396
 159823456.384 8 124307146.722 6                  29856361.464    29856356.684
 159491867.006 6                                                  29867695.244
 144202742.522 9 112157760.697 8                  27014000.120    27014000.820
 148455963.748 9 115465776.032 7                  27781483.496    27781484.076
 158437727.499 6 123229371.674 4                  29639050.384    29639041.784
 145071504.920 9 112833467.333 7                  27157653.500    27157652.040
 147264804.495 9 114539327.007 7                  27519910.860    27519910.960
 24 11 23  0 41 30.0000000  0 17G17G22G19G14G07G30G02G21G15G13R03R13
                                R22R11R01R12R21
 140344708.202 9 109359583.940 9                  26706675.202    26706675.242
 145117078.468 8 113078296.701 6                  27614827.096    27614827.116
 146948014.045 8 114504991.238 6                  27963249.054    27963249.214
 143569416.824 8 111872324.044 6                  27320321.738    27320320.538
 156586322.479 6 122015329.501 4                  29797381.782    29797378.162
 144992283.757 9 112981063.354 9                  27591094.656    27591091.356
 159787871.921 7 124510054.324 4                  30406594.098    30406593.598
 164821382.331 5 128432230.998 2                  31364450.712    31364447.312
 155239517.592 7 120965911.099 5                  29541080.024    29541076.364
 145351759.682 9 113261144.653 6                  27659490.816    27659489.496
 159853417.239 8 124330449.726 6                  29861957.964    29861954.544
 159492966.704 6                                                  29867901.084
 144199829.215 9 112155494.902 8                  27013454.260    27013454.360
 148572000.299 9 115556026.714 7                  27803198.176    27803198.616
 158627745.476 6 123377163.217 4                  29674597.164    29674589.204
 145110048.249 9 112863445.569 8                  27164868.760    27164867.620
 147387076.338 9 114634427.356 7                  27542760.500    27542760.480
 24 11 23  0 42  0.0000000  0 17G17G22G19G14G07G30G02G21G15G13R03R13
                                R22R11R01R12R21
 140293105.884 9 109319374.385 9                  26696855.602    26696855.782
 145073652.292 8 113044458.165 6                  27606563.356    27606563.576
 146825751.433 8 114409721.771 6                  27939983.034    27939983.194
 143543156.006 8 111851861.103 6                  27315324.398    27315323.478
 156623105.754 6 122043991.744 4                  29804381.242    29804377.982
 144993151.308 9 112981739.361 9                  27591259.776    27591256.556
 159778268.428 6 124502571.152 4                  30404766.398    30404766.318
 164845645.492 5 128451137.443 2                  31369067.512    31369063.932
 155178157.462 7 120918098.080 5                  29529403.764    29529399.064
 145319462.664 8 113235978.163 6                  27653344.876    27653343.616
 159758736.929 7 124256809.601 6                  29844270.824    29844266.384
 159369001.453 6                                                  29844684.924
 144072555.677 9 112056504.483 8                  26989612.080    26989611.880
 148563121.015 9 115549120.639 7                  27801536.836    27801537.676
 158692681.136 6 123427668.519 4                  29686746.124    29686736.564
 145023641.757 9 112796240.607 7                  27148693.160    27148692.200
 147384839.006 9 114632687.238 7                  27542342.540    27542342.140
 24 11 23  0 42 30.0000000  0 17G17G22G19G14G07G30G02G21G15G13R03R13
                                R22R11R01R12R21
 140309547.674 9 109332186.216 9                  26699984.442    26699984.342
 145097891.916 9 113063346.225 6                  27611175.896    27611176.376
 146771379.131 8 114367353.846 6                  27929636.314    27929636.494
 143584572.202 8 111884133.499 6                  27323205.678    27323204.538
 156727690.597 6 122125486.374 4                  29824283.242    29824279.442
 145061954.489 9 113035352.221 9                  27604352.556    27604349.276
 159836671.082 6 124548079.785 3                  30415879.978    30415879.578
 164937832.222 6 128522971.342 2                  31386610.612    31386605.552
 155184892.565 7 120923346.280 5                  29530685.164    29530680.604
 145355276.222 9 113263884.838 6                  27660159.696    27660158.876
 159733511.163 7 124237189.688 6                  29839558.344    29839552.604
 159313589.832 6                                                  29834307.924
 144014476.043 9 112011331.547 8                  26978731.484    26978731.444
 148623080.248 9 115595755.636 7                  27812757.536    27812757.836
 158826351.754 6 123531634.283 4                  29711751.484    29711742.464
 145005972.948 9 112782498.300 8                  27145385.400    27145384.260
 147452116.423 9 114685014.156 7                  27554914.900    27554914.340
 24 11 23  0 43  0.0000000  0 18G17G22G19G14G07G30G02G21G15G13R03R13
                                R22R23R11R01R12R21
 140463241.578 9 109451947.749 9                  26729231.402    26729231.182
 145259004.887 9 113188888.842 6                  27641834.776    27641834.976
 146854107.005 8 114431817.233 6                  27945378.614    27945379.234
 143762873.293 8 112023069.451 6                  27357135.138    27357134.178
 156969284.040 6 122313740.962 4                  29870256.622    29870252.742
 145267901.208 9 113195830.172 8                  27643542.936    27643539.856
 160032287.257 6 124700508.054 3                  30453104.338    30453103.538
 165167148.294 6 128701659.283 2                  31430247.852    31430244.012
 155328931.174 7 121035584.217 5                  29558094.444    29558090.284
 145528408.138 9 113398792.844 6                  27693105.756    27693104.196
 159848240.805 7 124326423.985 6                  29860991.704    29860985.644
 159397058.062 6                                                  29849938.584
 144095896.037 9 112074658.318 8                  26993984.080    26993984.060
 159488396.911 6                                                  29814673.524
 148822255.097 9 115750669.441 7                  27850030.036    27850030.356
 159099153.554 6 123743813.235 4                  29762783.584    29762775.664
 145127393.703 9 112876936.763 7                  27168115.760    27168114.420
 147659381.164 9 114846220.099 7                  27593647.196    27593646.836
 24 11 23  0 43 30.0000000  0 18G17G22G19G14G07G30G02G21G15G13R03R13
                                R22R23R11R01R12R21
 140604794.019 9 109562248.400 9                  26756167.882    26756167.822
 145407597.899 9 113304675.654 6                  27670110.876    27670111.096
 146924544.633 8 114486703.805 6                  27958782.394    27958782.734
 143928666.725 8 112152259.172 6                  27388684.478    27388683.178
 157198492.904 6 122492345.205 4                  29913873.942    29913869.502
 145461599.074 9 113346763.572 8                  27680402.416    27680399.496
 160215723.721 6 124843445.649 3                  30488011.298    30488010.158
 165384199.828 5 128870790.428 2                  31471551.432    31471547.072
 155460880.443 7 121138401.886 5                  29583203.724    29583199.304
 145689464.917 8 113524291.649 6                  27723753.796    27723752.396
 159950748.469 7 124406152.312 6                  29880139.944    29880135.044
 159467599.915 6                                                  29863150.704
 144165066.401 9 112128457.613 8                  27006941.720    27006942.080
 159500659.369 6                                                  29816963.664
 149008734.061 9 115895708.668 7                  27884927.076    27884927.436
 159359116.268 6 123946006.232 4                  29811415.444    29811407.664
 145236045.403 9 112961443.738 8                  27188455.480    27188454.500
 147854505.229 9 114997983.296 7                  27630110.496    27630110.536
 24 11 23  0 44  0.0000000  0 18G17G22G19G14G07G30G02G21G15G13R03R13
                                R22R23R11R01R12R21
 140601914.433 9 109560004.618 9                  26755619.822    26755619.802
 145411380.434 8 113307623.141 6                  27670830.676    27670831.036
 146850403.033 8 114428931.236 6                  27944673.654    27944674.094
 143949662.268 9 112168619.375 6                  27392679.678    27392678.678
 157283025.969 6 122558215.067 4                  29929959.762    29929956.562
 145510757.976 8 113385069.208 8                  27689756.936    27689753.956
 160254689.484 6 124873808.660 3                  30495425.838    30495425.298
 165456694.931 6 128927280.176 2                  31485346.270    31485342.970
 155448450.466 7 121128716.237 5                  29580838.224    29580833.724
 145706155.708 9 113537297.479 6                  27726929.856    27726928.836
 159906276.778 8 124371563.346 6                  29871831.904    29871827.524
 159390788.284 6                                                  29848765.164
 144087610.339 9 112068214.119 8                  26992431.560    26992431.720
 159365415.456 6                                                  29791683.324
 149047995.802 9 115926245.617 7                  27892274.576    27892274.336
 159471666.465 6 124033545.011 4                  29832470.764    29832462.224
 145197454.059 9 112931428.335 8                  27181231.180    27181230.240
 147902775.608 9 115035526.957 7                  27639131.176    27639130.576
 24 11 23  0 44 30.0000000  0 18G17G22G19G14G07G30G02G21G15G13R03R13
                                R22R23R11R01R12R21
 140544959.936 9 109515624.543 9                  26744781.602    26744781.682
 145360709.756 9 113268139.555 6                  27661188.316    27661188.296
 146722041.894 8 114328909.678 6                  27920246.954    27920247.794
 143916217.609 8 112142558.642 6                  27386315.638    27386314.698
 157313240.815 6 122581759.054 4                  29935709.422    29935705.962
 145505735.592 8 113381155.662 8                  27688801.316    27688798.076
 160239542.030 7 124862005.530 4                  30492543.438    30492543.238
 165474989.457 6 128941535.714 2                  31488827.230    31488823.750
 155381999.013 7 121076935.937 5                  29568193.244    29568188.824
 145668837.759 9 113508218.574 6                  27719828.556    27719827.556
 159806871.388 8 124294248.182 6                  29853262.364    29853258.224
 159258440.869 6                                                  29823980.824
 143955317.501 9 111965319.797 8                  26967648.464    26967648.764
 159174649.189 6                                                  29756019.704
 149031923.722 9 115913745.152 7                  27889266.576    27889266.796
 159528714.646 6 124077915.614 4                  29843141.364    29843134.884
 145103471.081 9 112858330.553 8                  27163637.100    27163636.000
 147896201.372 9 115030413.700 7                  27637902.396    27637901.936
 24 11 23  0 45  0.0000000  0 18G17G22G19G14G07G30G02G21G15G13R03R13
                                R22R23R11R01R12R21
 140441057.643 9 109434661.777 9                  26725009.462    26725009.482
 145262712.835 8 113191778.378 6                  27642540.036    27642540.196
 146546590.178 8 114192194.161 6                  27886859.734    27886860.374
 143835460.129 9 112079630.783 6                  27370948.078    27370946.958
 157296263.522 6 122568529.937 4                  29932479.202    29932475.722
 145453659.273 8 113340576.716 8                  27678891.456    27678888.396
 160177407.968 7 124813589.446 4                  30480719.498    30480719.578
 165446208.623 5 128919109.156 2                  31483350.890    31483347.410
 155268653.597 7 120988614.893 5                  29546624.144    29546620.064
 145584637.490 9 113442607.993 6                  27703805.756    27703804.796
 159659794.928 8 124179855.513 6                  29825787.284    29825783.024
 159077800.561 6                                                  29790152.604
 143775431.931 9 111825408.917 8                  26933949.684    26933950.444
 158935619.561 6                                                  29711334.944
 148967766.663 9 115863845.267 7                  27877260.236    27877261.016
 159537506.895 6 124084753.805 4                  29844787.904    29844779.464
 144961342.591 9 112747786.265 8                  27137030.240    27137029.040
 147842038.542 9 114988287.092 7                  27627780.996    27627780.396
 24 11 23  0 45 30.0000000  0 18G17G22G19G14G07G30G02G21G15G13R03R13
                                R22R23R11R01R12R21
 140500191.732 9 109480740.349 9                  26736262.302    26736262.162
 145327374.220 9 113242163.934 6                  27654844.556    27654844.976
 146534035.281 8 114182411.235 6                  27884470.374    27884471.134
 143917374.883 9 112143460.503 6                  27386535.798    27386535.078
 157442077.889 6 122682151.462 4                  29960226.542    29960223.482
 145564513.965 9 113426957.000 8                  27699986.476    27699983.376
 160278271.405 6 124892184.411 3                  30499913.158    30499913.258
 165580335.676 6 129023623.798 2                  31508874.350    31508870.450
 155318399.355 7 121027377.875 5                  29556090.344    29556085.544
 145663539.183 9 113504089.855 6                  27718820.076    27718819.396
 159678951.358 8 124194755.090 6                  29829366.524    29829361.564
 159062246.526 6                                                  29787240.944
 143761260.858 9 111814387.087 8                  26931295.304    26931295.384
 158862084.900 7                                                  29697588.564
 149069053.360 9 115942623.851 7                  27896214.956    27896215.836
 159711641.569 6 124220191.617 4                  29877362.824    29877354.564
 144984523.178 9 112765815.700 8                  27141369.500    27141368.600
 147954112.648 9 115075455.870 7                  27648724.696    27648724.096
 24 11 23  0 46  0.0000000  0 18G17G22G19G14G07G30G02G21G15G13R03R13
                                R22R23R11R01R12R21
 140558892.244 9 109526481.065 9                  26747432.562    26747432.602
 145391223.605 9 113291916.759 6                  27666994.636    27666995.136
 146520909.024 9 114172183.094 6                  27881972.534    27881973.374
 143998492.275 9 112206668.899 6                  27401971.738    27401970.918
 157587213.829 6 122795244.331 4                  29987845.120    29987841.960
 145674830.105 9 113512917.628 8                  27720978.796    27720975.776
 160378661.861 6 124970410.797 3                  30519016.538    30519016.678
 165713899.704 6 129127699.705 2                  31534289.950    31534285.930
 155367766.572 6 121065845.879 5                  29565484.564    29565480.224
 145742072.722 9 113565284.836 6                  27733764.616    27733763.556
 159697823.226 7 124209433.340 6                  29832891.724    29832885.804
 159045667.636 6                                                  29784136.484
 143746755.494 9 111803105.258 8                  26928577.404    26928577.504
 158787646.377 7                                                  29683672.664
 149169558.075 9 116020794.232 7                  27915023.056    27915023.816
 159884829.071 6 124354892.785 4                  29909761.844    29909754.244
 145006844.613 9 112783176.909 7                  27145547.880    27145547.120
 148065960.470 9 115162448.654 7                  27669625.716    27669625.236
 24 11 23  0 46 30.0000000  0 18G17G22G19G14G07G30G02G21G15G13R03R13
                                R22R23R11R01R12R21
 140629550.176 9 109581539.258 9                  26760878.282    26760878.262
 145466652.311 8 113350692.429 6                  27681348.276    27681348.676
 146519604.767 9 114171166.904 6                  27881724.194    27881724.874
 144091203.771 8 112278911.662 6                  27419614.158    27419613.258
 157744061.611 6 122917463.351 4                  30017692.060    30017689.240
 145796999.094 8 113608114.249 8                  27744226.916    27744223.936
 160490970.432 6 125057924.039 3                  30540388.378    30540387.578
 165859290.095 5 129240990.984 1                  31561957.290    31561952.750
 155429146.527 7 121113674.458 5                  29577164.724    29577160.964
 145832628.652 8 113635847.919 6                  27750996.956    27750995.896
 159729034.675 7 124233709.056 6                  29838721.984    29838716.424
 159040656.253 6                                                  29783197.324
 143744506.881 9 111801356.451 8                  26928156.004    26928156.224
 158724922.163 6                                                  29671945.964
 149281882.154 9 116108157.455 7                  27936042.756    27936042.656
 160069670.362 6 124498658.013 4                  29944340.444    29944332.884
 145040904.349 9 112809667.909 8                  27151923.980    27151922.560
 148190198.398 9 115259078.181 7                  27692842.716    27692842.836
 24 11 23  0 47  0.0000000  0 18G17G22G19G14G07G30G02G21G15G13R03R13
                                R22R23R11R01R12R21
 140611347.897 9 109567355.723 9                  26757414.482    26757414.662
 145452843.641 9 113339932.492 6                  27678720.416    27678720.856
 146429307.608 8 114100805.588 6                  27864541.156    27864542.016
 144094692.902 8 112281630.514 6                  27420278.118    27420277.178
 157811804.291 6 122970249.783 4                  30030583.420    30030579.980
 145830204.493 9 113633988.591 8                  27750545.796    27750542.676
 160514379.821 6 125076165.191 3                  30544842.958    30544842.538
 165915688.103 5 129284937.574 1                  31572689.170    31572685.270
 155401722.932 7 121092305.470 5                  29571946.164    29571941.264
 145834389.543 9 113637220.063 6                  27751331.956    27751330.596
 159669889.653 7 124187707.495 6                  29827672.864    29827667.324
 158944766.872 6                                                  29765239.604
 143652109.345 9 111729491.813 8                  26910846.984    26910846.904
 158571290.422 6                                                  29643225.884
 149303509.335 9 116124978.633 7                  27940089.896    27940090.416
 160163608.094 6 124571720.483 4                  29961913.604    29961904.664
 144984222.171 9 112765581.856 8                  27141312.700    27141311.980
 148224162.809 9 115285494.974 7                  27699189.776    27699189.836
 24 11 23  0 47 30.0000000  0 18G17G22G19G14G07G30G02G21G15G13R03R13
                                R22R23R11R01R12R21
 140775305.955 9 109695115.310 9                  26788614.682    26788614.622
 145620817.876 8 113470821.562 6                  27710684.996    27710685.256
 146521040.553 8 114172285.913 6                  27881997.274    27881997.674
 144279980.662 8 112426010.624 6                  27455537.158    27455535.998
 158061461.496 6 123164787.835 4                  30078091.520    30078088.740
 146045466.945 9 113801725.566 8                  27791508.756    27791505.616
 160719910.099 6 125236318.726 3                  30583953.856    30583953.176
 166154112.912 5 129470723.192 1                  31618059.310    31618056.090
 155556516.484 7 121212923.868 5                  29601402.404    29601397.784
 146018375.813 9 113780586.008 6                  27786343.416    27786342.216
 159796467.523 7 124286157.089 6                  29851318.804    29851314.304
 159033400.690 6                                                  29781836.424
 143744870.430 9 111801639.429 8                  26928224.204    26928224.244
 158602640.900 7                                                  29649087.644
 149510034.316 9 116285609.234 7                  27978737.996    27978738.396
 160442328.216 6 124788502.549 4                  30014053.820    30014045.100
 145112296.308 9 112865195.157 8                  27165288.700    27165287.840
 148443832.171 9 115456348.958 7                  27740240.436    27740240.136
 24 11 23  0 48  0.0000000  0 18G17G22G19G14G07G30G02G21G15G13R03R13
                                R22R23R11R01R12R21
 140895890.661 9 109789077.476 9                  26811561.122    26811561.202
 145745041.299 9 113567619.094 6                  27734323.856    27734323.976
 146569271.930 8 114209868.907 6                  27891175.274    27891175.854
 144421533.816 8 112536311.820 6                  27482473.698    27482472.778
 158267499.574 6 123325336.943 4                  30117299.380    30117296.100
 146217253.300 9 113935585.072 8                  27824198.516    27824195.376
 160882027.191 6 125362643.803 4                  30614804.136    30614803.576
 166349029.763 6 129622606.531 1                  31655150.550    31655148.170
 155667993.851 7 121299789.395 5                  29622615.644    29622611.244
 146159053.564 8 113890205.055 6                  27813113.396    27813111.976
 159879028.745 8 124350371.504 6                  29866741.804    29866736.464
 159077380.542 6 123726811.574 3                  29790073.284    29790072.044
 143793696.792 9 111839615.603 8                  26937370.664    26937371.324
 158589397.050 7                                                  29646611.344
 149672120.148 9 116411676.038 7                  28009070.456    28009070.916
 160676408.387 6 124970564.636 4                  30057844.540    30057835.840
 145195869.900 9 112930196.928 7                  27180933.760    27180932.540
 148619543.812 9 115593013.588 7                  27773076.556    27773075.976
 24 11 23  0 48 30.0000000  0 18G17G22G19G14G07G30G02G21G15G13R03R13
                                R22R23R11R01R12R21
 141116154.687 9 109960711.841 9                  26853475.902    26853476.142
 145968567.016 9 113741795.036 6                  27776859.416    27776859.396
 146717057.109 8 114325026.300 6                  27919298.014    27919298.474
 144662405.921 8 112724004.410 6                  27528310.058    27528309.218
 158572970.521 6 123563366.232 4                  30175428.060    30175424.620
 146488616.866 9 114147037.207 8                  27875837.336    27875834.096
 161143783.758 7 125566610.028 4                  30664614.296    30664614.596
 166643489.826 5 129852055.992 2                  31711184.750    31711181.630
 155879208.403 7 121464372.210 5                  29662808.384    29662803.544
 146399474.732 8 114077546.245 6                  27858863.936    27858862.736
 160063297.125 8 124493691.476 6                  29901164.484    29901159.084
 159222071.847 6                                                  29817168.124
 143943906.329 9 111956445.355 8                  26965510.064    26965510.564
 158677184.494 8                                                  29663022.104
 149935234.676 9 116616320.716 7                  28058308.696    28058308.776
 161011361.976 6 125231083.851 4                  30120504.800    30120495.440
 145380360.552 9 113073689.739 8                  27215470.400    27215469.520
 148896966.670 9 115808786.934 7                  27824919.316    27824919.096
 24 11 23  0 49  0.0000000  0 18G17G22G19G14G07G30G02G21G15G13R03R13
                                R22R23R11R01R12R21
 140924469.404 9 109811346.745 9                  26816999.282    26816999.522
 145779766.994 8 113594678.193 6                  27740931.696    27740931.976
 146452769.079 8 114119087.686 6                  27869005.376    27869006.116
 144490969.335 8 112590417.497 6                  27495686.578    27495686.118
 158466246.508 6 123480204.639 4                  30155119.740    30155116.460
 146347930.141 9 114037411.194 8                  27849065.516    27849062.276
 160993551.703 6 125449546.161 4                  30636026.036    30636026.356
 166525864.110 5 129760399.654 1                  31688802.370    31688798.610
 155678532.286 7 121308001.259 5                  29624620.804    29624616.464
 146228011.588 9 113943938.619 6                  27826235.596    27826234.216
 159828100.707 8 124310761.057 5                  29857228.344    29857223.144
 158947579.637 6 123625847.411 3                  29765763.884    29765765.084
 143675790.095 9 111747910.623 8                  26915282.464    26915283.064
 158345198.015 8 123157363.578 3                  29600961.224    29600960.684
 149779120.153 9 116494898.353 7                  28029094.076    28029094.876
 160926744.050 6 125165269.632 4                  30104676.960    30104665.500
 145145692.088 9 112891169.912 7                  27171539.820    27171539.400
 148755108.697 9 115698452.982 7                  27798409.656    27798409.476
 24 11 23  0 49 30.0000000  0 18G17G22G19G14G07G30G02G21G15G13R03R13
                                R22R23R11R01R12R21
 140920148.196 9 109807979.627 9                  26816176.822    26816177.182
 145777954.669 9 113593266.043 6                  27740586.716    27740587.236
 146375724.565 8 114059053.102 6                  27854344.216    27854344.836
 144506538.006 8 112602548.974 6                  27498649.358    27498648.358
 158546639.764 6 123542848.712 4                  30170418.440    30170413.780
 146394506.511 9 114073704.477 8                  27857928.756    27857925.516
 161030643.699 6 125478449.086 3                  30643084.356    30643084.256
 166595464.007 5 129814633.389 1                  31702046.050    31702042.150
 155665279.609 7 121297674.557 5                  29622098.744    29622094.384
 146243976.619 9 113956378.917 6                  27829273.636    27829272.496
 159783936.505 8 124276411.263 5                  29848977.584    29848972.524
 158862903.194 6                                                  29749906.444
 143598136.445 9 111687513.455 8                  26900735.344    26900735.984
 158203511.100 8                                                  29574473.244
 149813202.668 9 116521407.026 7                  28035471.756    28035472.556
 161032189.019 6 125247282.138 4                  30124400.700    30124392.360
 145101077.556 9 112856469.813 7                  27163187.860    27163187.120
 148804248.231 9 115736672.632 7                  27807592.236    27807592.656
 24 11 23  0 50  0.0000000  0 18G17G22G19G14G07G30G02G21G15G13R03R13
                                R22R23R11R01R12R21
 141102847.326 9 109950342.635 9                  26850943.242    26850943.602
 145962786.742 9 113737291.086 6                  27775759.116    27775759.496
 146485582.117 8 114144656.497 6                  27875249.216    27875249.736
 144708768.818 8 112760131.466 6                  27537132.598    27537131.458
 158813806.214 6 123751030.326 4                  30221258.460    30221254.160
 146628002.648 9 114255649.525 8                  27902361.674    27902358.494
 161254715.797 6 125653050.782 3                  30685723.716    30685723.776
 166851944.335 5 130014488.257 1                  31750853.690    31750848.490
 155839106.592 7 121433124.205 5                  29655177.164    29655173.064
 146447025.614 8 114114598.936 6                  27867912.596    27867911.556
 159930456.676 8 124390371.536 5                  29876348.464    29876343.504
 158967694.161 6                                                  29769531.124
 143710600.469 9 111774985.582 8                  26921803.564    26921804.284
 158251779.424 7                                                  29583496.244
 150037134.354 9 116695576.145 7                  28077377.636    28077377.616
 161327343.485 6                                                  30179607.140
 145246169.742 9 112969319.377 7                  27190349.500    27190348.420
 149044033.500 9 115923172.292 7                  27852401.996    27852402.296
 24 11 23  0 50 30.0000000  0 18G17G22G19G14G07G30G02G21G15G13R03R13
                                R22R23R11R01R12R21
 141222418.511 9 110043515.038 9                  26873697.002    26873697.222
 146084115.532 9 113831833.058 6                  27798847.176    27798847.596
 146532195.797 8 114180978.954 6                  27884119.454    27884120.014
 144847514.824 9 112868245.273 6                  27563535.198    27563534.158
 159017598.215 5 123909829.233 4                  30260038.880    30260035.300
 146798271.533 8 114388326.583 8                  27934762.734    27934759.214
 161415619.912 6 125778430.680 3                  30716342.916    30716341.996
 167045156.458 5 130165043.221 1                  31787619.168    31787616.148
 155949866.118 7 121519430.389 5                  29676253.524    29676249.684
 146587010.618 8 114223678.180 6                  27894550.794    27894549.354
 160012848.455 8 124454454.170 5                  29891739.744    29891734.644
 159007763.959 6                                                  29777034.704
 143759085.835 9 111812696.537 8                  26930886.364    26930887.124
 158235370.932 6                                                  29580428.084
 150196549.238 9 116819565.530 7                  28107210.056    28107210.096
 161557747.503 6                                                  30222709.600
 145326691.535 9 113031947.529 8                  27205423.300    27205422.260
 149219737.614 9 116059831.077 7                  27885236.656    27885235.956
 24 11 23  0 51  0.0000000  0 18G17G22G19G14G07G30G02G21G15G13R03R13
                                R22R23R11R01R12R21
 140993247.865 9 109864940.554 9                  26830087.302    26830087.602
 145856327.511 8 113654335.952 6                  27755500.616    27755500.996
 146229953.389 8 113945465.494 6                  27826604.496    27826605.396
 144637162.796 8 112704334.641 6                  27523506.558    27523505.338
 158872401.570 6 123796688.916 4                  30232408.920    30232405.900
 146619699.908 9 114249179.867 8                  27900781.654    27900778.434
 161227742.159 6 125632032.480 3                  30680590.716    30680590.316
 166889485.118 6 130043740.969 1                  31757996.630    31757993.110
 155711944.692 7 121334037.129 5                  29630978.664    29630975.004
 146378317.415 8 114061060.115 6                  27854837.696    27854836.756
 159740170.665 8 124242371.570 5                  29840801.184    29840796.884
 158692884.251 6                                                  29718067.344
 143453469.592 9 111574995.126 8                  26873634.144    26873634.704
 157863551.301 7                                                  29510920.684
 150001016.329 9 116667484.422 7                  28070618.396    28070619.196
 161432863.866 5                                                  30199348.560
 145052313.890 9 112818542.773 8                  27154059.280    27154058.460
 149040518.814 9 115920438.706 7                  27851745.176    27851744.976
 24 11 23  0 51 30.0000000  0 18G17G22G19G14G07G30G02G21G15G13R03R13
                                R22R23R11R01R12R21
 140843108.128 9 109747948.592 9                  26801516.602    26801516.822
 145707195.572 9 113538129.295 6                  27727121.576    27727121.996
 146006630.927 8 113771448.097 6                  27784107.616    27784107.956
 144505486.213 8 112601729.544 6                  27498449.298    27498448.338
 158805988.379 5 123744938.310 4                  30219771.080    30219766.900
 146520060.670 8 114171538.905 8                  27881820.894    27881817.454
 161118854.934 6 125547185.343 3                  30659870.396    30659869.816
 166812701.619 5 129983909.753 2                  31743385.170    31743380.630
 155553115.289 7 121210274.015 5                  29600754.584    29600749.884
 146248718.351 9 113960073.845 6                  27830175.956    27830175.196
 159548179.466 8 124093045.221 5                  29804934.604    29804930.024
 158457741.634 6                                                  29674033.124
 143228288.668 9 111399854.516 8                  26831449.924    26831450.704
 157571775.484 7                                                  29456376.444
 149885527.926 9 116577660.131 7                  28049006.536    28049007.316
 161387831.122 5                                                  30190924.740
 144857876.714 9 112667313.944 8                  27117660.020    27117659.180
 148941975.699 9 115843794.078 7                  27833330.096    27833329.956
 24 11 23  0 52  0.0000000  0 18G17G22G19G14G07G30G02G21G15G13R03R13
                                R22R23R11R01R12R21
 140799065.184 9 109713629.462 9                  26793135.282    26793135.622
 145663786.427 9 113504304.039 6                  27718861.076    27718861.516
 145889296.616 9 113680018.867 6                  27761779.396    27761780.296
 144479551.959 8 112581521.067 6                  27493514.138    27493512.838
 158845424.417 6 123775667.635 4                  30227275.320    30227270.640
 146526420.406 9 114176494.543 8                  27883031.074    27883027.634
 161116023.881 6 125544979.375 3                  30659331.436    30659330.896
 166841871.139 5 130006639.316 1                  31748936.070    31748932.510
 155500444.302 7 121169231.747 5                  29590731.764    29590727.404
 146225279.213 9 113941809.596 6                  27825715.716    27825714.676
 159464447.708 8 124027920.635 6                  29789292.484    29789288.744
 158329841.058 6                                                  29650080.944
 143111041.199 9 111308662.156 8                  26809485.444    26809486.124
 157387600.281 7                                                  29421946.384
 149877607.918 9 116571500.177 7                  28047524.076    28047525.076
 161450178.370 5                                                  30202588.300
 144770895.360 9 112599661.866 8                  27101376.800    27101376.380
 148951667.810 9 115851332.411 7                  27835141.696    27835141.156
 24 11 23  0 52 30.0000000  0 18G17G22G19G14G07G30G02G21G15G13R03R13
                                R22R23R11R01R12R21
 140881918.817 9 109778190.781 9                  26808901.722    26808901.802
 145746899.953 9 113569067.870 6                  27734677.076    27734677.496
 145898752.605 8 113687387.275 6                  27763578.836    27763579.336
 144580160.682 8 112659917.510 6                  27512659.158    27512658.078
 159011509.187 6 123905084.291 4                  30258880.320    30258876.280
 146659579.444 9 114280254.835 8                  27908370.414    27908367.354
 161240048.583 6 125641622.030 3                  30682932.576    30682932.196
 166997791.641 5 130128135.877 2                  31778606.808    31778602.728
 155574732.140 6 121227118.448 5                  29604868.064    29604863.504
 146328799.631 9 114022474.869 6                  27845414.736    27845414.056
 159510165.649 8 124063479.146 6                  29797833.884    29797829.024
 158330319.573 6                                                  29650171.664
 143122859.951 9 111317854.632 8                  26811699.484    26811699.844
 157332204.066 7                                                  29411590.024
 149998409.043 9 116665456.626 7                  28070130.476    28070130.356
 161641065.960 5                                                  30238295.760
 144812515.257 9 112632032.995 8                  27109168.320    27109167.700
 149090774.047 9 115959526.178 7                  27861136.676    27861137.156
 24 11 23  0 53  0.0000000  0 18G17G22G19G14G07G30G02G21G15G13R03R13
                                R22R23R11R01R12R21
 141018574.981 9 109884676.157 9                  26834906.582    26834906.942
 145883443.132 8 113675465.204 6                  27760660.216    27760660.336
 145961907.391 8 113736598.906 6                  27775596.536    27775597.476
 144734219.212 8 112779963.157 6                  27541975.418    27541974.778
 159231148.382 6 124076231.666 4                  30300676.418    30300672.558
 146846444.312 8 114425863.825 8                  27943929.534    27943926.574
 161417835.051 6 125780156.973 3                  30716764.216    30716763.956
 167207368.228 6 130291442.357 2                  31818487.308    31818484.728
 155702885.471 6 121326978.260 5                  29629255.164    29629250.284
 146486184.932 8 114145112.783 6                  27875364.196    27875363.196
 159610876.743 8 124141810.111 5                  29816647.124    29816644.104
 158384903.719 6                                                  29660392.584
 143189500.193 9 111369686.044 8                  26824183.024    26824184.064
 157331186.648 7                                                  29411400.564
 150173606.859 9 116801721.606 7                  28102916.476    28102917.036
 161886127.200 5                                                  30284141.200
 144908437.299 9 112706639.122 7                  27127124.580    27127124.180
 149284860.825 9 116110482.592 7                  27897406.436    27897405.756
 24 11 23  0 53 30.0000000  0 18G17G22G19G14G07G30G02G21G15G13R03R13
                                R22R23R11R01R12R21
 141089973.680 9 109940311.560 9                  26848493.282    26848493.542
 145954356.199 8 113730722.188 6                  27774154.376    27774155.076
 145959703.342 8 113734881.570 6                  27775177.196    27775178.176
 144822668.711 8 112848884.887 6                  27558806.758    27558805.638
 159385282.429 6 124196336.071 4                  30330006.958    30330002.838
 146967955.890 8 114520548.174 8                  27967052.514    27967049.114
 161530323.266 6 125867810.166 3                  30738169.976    30738170.036
 167351540.092 5 130403784.133 2                  31845922.148    31845919.168
 155765844.537 7 121376037.342 5                  29641235.744    29641231.004
 146578375.291 8 114216949.438 6                  27892907.594    27892906.334
 159645302.566 8 124168585.862 5                  29823077.824    29823074.564
 158372610.877 6                                                  29658090.084
 143190025.029 9 111370094.366 8                  26824281.544    26824282.184
 157263356.468 7                                                  29398718.544
 150282134.394 9 116886131.949 7                  28123225.836    28123225.996
 162064253.477 4                                                  30317460.400
 144937637.789 9 112729350.697 7                  27132590.960    27132590.420
 149412688.246 9 116209903.944 7                  27921293.176    27921293.496
 24 11 23  0 54  0.0000000  0 17G17G22G19G14G07G30G02G21G15G13R03R13
                                R22R23R11R12R21
 141146865.639 9 109984643.012 9                  26859319.382    26859319.582
 146010390.413 8 113774385.264 6                  27784817.316    27784817.776
 145942893.316 8 113721782.953 6                  27771978.176    27771979.056
 144896260.764 8 112906229.379 6                  27572810.798    27572809.658
 159524661.559 6 124304943.155 4                  30356529.798    30356526.298
 147074865.412 8 114603854.303 8                  27987396.814    27987393.534
 161628263.642 6 125944127.386 3                  30756807.316    30756807.276
 167481056.621 5 130504706.177 2                  31870568.228    31870564.708
 155814360.672 7 121413842.199 5                  29650467.684    29650463.164
 146656121.158 9 114277530.647 6                  27907702.014    27907700.834
 159665142.367 8 124184016.935 6                  29826783.764    29826780.504
 158345013.385 6                                                  29652922.244
 143175991.465 9 111359179.480 8                  26821652.204    26821652.744
 157180380.496 8                                                  29383208.244
 150375600.922 9 116958828.171 7                  28140716.796    28140717.296
 144951707.651 9 112740294.010 7                  27135224.600    27135224.000
 149525933.735 9 116297983.790 7                  27942456.696    27942456.416
 24 11 23  0 54 30.0000000  0 17G17G22G19G14G07G30G02G21G15G13R03R13
                                R22R23R11R12R21
 141100251.118 9 109948320.066 9                  26850448.902    26850449.162
 145962546.342 8 113737104.214 6                  27775712.936    27775713.256
 145822480.009 8 113627954.504 6                  27749064.236    27749065.076
 144865996.486 8 112882646.864 6                  27567051.798    27567050.658
 159560285.665 6 124332702.157 4                  30363308.638    30363305.218
 147078173.622 9 114606432.131 8                  27988026.274    27988022.994
 161622656.435 6 125939758.181 3                  30755740.596    30755739.716
 167506917.021 5 130524857.200 1                  31875489.728    31875486.028
 155759434.182 6 121371042.410 5                  29640015.164    29640011.024
 146630422.014 8 114257505.350 6                  27902811.654    27902810.534
 159579737.418 8 124117590.971 6                  29810830.144    29810826.044
 158211674.509 6                                                  29627952.904
 143056997.566 9 111266628.786 8                  26799360.604    26799361.484
 156991667.605 7                                                  29347929.648
 150363506.784 9 116949421.661 7                  28138453.636    28138454.336
 144860179.757 9 112669105.729 8                  27118090.460    27118089.980
 149533967.195 9 116304232.045 7                  27943958.096    27943957.596
 24 11 23  0 55  0.0000000  0 17G17G22G19G14G07G30G02G21G15G13R03R13
                                R22R23R11R12R21
 141288092.676 9 110094690.171 9                  26886193.842    26886194.122
 146148787.550 8 113882227.281 6                  27811153.456    27811153.976
 145936428.884 9 113716745.942 6                  27770747.836    27770748.756
 145069839.572 8 113041485.667 6                  27605841.716    27605840.876
 159830116.957 6 124542960.268 4                  30414655.858    30414652.698
 147315843.497 9 114791629.440 8                  28033253.394    28033250.054
 161851463.798 6 126118049.680 3                  30799280.576    30799280.776
 167767082.000 5 130727583.213 1                  31924996.628    31924993.128
 155939028.262 7 121510985.928 5                  29674190.784    29674186.724
 146839240.599 8 114420221.139 6                  27942548.474    27942547.054
 159733358.656 8 124237074.282 6                  29839526.684    29839523.864
 158316019.897 6                                                  29647492.084
 143176350.829 9 111359459.222 8                  26821719.384    26821720.164
 157041250.138 7                                                  29357197.928
 150589518.484 9 117125208.578 7                  28180748.372    28180749.052
 145006600.572 9 112782988.681 8                  27145501.000    27145500.380
 149780933.946 9 116496317.304 7                  27990109.456    27990109.216
 24 11 23  0 55 30.0000000  0 17G17G22G19G14G07G30G02G21G15G13R03R13
                                R22R23R11R12R21
 141428272.925 9 110203921.595 9                  26912869.282    26912869.522
 146286997.503 9 113989923.395 6                  27837453.896    27837454.396
 146002625.203 8 113768327.595 6                  27783344.336    27783345.256
 145225674.212 8 113162915.297 6                  27635496.196    27635495.136
 160052038.791 6 124715886.348 4                  30456886.698    30456882.178
 147505759.073 9 114939615.606 8                  28069393.154    28069389.854
 162032569.016 6 126259170.669 3                  30833743.616    30833743.536
 167979434.423 5 130893052.679 1                  31965405.568    31965402.228
 156071026.555 6 121613841.817 5                  29699309.182    29699305.002
 147000459.577 8 114545846.325 6                  27973227.454    27973225.854
 159838626.392 8 124318949.317 6                  29859192.144    29859188.144
 158371375.203 6                                                  29657858.144
 143247480.712 9 111414782.582 8                  26835044.204    26835045.184
 157041954.340 8                                                  29357330.328
 150766762.174 9 117263064.804 7                  28213917.052    28213917.432
 145104196.351 9 112858896.600 8                  27163771.200    27163770.440
 149979552.822 9 116650798.671 7                  28027225.976    28027225.976
 24 11 23  0 56  0.0000000  0 17G17G22G19G14G07G30G02G21G15G13R03R13
                                R22R23R11R12R21
 141508273.126 9 110266259.477 9                  26928092.762    26928092.802
 146364657.678 9 114050437.864 6                  27852232.036    27852232.576
 146008552.289 8 113772946.204 6                  27784472.256    27784472.896
 145320982.452 9 113237181.509 6                  27653632.536    27653631.756
 160213532.164 6 124841725.311 3                  30487617.758    30487613.578
 147635401.870 9 115040635.975 8                  28094063.294    28094060.134
 162153452.707 6 126353365.786 3                  30856746.676    30856747.396
 168131453.981 5 131011509.522 1                  31994334.788    31994331.808
 156142910.653 7 121669855.486 5                  29712987.922    29712984.322
 147101559.413 9 114624625.424 6                  27992465.974    27992464.874
 159882791.049 8 124353299.718 6                  29867441.984    29867439.024
 158365021.209 6                                                  29656669.204
 143257674.660 9 111422711.331 8                  26836953.804    26836955.004
 156981042.164 8                                                  29345942.928
 150882509.428 9 117353090.473 7                  28235577.872    28235578.292
 145140244.019 9 112886933.758 8                  27170518.920    27170518.220
 150117074.060 9 116757759.653 7                  28052925.456    28052924.996
 24 11 23  0 56 30.0000000  0 17G17G22G19G14G07G30G02G21G15G13R03R13
                                R22R23R11R12R21
 141679511.788 9 110399692.265 9                  26960678.242    26960678.422
 146533187.281 9 114181759.686 6                  27884302.174    27884302.774
 146105631.263 8 113848592.262 6                  27802945.656    27802946.556
 145507183.648 9 113382273.408 6                  27689065.296    27689064.536
 160466014.852 5 125038465.031 3                  30535663.938    30535660.278
 147856190.720 8 115212679.249 8                  28136078.074    28136074.494
 162365532.995 6 126518623.188 3                  30897104.274    30897104.374
 168374557.621 5 131200940.963 2                  32040596.048    32040593.568
 156306098.976 7 121797015.305 5                  29744041.742    29744037.642
 147293958.403 9 114774546.721 6                  28029078.294    28029077.174
 160020097.178 8 124460093.476 6                  29893091.924    29893088.244
 158450824.198 6                                                  29672737.444
 143360747.995 9 111502879.593 8                  26856262.904    26856263.624
 157012654.176 8                                                  29351852.588
 151090735.356 9 117515043.998 7                  28274544.152    28274544.772
 145268664.899 9 112986816.756 8                  27194559.480    27194558.700
 150347685.124 9 116937123.822 7                  28096020.236    28096020.296
 24 11 23  0 57  0.0000000  0 17G17G22G19G14G07G30G02G21G15G13R03R13
                                R22R23R11R12R21
 141584404.028 9 110325582.379 9                  26942579.702    26942580.062
 146435002.093 9 114105251.798 6                  27865618.156    27865618.556
 145936278.869 8 113716629.461 6                  27770718.836    27770719.696
 145426693.941 8 113319554.203 6                  27673748.536    27673748.056
 160451902.173 6 125027468.128 3                  30532978.258    30532974.098
 147810541.551 9 115177108.474 8                  28127391.374    28127387.654
 162311225.020 6 126476305.331 3                  30886770.374    30886770.534
 168351159.875 6 131182709.004 2                  32036143.828    32036140.948
 156203006.797 7 121716683.814 5                  29724423.802    29724419.802
 147220071.280 9 114716972.348 6                  28015018.114    28015017.174
 159886290.311 8 124356021.574 6                  29868095.644    29868092.544
 158265422.460 6                                                  29638016.884
 143193469.268 9 111372774.026 8                  26824925.684    26824926.704
 156772794.215 8                                                  29307013.088
 151027824.032 9 117466112.991 7                  28262771.432    28262772.112
 145125970.880 9 112875832.603 8                  27167846.820    27167846.200
 150307255.608 9 116905678.636 7                  28088464.816    28088464.596
 24 11 23  0 57 30.0000000  0 17G17G22G19G14G07G30G02G21G15G13R03R13
                                R22R23R11R12R21
 141433103.580 9 110207685.985 9                  26913788.182    26913788.762
 146280257.140 8 113984671.372 6                  27836171.116    27836171.536
 145710652.284 9 113540816.638 6                  27727783.396    27727784.396
 145289669.007 8 113212781.580 6                  27647673.456    27647672.516
 160381348.424 6 124972491.115 3                  30519552.498    30519548.038
 147708609.273 8 115097680.737 8                  28107994.354    28107990.714
 162200683.097 6 126390168.811 3                  30865734.856    30865734.736
 168271413.524 5 131120569.042 2                  32020968.788    32020965.128
 156043789.251 6 121592618.272 5                  29694125.502    29694121.522
 147090052.052 8 114615658.670 6                  27990276.274    27990275.414
 159695447.628 8 124207588.460 6                  29832444.324    29832440.464
 158022368.323 6                                                  29592499.324
 142969318.266 9 111198434.481 8                  26782934.744    26782935.664
 156475393.558 8                                                  29251416.448
 150907478.260 9 117372510.759 7                  28240250.332    28240250.952
 144925789.741 9 112720136.257 8                  27130372.340    27130371.960
 150209784.055 9 116829867.418 7                  28070249.796    28070249.856
 24 11 23  0 58  0.0000000  0 17G17G22G19G14G07G30G02G21G15G13R03R13
                                R22R23R11R12R21
 141323257.195 9 110122091.451 9                  26892885.022    26892885.502
 146166599.619 9 113896107.122 6                  27814542.716    27814542.996
 145526400.688 8 113397244.070 6                  27692721.516    27692722.556
 145193756.399 8 113138044.536 6                  27629422.076    27629421.156
 160351999.782 6 124949622.043 3                  30513967.058    30513963.438
 147648040.867 8 115050484.593 8                  28096468.394    28096465.234
 162131553.534 6 126336301.668 3                  30852580.096    30852579.416
 168232964.534 5 131090608.843 2                  32013650.528    32013647.108
 155926093.081 7 121500907.058 5                  29671728.704    29671724.344
 147001546.702 8 114546693.470 6                  27973434.154    27973433.354
 159547039.576 8 124092160.058 6                  29804720.064    29804716.984
 157820887.817 6                                                  29554768.544
 142787488.620 9 111057011.536 8                  26748872.124    26748872.844
 156219856.681 8                                                  29203646.748
 150828993.776 9 117311467.293 7                  28225562.972    28225563.512
 144767383.580 9 112596931.564 8                  27100718.220    27100718.340
 150154701.650 9 116787025.552 7                  28059956.696    28059956.556
 24 11 23  0 58 30.0000000  0 18G17G22G06G19G14G07G30G02G21G15G13R03
                                R13R22R23R11R12R21
 139718375.782 9 108871534.561 9                  26587486.264    26587486.584
 144557540.944 8 112642295.219 6                  27508348.738    27508349.418
 161502287.010 6 125845969.575 5                  30732871.636    30732862.376
 143847034.686 8 112088647.285 6                  27373148.378    27373149.558
 143602468.428 9 111898079.930 6                  27326609.878    27326609.218
 158827369.371 6 123761598.347 3                  30223839.760    30223835.040
 146092349.250 8 113838257.371 8                  27800430.236    27800426.736
 160567348.000 6 125117440.248 3                  30554921.418    30554921.058
 166699324.426 5 129895564.660 2                  31721809.810    31721805.410
 154313429.297 7 120244286.004 5                  29364849.006    29364845.726
 145418066.198 8 113312812.564 6                  27672107.836    27672106.936
 157875911.025 8 122792393.488 6                  29492539.844    29492535.664
 156099664.593 6 121410792.197 3                  29232438.528    29232437.868
 141087215.676 9 109734577.129 8                  26430353.224    26430354.584
 154442126.409 8 120121619.449 3                  28871317.968    28871318.788
 149229961.356 9 116067775.435 7                  27926325.876    27926326.376
 143088889.088 9 111291435.934 8                  26786500.384    26786499.784
 148577401.724 9 115560236.720 7                  27765200.616    27765200.056
 24 11 23  0 59  0.0000000  0 18G17G22G06G19G14G07G30G02G21G15G13R03
                                R13R22R23R11R12R21
 140265589.184 9 109297934.667 9                  26691617.462    26691617.882
 145100211.754 8 113065155.639 6                  27611615.396    27611616.096
 161933312.248 6 126181833.726 4                  30814892.276    30814883.496
 144319692.505 8 112456952.184 6                  27463092.038    27463093.258
 144162935.026 8 112334807.195 6                  27433263.018    27433262.398
 159454580.848 6 124250334.533 4                  30343194.318    30343190.618
 146688661.050 8 114302915.925 8                  27913904.514    27913901.374
 161155193.013 6 125575501.329 3                  30666784.796    30666784.156
 167317616.134 5 130377350.456 1                  31839466.448    31839463.588
 154852928.522 7 120664675.096 5                  29467512.164    29467507.624
 145986738.802 8 113755934.076 6                  27780322.616    27780321.536
 158397240.597 8 123197872.128 6                  29589928.484    29589925.244
 156564765.927 6                                                  29319536.208
 141573265.403 9 110112615.921 8                  26521406.564    26521407.604
 154854788.933 8                                                  28948461.048
 149819043.871 9 116525950.766 7                  28036564.416    28036565.056
 143597673.520 9 111687157.254 8                  26881746.224    26881745.684
 149191750.188 9 116038063.297 7                  27880006.436    27880005.516
 24 11 23  0 59 30.0000000  0 18G17G22G06G19G14G07G30G02G21G15G13R03
                                R13R22R23R11R12R21
 140474921.480 9 109461050.792 9                  26731452.002    26731452.422
 145304637.558 9 113224448.524 6                  27650516.376    27650517.136
 162025921.630 5 126253997.295 4                  30832515.276    30832505.976
 144454397.179 9 112561916.967 6                  27488725.578    27488726.778
 144385182.668 8 112507987.222 6                  27475555.318    27475554.798
 159743662.506 6 124475592.942 3                  30398204.938    30398200.398
 146947003.948 9 114504222.094 8                  27963065.574    27963062.314
 161405115.117 6 125770245.860 3                  30714342.936    30714342.716
 167597867.118 5 130595727.905 1                  31892796.708    31892792.968
 155054615.638 7 120821833.955 5                  29505891.724    29505888.104
 146217589.636 8 113935817.844 6                  27824252.316    27824251.176
 158574597.818 8 123335816.735 6                  29623059.984    29623056.624
 156685981.451 6                                                  29342237.768
 141716319.919 9 110223880.655 8                  26548205.804    26548206.664
 154923189.816 8                                                  28961246.888
 150064259.713 9 116716674.236 7                  28082453.016    28082454.276
 143762640.673 9 111815465.135 8                  26912628.084    26912627.604
 149462206.286 9 116248418.040 7                  27930547.196    27930547.396
 24 11 23  1  0  0.0000000  0 18G17G22G06G19G14G07G30G02G21G15G13R03
                                R13R22R23R11R12R21
 140488321.513 9 109471492.423 9                  26734001.882    26734002.202
 145312767.352 9 113230783.480 6                  27652063.436    27652064.256
 161922068.734 5 126173073.353 4                  30812752.136    30812743.136
 144393099.967 8 112514153.006 6                  27477060.958    27477062.038
 144411161.432 8 112528230.464 6                  27480498.958    27480498.398
 159836563.036 6 124547982.963 3                  30415883.458    30415879.718
 147009327.289 9 114552785.753 8                  27974925.194    27974922.134
 161459062.998 6 125812283.211 3                  30724609.056    30724608.956
 167682025.284 5 130661305.733 1                  31908810.068    31908807.768
 155060439.305 7 120826371.943 5                  29506999.844    29506995.904
 146252566.931 8 113963072.876 6                  27830908.336    27830906.996
 158552580.918 8 123318692.552 6                  29618946.744    29618943.224
 156607555.455 6                                                  29327550.668
 141660575.263 9 110180523.800 8                  26537762.464    26537763.984
 154791830.745 7                                                  28936691.088
 150109954.661 9 116752214.776 7                  28091004.216    28091005.316
 143728086.279 9 111788589.581 8                  26906159.644    26906159.404
 149533314.182 9 116303724.184 7                  27943835.936    27943835.916
 24 11 23  1  0 30.0000000  0 18G17G22G06G19G14G07G30G02G21G15G13R03
                                R13R22R23R11R12R21
 140520436.041 9 109496516.776 9                  26740112.942    26740113.602
 145339249.297 8 113251418.811 6                  27657102.796    27657103.576
 161836404.795 5 126106322.627 4                  30796451.056    30796441.196
 144350450.354 9 112480919.642 6                  27468944.798    27468946.058
 144455518.997 8 112562794.848 6                  27488939.758    27488939.398
 159947928.530 5 124634761.268 3                  30437075.458    30437070.718
 147090278.021 8 114615864.253 8                  27990329.534    27990326.214
 161531682.696 6 125868870.024 3                  30738427.936    30738427.916
 167784735.900 5 130741340.005 1                  31928355.328    31928353.068
 155085046.384 7 120845546.360 5                  29511682.484    29511679.224
 146306316.624 9 114004955.753 6                  27841136.436    27841135.296
 158549843.431 8 123316563.483 6                  29618435.424    29618431.784
 156547605.175 6                                                  29316323.688
 141624073.889 9 110152133.942 8                  26530924.264    26530925.724
 154679216.085 7                                                  28915639.028
 150174398.960 9 116802338.143 7                  28103064.276    28103064.876
 143712204.627 9 111776237.276 8                  26903185.984    26903185.804
 149623646.640 9 116373982.764 7                  27960716.596    27960716.076
 24 11 23  1  1  0.0000000  0 18G17G22G06G19G14G07G30G02G21G15G13R03
                                R13R22R23R11R12R21
 140524863.075 9 109499966.457 9                  26740955.302    26740956.042
 145337682.012 9 113250197.599 6                  27656804.396    27656805.076
 161722532.071 5 126017590.951 3                  30774780.156    30774771.776
 144280048.597 9 112426061.228 6                  27455547.758    27455549.038
 144471854.682 8 112575523.998 6                  27492048.338    27492047.838
 160031357.108 5 124699770.550 3                  30452951.138    30452947.438
 147143454.768 8 114657300.685 8                  28000448.754    28000445.394
 161576572.055 6 125903848.774 3                  30746970.056    30746970.016
 167859595.730 5 130799601.385 1                  31942602.208    31942597.888
 155082035.028 7 120843199.914 5                  29511109.564    29511105.784
 146332436.886 9 114025309.204 6                  27846106.916    27846105.776
 158519118.980 8 123292666.765 6                  29612695.584    29612691.844
 156458980.436 6                                                  29299726.848
 141559684.771 9 110102053.614 8                  26518862.404    26518863.104
 154538116.750 8                                                  28889261.608
 150210410.098 9 116830346.849 7                  28109802.996    28109803.416
 143667830.250 9 111741723.967 8                  26894878.904    26894879.104
 149685950.750 9 116422441.514 7                  27972359.216    27972359.696
 24 11 23  1  1 30.0000000  0 18G17G22G06G19G14G07G30G02G21G15G13R03
                                R13R22R23R11R12R21
 140648511.477 9 109596315.906 9                  26764484.802    26764485.362
 145454975.541 8 113341595.203 6                  27679124.716    27679125.476
 161727364.499 6 126021356.840 4                  30775700.476    30775690.716
 144328806.873 8 112464054.793 6                  27464826.078    27464827.158
 144607078.981 8 112680893.625 6                  27517780.658    27517779.918
 160233757.558 6 124857485.158 3                  30491466.858    30491462.538
 147315767.236 8 114791570.151 8                  28033238.754    28033235.394
 161740640.235 6 126031694.143 3                  30778191.036    30778190.936
 168053512.845 5                                                  31979500.048
 155198315.702 7 120933808.293 5                  29533237.024    29533233.324
 146477836.087 9 114138607.272 6                  27873775.276    27873774.456
 158610059.679 8 123363398.521 5                  29629683.724    29629680.824
 156490966.542 6                                                  29305715.728
 141616642.671 9 110146354.301 8                  26529531.924    26529533.224
 154518084.191 8                                                  28885516.128
 150367378.076 9 116952433.086 7                  28139177.856    28139178.316
 143744301.223 9 111801201.486 8                  26909194.684    26909194.324
 149869822.088 9 116565452.567 7                  28006719.956    28006719.916
 24 11 23  1  2  0.0000000  0 18G17G22G06G19G14G07G30G02G21G15G13R03
                                R13R22R23R11R12R21
 140678277.569 9 109619510.313 9                  26770149.242    26770149.602
 145478026.849 9 113359557.312 6                  27683511.216    27683511.736
 161637801.984 5 125951568.242 4                  30758655.856    30758647.196
 144283623.306 9 112428846.914 6                  27456227.778    27456228.998
 144648089.475 8 112712849.891 6                  27525584.678    27525583.978
 160342026.315 6 124941850.425 3                  30512069.578    30512065.878
 147394112.487 8 114852618.401 8                  28048147.454    28048144.034
 161810783.358 6 126086351.145 3                  30791538.836    30791538.676
 168153382.175 5                                                  31998502.888
 155220784.434 7 120951316.441 5                  29537512.524    29537508.884
 146529410.190 8 114178794.891 6                  27883589.574    27883588.374
 158605587.217 8 123359920.013 6                  29628847.904    29628845.004
 156427018.208 6                                                  29293740.448
 141578480.327 9 110116672.573 8                  26522382.784    26522383.924
 154402195.931 8                                                  28863851.988
 150428605.962 9 117000054.804 7                  28150635.176    28150636.276
 143724996.992 9 111786187.180 7                  26905580.544    26905580.184
 149958255.345 9 116634233.990 7                  28023246.076    28023245.876
 24 11 23  1  2 30.0000000  0 18G17G22G06G19G14G07G30G02G21G15G13R03
                                R13R22R23R11R12R21
 142126329.661 9 110747862.639 9                  27045704.320    27045704.940
 146919005.463 9 114482397.845 6                  27957720.214    27957720.974
 162966021.061 5 126986544.486 4                  31011408.194    31011399.814
 145656671.054 9 113498754.345 7                  27717510.056    27717511.796
 146107055.388 8 113849706.479 6                  27803216.616    27803216.116
 161868329.165 6 126131177.315 3                  30802515.656    30802512.416
 148890657.778 8 116018757.593 8                  28332930.372    28332927.412
 163299168.404 6 127246131.719 3                  31074768.994    31074769.214
 169671369.293 5                                                  32287366.306
 156661609.777 7 122074037.539 5                  29811692.222    29811688.522
 147999326.230 8 115324184.016 5                  28163305.394    28163304.054
 160046084.915 8 124480307.194 5                  29897944.804    29897942.464
 157803741.203 6                                                  29551556.624
 142981265.396 9 111207727.722 8                  26785171.824    26785172.764
 155729763.368 8                                                  29112026.728
 151931776.643 9 118169187.595 6                  28431933.312    28431934.212
 145147063.427 9 112892238.941 8                  27171794.280    27171794.260
 151491087.652 9 117826436.897 7                  28309691.892    28309692.072
 24 11 23  1  3  0.0000000  0 17G17G22G06G19G14G07G30G02G15G13R03R13
                                R22R23R11R12R21
 141883901.162 9 110558957.367 9                  26999571.620    26999572.060
 146669144.954 9 114287701.399 6                  27910173.234    27910173.794
 162603251.782 5 126703867.531 4                  30942375.274    30942365.874
 145339181.166 9 113251359.721 6                  27657093.736    27657095.036
 145875212.527 8 113669049.741 6                  27759098.196    27759097.796
 161703904.712 6 126003054.364 4                  30771226.556    30771222.836
 148696640.676 8 115867575.439 8                  28296010.232    28296006.612
 163097031.286 6 127088622.313 3                  31036304.074    31036304.014
 156412025.457 7 121879556.293 5                  29764197.902    29764194.522
 147778819.332 8 115152360.455 6                  28121344.114    28121343.254
 159764786.333 8 124261519.481 5                  29845395.624    29845393.384
 157462134.975 6                                                  29487583.084
 142667110.886 9 110963385.415 8                  26726320.344    26726321.684
 155336236.289 8                                                  29038460.948
 151715677.831 9 118001110.764 7                  28391493.192    28391494.172
 144850393.313 9 112661495.610 8                  27116257.000    27116257.020
 151302664.346 9 117679885.452 7                  28274481.132    28274480.792
 24 11 23  1  3 30.0000000  0 17G17G22G06G19G14G07G30G02G15G13R03R13
                                R22R23R11R12R21
 141934473.074 9 110598364.103 9                  27009195.080    27009195.480
 146711928.597 9 114321039.366 6                  27918314.654    27918315.334
 162532984.674 6 126649114.277 4                  30929002.934    30928994.454
 145314640.368 9 113232237.122 6                  27652423.596    27652424.756
 145936042.734 8 113716449.945 6                  27770673.796    27770673.316
 161832230.960 6 126103048.843 4                  30795645.696    30795642.756
 148795540.651 8 115944640.361 8                  28314830.192    28314826.812
 163187851.298 6 127159391.194 3                  31053586.414    31053586.314
 156455513.038 7 121913442.769 5                  29772473.742    29772469.082
 147851368.828 9 115208892.533 6                  28135149.914    28135148.934
 159782180.612 8 124275048.448 5                  29848645.124    29848641.664
 157417734.880 6                                                  29479269.704
 142650844.691 9 110950734.040 8                  26723272.724    26723273.704
 155240696.727 8                                                  29020600.448
 151797255.978 9 118064560.477 6                  28406759.212    28406760.052
 144851229.035 9 112662145.714 8                  27116413.140    27116413.440
 151412759.725 9 117765515.203 7                  28295055.052    28295054.972
 24 11 23  1  4  0.0000000  0 17G17G22G06G19G14G07G30G02G15G13R03R13
                                R22R23R11R12R21
 141897073.780 9 110569221.841 9                  27002078.080    27002078.620
 146666385.367 9 114285551.192 6                  27909648.014    27909648.614
 162374251.522 6 126525426.399 4                  30898796.894    30898788.754
 145202078.990 8 113144527.047 6                  27631003.896    27631005.056
 145908575.877 8 113695047.247 6                  27765447.156    27765446.576
 161872336.476 6 126134299.887 4                  30803278.136    30803274.436
 148806387.113 8 115953092.153 8                  28316894.212    28316890.932
 163190656.985 6 127161577.464 3                  31054120.454    31054120.214
 156411100.936 7 121878835.982 5                  29764021.982    29764018.042
 147836003.073 8 115196919.222 5                  28132225.894    28132224.734
 159710190.001 8 124219055.817 5                  29835197.044    29835192.804
 157283415.031 6                                                  29454115.204
 142545479.088 9 110868783.102 8                  26703534.084    26703535.084
 155055342.156 8                                                  28985949.908
 151789114.821 9 118058228.523 6                  28405235.932    28405236.772
 144762309.972 9 112592986.528 7                  27099767.220    27099767.100
 151433428.967 9 117781591.289 6                  28298917.712    28298917.412
 24 11 23  1  4 30.0000000  0 17G17G22G06G19G14G07G30G02G15G13R03R13
                                R22R23R11R12R21
 141955939.440 9 110615091.245 9                  27013279.820    27013280.360
 146716752.483 8 114324798.355 6                  27919232.514    27919233.314
 162311293.462 6 126476368.455 4                  30886816.734    30886807.914
 145185735.641 9 113131792.064 6                  27627893.676    27627895.136
 145977049.549 8 113748403.390 6                  27778477.296    27778476.616
 162008457.176 6 126240367.946 4                  30829180.856    30829176.716
 148913416.683 8 116036491.827 8                  28337261.252    28337257.932
 163289684.166 6 127238741.528 3                  31072964.414    31072964.554
 156463025.744 6 121919296.912 5                  29773902.842    29773898.822
 147916957.398 8 115260000.513 5                  28147630.974    28147629.994
 159736489.201 8 124239510.811 5                  29840110.624    29840106.804
 157246390.587 6                                                  29447182.364
 142538165.454 9 110863094.823 8                  26702163.824    26702165.184
 154967720.658 8                                                  28969569.948
 151878600.640 9 118127828.629 6                  28421982.072    28421982.672
 144770918.028 9 112599681.761 7                  27101378.700    27101378.600
 151552277.529 9 117874029.061 7                  28321127.332    28321127.032
 24 11 23  1  5  0.0000000  0 17G17G22G06G19G14G07G30G02G15G13R03R13
                                R22R23R11R12R21
 142144090.044 9 110761702.161 9                  27049083.600    27049084.200
 146896050.294 9 114464510.990 6                  27953351.694    27953352.674
 162377134.855 6 126527673.786 5                  30899345.734    30899337.494
 145298632.828 9 113219763.997 6                  27649377.276    27649378.596
 146174485.131 8 113902249.326 6                  27816047.736    27816047.176
 162273613.005 6 126446982.888 4                  30879638.534    30879634.994
 149149649.863 8 116220569.625 8                  28382215.032    28382211.612
 163517952.333 6 127416612.854 3                  31116402.294    31116402.154
 156644307.681 7 122060555.611 5                  29808399.862    29808395.722
 148127251.350 8 115423865.932 6                  28187648.692    28187647.612
 159894715.719 8 124362575.943 6                  29869667.904    29869664.624
 157340217.590 6                                                  29464751.684
 142662449.477 9 110959760.279 8                  26725446.104    26725447.524
 155011450.826 8                                                  28977744.628
 152099293.208 9 118299478.433 6                  28463281.672    28463282.672
 144910621.292 9 112708339.947 7                  27127531.320    27127531.180
 151802927.777 9 118068979.270 6                  28367967.212    28367966.872
 24 11 23  1  5 30.0000000  0 17G17G22G06G19G14G07G30G02G15G13R03R13
                                R22R23R11R12R21
 141981061.053 9 110634666.643 9                  27018060.180    27018060.680
 146723815.750 9 114330302.322 6                  27920576.454    27920577.194
 162091314.369 6 126304956.809 5                  30844955.116    30844947.156
 145060307.458 8 113034056.006 6                  27604025.196    27604026.796
 146020419.354 8 113782198.109 6                  27786729.956    27786729.676
 162187339.666 6 126379756.902 4                  30863221.116    30863217.496
 149034622.988 8 116130938.304 8                  28360326.092    28360322.512
 163394997.376 6 127320803.817 3                  31093004.694    31093004.674
 156474482.187 7 121928224.084 5                  29776083.002    29776078.742
 147986420.357 9 115314127.499 5                  28160849.454    28160848.214
 159695442.069 8 124207585.370 5                  29832441.304    29832438.784
 157076669.116 6                                                  29415397.684
 142430278.124 9 110779182.668 8                  26681952.684    26681953.724
 154697451.193 8                                                  28919045.948
 151962624.119 9 118193180.286 6                  28437705.852    28437707.032
 144693022.866 9 112539096.802 7                  27086796.440    27086796.700
 151696121.025 9 117985907.342 6                  28348008.032    28348006.852
 24 11 23  1  6  0.0000000  0 17G17G22G06G19G14G07G30G02G15G13R03R13
                                R22R23R11R12R21
 141904740.370 9 110575196.040 9                  27003536.840    27003537.200
 146637938.373 9 114263384.949 6                  27904234.474    27904235.534
 161891726.199 6 126149433.844 4                  30806975.016    30806966.376
 144908651.594 8 112915882.695 7                  27575166.038    27575167.458
 145952742.398 8 113729462.859 6                  27773851.496    27773850.936
 162187525.251 6 126379901.511 4                  30863256.776    30863253.056
 149006224.992 8 116108809.996 8                  28354922.052    28354918.632
 163358707.538 6 127292526.029 3                  31086099.114    31086099.214
 156391438.038 7 121863514.401 5                  29760279.922    29760276.522
 147932352.067 9 115271996.364 5                  28150560.514    28150559.514
 159584728.588 8 124121474.929 5                  29811759.024    29811757.004
 156900712.064 6                                                  29382446.704
 142286463.451 9 110667326.909 8                  26655011.084    26655012.464
 154471474.778 8                                                  28876801.628
 151913872.398 9 118155262.308 6                  28428582.552    28428583.912
 144563246.580 9 112438159.773 7                  27062501.780    27062502.180
 151677756.907 9 117971624.126 6                  28344576.452    28344575.852
 24 11 23  1  6 30.0000000  0 17G17G22G06G19G14G07G30G02G15G13R03R13
                                R22R23R11R12R21
 141878305.663 9 110554597.623 9                  26998506.440    26998506.880
 146601596.452 9 114235066.637 6                  27897318.714    27897319.674
 161741552.059 6 126032415.307 5                  30778397.456    30778388.716
 144806844.738 8 112836552.774 6                  27555792.778    27555794.338
 145934632.892 9 113715351.592 6                  27770405.396    27770404.936
 162237347.009 6 126418723.650 4                  30872737.396    30872733.796
 149027633.594 8 116125492.027 8                  28358996.032    28358992.652
 163372259.583 6 127303086.063 3                  31088677.694    31088678.094
 156358352.595 7 121837733.573 5                  29753984.102    29753980.622
 147928223.230 8 115268779.091 5                  28149775.014    28149773.574
 159525066.245 8 124075070.942 5                  29800613.324    29800610.624
 156774930.907 6                                                  29358891.588
 142193604.520 9 110595103.410 8                  26637615.444    26637616.804
 154296043.730 8                                                  28844006.688
 151915595.943 9 118156602.853 6                  28428905.012    28428905.912
 144483864.096 9 112376417.914 7                  27047641.240    27047641.600
 151710336.857 9 117996964.079 6                  28350664.212    28350664.092
 24 11 23  1  7  0.0000000  0 17G17G22G06G19G14G07G30G02G15G13R03R13
                                R22R23R11R12R21
 141965090.729 9 110622222.403 9                  27015021.020    27015021.500
 146678125.389 9 114294699.638 6                  27911881.714    27911882.554
 161704130.778 6 126003256.127 5                  30771276.056    30771267.636
 144818223.579 8 112845419.500 7                  27557957.958    27557959.338
 146029426.506 8 113789216.783 6                  27788443.956    27788443.356
 162400139.193 6 126545574.721 4                  30903715.594    30903711.334
 149162183.548 8 116230336.152 8                  28384600.052    28384596.692
 163498987.578 6 127401835.166 3                  31112792.954    31112793.274
 156438560.511 7 121900233.279 5                  29769247.162    29769243.522
 148037367.702 9 115353826.730 5                  28170544.394    28170543.334
 159580972.820 8 124118553.870 5                  29811057.644    29811054.664
 156763685.139 7                                                  29356785.928
 142216040.163 9 110612553.456 8                  26641818.324    26641819.744
 154235634.611 8                                                  28832713.788
 152032199.869 9 118247294.827 6                  28450726.052    28450726.452
 144519258.905 9 112403947.274 7                  27054267.380    27054266.600
 151858351.816 9 118112086.815 6                  28378324.052    28378324.532
 24 11 23  1  7 30.0000000  0 18G17G22G06G19G14G24G07G30G02G15G13R03
                                R13R22R23R11R12R21
 141943248.035 9 110605202.179 9                  27010864.400    27010864.960
 146645678.832 8 114269416.670 6                  27905707.054    27905708.214
 161557619.042 6 125889091.397 5                  30743395.656    30743388.616
 144720942.704 8 112769616.315 6                  27539445.878    27539447.538
 146015277.510 8 113778191.636 6                  27785751.456    27785750.696
 164594576.690 5 128255523.312 4                  31321314.192    31321304.192
 162454054.703 6 126587586.807 4                  30913974.894    30913971.314
 149188028.370 8 116250474.978 8                  28389518.092    28389515.092
 163517043.969 6 127415905.089 3                  31116229.314    31116229.534
 156410214.587 7 121878145.576 5                  29763852.922    29763849.342
 148037937.640 8 115354270.839 5                  28170652.994    28170651.534
 159526462.986 8 124076157.386 5                  29800874.344    29800871.664
 156641544.932 6                                                  29333912.528
 142128421.252 9 110544405.519 8                  26625404.324    26625406.184
 154064425.023 8                                                  28800708.168
 152038096.705 9 118251881.301 6                  28451829.252    28451829.812
 144443922.665 9 112345352.494 8                  27040163.980    27040163.720
 151895893.016 9 118141285.518 6                  28385339.932    28385339.312
 24 11 23  1  8  0.0000000  0 18G17G22G06G19G14G24G07G30G02G15G13R03
                                R13R22R23R11R12R21
 141887693.269 9 110561912.800 9                  27000292.500    27000293.280
 146579173.111 9 114217594.086 6                  27893051.494    27893052.214
 161376936.781 6 125748300.304 4                  30709012.876    30709004.916
 144589919.738 9 112667520.595 7                  27514513.018    27514514.838
 145967102.553 8 113740652.752 6                  27776584.056    27776583.556
 164412696.152 5 128113798.400 4                  31286703.412    31286692.432
 162474008.404 5 126603135.123 3                  30917772.274    30917768.934
 149180083.689 8 116244284.319 8                  28388006.152    28388003.032
 163501343.933 6 127403671.313 3                  31113241.634    31113241.534
 156348230.046 7 121829845.963 5                  29752057.502    29752053.662
 148004847.622 8 115328486.412 5                  28164355.894    28164354.574
 159437850.954 8 124007236.967 5                  29784321.324    29784318.004
 156484638.636 6                                                  29304528.508
 142006850.532 9 110449850.616 8                  26602630.044    26602631.324
 153858680.705 8                                                  28762246.312
 152009468.064 9 118229614.582 6                  28446471.752    28446473.312
 144334010.841 9 112259865.588 7                  27019588.080    27019588.620
 151899244.696 9 118143892.348 6                  28385966.272    28385965.952
 24 11 23  1  8 30.0000000  0 18G17G22G06G19G14G24G07G30G02G15G13R03
                                R13R22R23R11R12R21
 141762996.049 9 110464746.186 9                  26976563.482    26976564.142
 146443179.462 9 114111625.064 6                  27867172.816    27867173.616
 161126658.462 6 125553278.506 5                  30661385.936    30661378.316
 144389727.049 9 112511526.386 6                  27476417.478    27476419.158
 145849473.174 8 113648993.536 6                  27754199.916    27754199.436
 164161302.986 5 127917907.787 4                  31238864.772    31238853.472
 162424570.392 6 126564611.996 3                  30908364.314    30908360.994
 149102920.169 8 116184156.906 8                  28373322.572    28373319.272
 163416457.204 6 127337525.824 3                  31097088.594    31097088.294
 156217177.094 7 121727726.810 5                  29727119.182    29727115.402
 147902667.078 8 115248865.204 5                  28144911.474    28144910.374
 159279047.141 8 123883722.927 6                  29754656.084    29754653.144
 156256965.356 6                                                  29261892.568
 141815341.850 9 110300899.521 8                  26566754.164    26566755.164
 153582341.282 8                                                  28710586.852
 151910288.404 9 118152474.874 6                  28427911.772    28427912.492
 144153511.626 9 112119477.393 7                  26985798.680    26985798.320
 151832326.331 9 118091844.710 6                  28373460.952    28373460.452
 24 11 23  1  9  0.0000000  0 18G17G22G06G19G14G24G07G30G02G15G13R03
                                R13R22R23R11R12R21
 141879906.583 9 110555845.349 9                  26998810.820    26998811.520
 146548449.168 9 114193653.465 6                  27887205.054    27887205.994
 161117539.754 6 125546173.246 5                  30659649.436    30659642.316
 144431117.942 8 112543779.126 6                  27484293.718    27484295.438
 145973141.153 8 113745358.241 6                  27777733.016    27777732.696
 164151152.044 6 127909998.128 4                  31236932.592    31236923.352
 162616490.377 6 126714160.068 3                  30944885.834    30944881.854
 149267288.272 8 116312235.953 8                  28404600.632    28404597.412
 163573133.559 6 127459611.314 3                  31126903.454    31126902.674
 156327806.004 7 121813931.174 5                  29748171.082    29748167.802
 148042145.733 8 115357549.870 5                  28171453.634    28171452.434
 159366600.639 8 123951820.128 6                  29771010.944    29771007.944
 156274299.675 6                                                  29265138.188
 141869559.552 9 110343068.944 8                  26576910.444    26576912.164
 153551739.879 8                                                  28704866.232
 152056553.324 9 118266236.509 6                  28455282.852    28455283.252
 144218310.283 9 112169876.425 7                  26997928.700    26997928.820
 152011572.459 9 118231258.345 6                  28406957.252    28406957.752
 24 11 23  1  9 30.0000000  0 18G17G22G06G19G14G24G07G30G02G15G13R03
                                R13R22R23R11R12R21
 141719377.444 9 110430757.755 9                  26968263.082    26968263.702
 146375936.516 8 114059228.078 6                  27854376.896    27854377.736
 160830536.919 6 125322534.950 5                  30605035.816    30605027.876
 144195046.900 8 112359827.762 6                  27439370.838    27439372.638
 145819061.204 8 113625295.983 6                  27748412.496    27748412.276
 163863198.836 5 127685619.226 4                  31182136.652    31182126.752
 162530722.224 6 126647327.721 3                  30928564.734    30928560.854
 149154142.167 8 116224070.167 8                  28383069.632    28383066.572
 163452326.413 6 127365475.894 3                  31103914.494    31103914.194
 156161070.182 7 121684007.185 5                  29716442.222    29716438.982
 147904236.164 8 115250087.868 5                  28145210.314    28145209.254
 159171781.692 8 123800294.322 6                  29734618.304    29734613.424
 156009209.145 6                                                  29215495.828
 141642258.460 9 110166279.311 8                  26534329.104    26534330.744
 153238520.621 8                                                  28646313.192
 151920461.013 9 118160386.955 6                  28429815.392    28429816.132
 144000790.679 9 112000694.592 7                  26957208.444    26957208.224
 151908436.314 9 118151041.320 6                  28387684.292    28387684.312
 24 11 23  1 10  0.0000000  0 18G17G22G06G19G14G24G07G30G02G15G13R03
                                R13R22R23R11R12R21
 141751623.508 9 110455884.601 9                  26974399.242    26974399.962
 146395857.221 9 114074750.758 6                  27858167.596    27858168.376
 160735870.524 6 125248769.147 4                  30587019.236    30587012.276
 144151731.771 9 112326075.809 7                  27431128.138    27431129.678
 145857449.404 8 113655208.905 6                  27755717.576    27755717.296
 163767663.150 5 127611176.074 4                  31163956.514    31163946.394
 162637479.315 6 126730515.110 4                  30948879.674    30948875.494
 149233696.554 8 116286060.604 8                  28398208.252    28398205.332
 163524249.721 6 127421520.045 3                  31117600.974    31117600.154
 156187183.951 7 121704355.587 5                  29721411.462    29721408.062
 147959152.390 8 115292879.733 5                  28155660.414    28155659.654
 159173579.320 8 123801692.519 5                  29734951.924    29734949.764
 155939509.419 6                                                  29202441.228
 141611087.143 9 110142035.045 8                  26528489.764    26528491.464
 153121342.331 8                                                  28624407.392
 151980161.972 9 118206821.061 6                  28440987.612    28440988.612
 143978936.386 9 111983696.881 7                  26953117.244    26953117.104
 152001734.718 9 118223606.734 6                  28405119.092    28405119.152
 24 11 23  1 10 30.0000000  0 18G17G22G06G19G14G24G07G30G02G15G13R03
                                R13R22R23R11R12R21
 141835518.988 9 110521257.750 9                  26990363.860    26990364.720
 146467086.941 9 114130254.489 6                  27871721.976    27871723.256
 160692419.087 6 125214911.087 5                  30578751.818    30578744.338
 144160048.976 9 112332556.842 7                  27432710.698    27432712.598
 145947181.706 8 113725130.227 6                  27772792.876    27772792.496
 163723422.828 5 127576703.386 4                  31155537.674    31155528.514
 162795636.993 6 126853754.882 4                  30978976.414    30978972.414
 149364826.379 8 116388239.697 8                  28423161.612    28423158.292
 163647777.583 6 127517775.540 3                  31141107.374    31141107.734
 156265021.822 7 121765008.494 5                  29736223.562    29736220.182
 148065768.455 9 115375957.186 5                  28175948.514    28175947.874
 159228235.438 8 123844202.870 5                  29745162.184    29745160.064
 155921796.349 6                                                  29199125.248
 141632693.382 9 110158839.978 8                  26532537.444    26532538.604
 153056553.128 8                                                  28612295.572
 152092151.661 9 118293924.159 6                  28461944.792    28461945.992
 144009294.160 9 112007308.556 7                  26958800.484    26958800.164
 152147757.486 9 118337179.975 6                  28432407.432    28432407.192
 24 11 23  1 11  0.0000000  0 18G17G22G06G19G14G24G07G30G02G15G13R03
                                R13R22R23R11R12R21
 141768827.677 9 110469290.537 9                  26977672.922    26977673.782
 146387390.788 9 114068153.638 6                  27856556.336    27856557.036
 160497950.627 6 125063377.458 4                  30541744.938    30541738.578
 144017764.408 8 112221685.845 7                  27405634.738    27405636.478
 145886023.738 8 113677474.714 6                  27761154.976    27761154.336
 163528245.185 5 127424617.241 4                  31118396.074    31118387.154
 162802959.252 6 126859460.540 4                  30980369.694    30980365.734
 149345296.410 8 116373021.550 8                  28419445.292    28419442.052
 163620673.823 6 127496655.758 3                  31135949.414    31135949.254
 156192348.050 7 121708379.589 5                  29722394.042    29722389.862
 148021847.415 8 115341732.999 5                  28167590.934    28167590.014
 159129741.964 8 123767596.858 5                  29726763.564    29726760.544
 155750568.456 6                                                  29167060.108
 141501649.000 9 110056916.656 8                  26507988.164    26507989.604
 152838293.153 8                                                  28571494.032
 152050784.472 9 118261749.684 6                  28454203.972    28454204.112
 143886291.198 9 111911639.658 7                  26935773.824    26935774.204
 152140565.805 9 118331586.428 6                  28431063.152    28431062.972
 24 11 23  1 11 30.0000000  0 18G17G22G06G19G14G24G07G30G02G15G13R03
                                R13R22R23R11R12R21
 141821627.039 9 110510432.942 9                  26987720.300    26987721.060
 146426847.631 9 114098899.275 6                  27864064.676    27864065.596
 160422548.218 6 125004622.521 5                  30527396.758    30527389.758
 143994958.621 8 112203915.202 7                  27401294.938    27401296.758
 145944054.690 8 113722693.683 6                  27772197.836    27772197.216
 163452212.394 5 127365371.265 4                  31103927.354    31103919.274
 162929522.727 6 126958081.432 4                  31004454.094    31004449.654
 149445184.523 8 116450856.449 8                  28438453.132    28438449.692
 163713015.847 6 127568610.604 3                  31153521.694    31153520.974
 156239240.182 7 121744918.925 5                  29731317.082    29731313.742
 148097466.377 8 115400656.864 5                  28181980.772    28181979.452
 159153216.856 8 123785855.127 5                  29731149.364    29731145.584
 155700269.666 6                                                  29157641.228
 141492302.882 9 110049647.539 8                  26506237.384    26506238.784
 152741493.098 8                                                  28553398.152
 152130697.494 9 118323904.261 6                  28469158.212    28469158.752
 143884468.464 9 111910222.054 7                  26935432.644    26935432.984
 152255177.283 9 118420728.678 6                  28452480.772    28452480.832
 24 11 23  1 12  0.0000000  0 18G17G22G06G19G14G24G07G30G02G15G13R03
                                R13R22R23R11R12R21
 141842747.468 9 110526890.467 9                  26991739.280    26991740.000
 146434289.247 8 114104697.986 6                  27865480.556    27865481.476
 160315046.740 6 124920855.343 4                  30506940.098    30506931.958
 143940464.145 9 112161452.072 7                  27390924.878    27390926.578
 145970106.801 8 113742994.073 6                  27777155.356    27777154.836
 163344158.639 5 127281173.914 4                  31083364.814    31083356.254
 163024158.551 6 127031823.577 4                  31022462.654    31022458.874
 149513322.073 8 116503950.648 8                  28451419.192    28451416.092
 163773634.269 6 127615845.746 3                  31165056.614    31165056.674
 156254528.799 7 121756832.153 5                  29734226.682    29734223.282
 148141455.249 8 115434933.905 5                  28190351.592    28190350.572
 159144671.616 8 123779208.864 6                  29729553.084    29729548.804
 155617290.663 6                                                  29142101.708
 141451100.436 9 110017601.278 8                  26498518.424    26498520.144
 152612276.712 8                                                  28529242.252
 152178172.996 9 118360829.687 6                  28478042.772    28478043.532
 143850163.461 9 111883540.457 7                  26929010.484    26929010.264
 152337654.460 9 118484877.604 6                  28467893.432    28467892.492
 24 11 23  1 12 30.0000000  0 18G17G22G06G19G14G24G07G30G02G15G13R03
                                R13R22R23R11R12R21
 141955811.259 9 110614992.169 9                  27013254.580    27013255.440
 146533339.243 9 114181879.844 6                  27884329.194    27884329.994
 160299073.492 6 124908408.841 4                  30503899.238    30503892.018
 143977905.958 9 112190627.606 7                  27398049.878    27398051.718
 146087804.023 8 113834706.240 6                  27799552.396    27799551.956
 163327710.401 5 127268357.493 4                  31080234.614    31080226.954
 163210488.840 6 127177015.914 4                  31057920.574    31057916.014
 149673331.628 8 116628633.433 7                  28481868.210    28481864.650
 163926150.766 6 127734689.778 3                  31194079.692    31194079.332
 156361836.410 7 121840448.478 5                  29754646.582    29754642.482
 148277435.606 8 115540892.626 5                  28216227.692    28216226.812
 159230035.705 8 123845603.188 5                  29745499.584    29745496.724
 155627253.592 6                                                  29143967.228
 141503620.723 9 110058450.479 8                  26508357.204    26508358.724
 152576490.496 8                                                  28522552.612
 152318921.262 9 118470300.582 6                  28504382.072    28504382.692
 143909043.202 9 111929335.903 8                  26940032.644    26940032.624
 152513879.634 9 118621941.639 6                  28500825.632    28500825.152
 24 11 23  1 13  0.0000000  0 18G17G22G06G19G14G24G07G30G02G15G13R03
                                R13R22R23R11R12R21
 142058077.483 9 110694680.185 9                  27032715.260    27032716.060
 146621258.149 9 114250388.128 6                  27901059.434    27901060.434
 160271892.005 6 124887228.670 5                  30498726.558    30498720.138
 144004545.178 9 112211385.532 7                  27403119.038    27403120.758
 146194407.144 8 113917773.646 6                  27819838.176    27819837.776
 163300130.488 5 127246867.044 4                  31074986.094    31074977.494
 163385772.689 6 127313600.705 4                  31091275.474    31091271.494
 149822473.016 8 116744847.501 8                  28510248.810    28510245.590
 164067824.305 6 127845084.750 3                  31221039.032    31221039.272
 156458421.957 7 121915709.945 5                  29773026.282    29773022.622
 148402666.185 8 115638474.888 5                  28240058.432    28240057.292
 159304652.598 8 123903638.574 5                  29759438.524    29759435.124
 155625759.983 6                                                  29143687.288
 141545502.952 9 110091025.626 8                  26516203.204    26516204.664
 152529555.796 8                                                  28513778.432
 152448470.778 9 118571061.345 6                  28528625.212    28528626.132
 143956673.246 9 111966381.567 7                  26948949.284    26948949.344
 152679229.700 9 118750547.251 6                  28531725.352    28531724.892
 24 11 23  1 13 30.0000000  0 18G17G22G06G19G14G24G07G30G02G15G13R03
                                R13R22R23R11R12R21
 142163922.030 9 110777156.506 9                  27052856.760    27052857.200
 146712423.138 9 114321425.832 6                  27918407.734    27918408.714
 160247882.967 6 124868520.525 5                  30494158.778    30494150.538
 144034760.002 9 112234929.646 7                  27408868.658    27408870.078
 146304293.711 8 114003399.580 6                  27840748.876    27840748.236
 163275798.772 6 127227907.655 4                  31070355.654    31070347.514
 163564386.019 5 127452779.919 3                  31125264.574    31125260.394
 149975122.627 8 116863795.252 7                  28539297.130    28539293.850
 164213030.751 6 127958232.644 3                  31248671.292    31248671.052
 156558661.512 7 121993818.697 5                  29792101.422    29792097.642
 148531522.201 8 115738882.171 5                  28264578.912    28264577.792
 159383166.875 8 123964705.250 5                  29774105.404    29774102.584
 155627420.481 7                                                  29143998.888
 141591353.510 9 110126687.249 8                  26524792.264    26524794.124
 152486112.670 8                                                  28505656.732
 152581442.362 9 118674483.696 6                  28553509.052    28553509.892
 144007670.071 9 112006045.843 8                  26958495.684    26958496.164
 152848341.328 9 118882078.516 6                  28563328.132    28563327.852
 24 11 23  1 14  0.0000000  0 18G17G22G06G19G14G24G07G30G02G15G13R03
                                R13R22R23R11R12R21
 142188348.197 9 110796189.941 9                  27057504.820    27057505.560
 146721839.315 8 114328763.158 6                  27920199.614    27920200.534
 160142054.788 6 124786057.177 4                  30474019.018    30474011.178
 143983556.697 9 112195031.057 7                  27399124.818    27399126.638
 146332469.312 8 114025354.638 6                  27846110.516    27846110.116
 163169722.949 6 127145251.536 4                  31050169.474    31050161.514
 163661332.960 5 127528322.961 3                  31143713.374    31143708.954
 150046284.901 8 116919246.376 7                  28552838.710    28552835.650
 164276773.690 6 128007902.477 3                  31260801.172    31260801.672
 156577558.562 7 122008543.671 5                  29795697.682    29795693.682
 148579007.159 8 115775883.429 5                  28273615.092    28273613.732
 159378998.010 8 123961462.812 5                  29773327.184    29773323.464
 155545867.691 6                                                  29128724.748
 141554836.546 9 110098285.249 8                  26517951.524    26517953.044
 152359645.525 8                                                  28482014.632
 152631408.198 9 118713346.028 6                  28562859.152    28562859.892
 143975637.264 9 111981131.525 8                  26952498.964    26952499.404
 152934661.375 9 118949216.334 6                  28579458.592    28579458.652
 24 11 23  1 14 30.0000000  0 18G17G22G06G19G14G24G07G30G02G15G13R03
                                R13R22R23R11R12R21
 142385157.794 9 110949548.119 9                  27094956.280    27094956.980
 146903309.679 8 114470168.684 6                  27954732.134    27954733.154
 160208214.717 6 124837610.567 5                  30486608.858    30486602.678
 144104739.689 9 112289459.456 7                  27422185.018    27422186.778
 146532737.479 8 114181407.800 6                  27884220.054    27884219.674
 163235709.520 6 127196669.981 4                  31062726.234    31062718.834
 163930414.970 5 127737997.232 3                  31194917.512    31194914.392
 150289761.955 8 117108968.755 7                  28599170.950    28599167.550
 164512854.354 6 128191861.454 3                  31305725.932    31305725.952
 156768915.276 7 122157652.801 5                  29832111.462    29832107.962
 148798922.056 8 115947245.686 5                  28315463.632    28315462.552
 159550683.968 8 124094996.340 6                  29805399.444    29805396.344
 155639007.794 6                                                  29146167.348
 141693767.746 9 110206342.932 8                  26543977.904    26543979.224
 152408517.168 8                                                  28491150.692
 152856454.796 8 118888382.288 6                  28604973.912    28604974.372
 144118571.515 9 112092302.682 8                  26979256.744    26979256.504
 153196633.410 9 119152972.368 6                  28628414.652    28628414.112
 24 11 23  1 15  0.0000000  0 18G17G22G06G19G14G24G07G30G02G15G13R03
                                R13R22R23R11R12R21
 142236889.842 9 110834014.704 9                  27066741.880    27066742.680
 146739374.848 8 114342427.306 6                  27923536.354    27923537.174
 159928905.157 6 124619966.949 5                  30433457.918    30433450.398
 143880849.378 9 112114999.564 7                  27379580.058    27379581.798
 146387639.010 9 114068344.097 6                  27856608.836    27856608.336
 162956300.131 6 126978948.706 4                  31009556.234    31009547.654
 163854171.710 6 127678586.875 3                  31180408.792    31180405.232
 150188093.854 8 117029746.859 7                  28579824.250    28579820.610
 164403812.223 6 128106893.585 3                  31284975.872    31284975.752
 156615270.654 7 122037929.717 5                  29802873.802    29802870.342
 148673805.447 8 115849752.217 5                  28291654.752    28291653.712
 159371110.134 8 123955327.814 6                  29771853.104    29771850.684
 155381020.041 6                                                  29097854.368
 141482512.657 9 110042033.495 8                  26504402.384    26504403.844
 152105986.438 8                                                  28434596.072
 152730393.317 9 118790334.487 6                  28581383.152    28581384.232
 143910468.980 9 111930445.233 8                  26940299.144    26940299.584
 153107325.643 9 119083510.773 6                  28611725.412    28611725.212
 24 11 23  1 15 30.0000000  0 18G17G22G06G19G14G24G07G30G02G15G13R03
                                R13R22R23R11R12R21
 142163094.485 9 110776511.875 9                  27052699.060    27052699.780
 146649586.190 9 114272462.168 6                  27906450.074    27906450.694
 159723682.173 6 124460053.125 5                  30394404.538    30394398.418
 143731439.166 9 111998576.110 7                  27351148.078    27351150.118
 146316725.693 8 114013087.000 6                  27843114.396    27843114.316
 162751050.096 6 126819013.921 4                  30970497.954    30970489.774
 163852152.328 6 127677013.304 4                  31180024.652    31180020.512
 150160830.803 8 117008502.918 7                  28574636.350    28574632.890
 164369196.640 6 128079920.419 3                  31278388.792    31278387.872
 156536174.740 7 121976296.541 5                  29787822.642    29787818.742
 148623206.243 9 115810324.257 5                  28282025.932    28282025.032
 159267655.129 8 123874862.834 6                  29752527.164    29752524.004
 155198236.800 6                                                  29063625.328
 141347254.207 9 109936832.554 8                  26479064.104    26479065.944
 151879138.391 8                                                  28392188.632
 152679854.805 9 118751026.781 6                  28571925.652    28571926.892
 143777812.151 9 111827267.785 8                  26915465.644    26915465.824
 153093963.314 9 119073117.865 6                  28609228.512    28609227.472
 24 11 23  1 16  0.0000000  0 18G17G22G06G19G14G24G07G30G02G15G13R03
                                R13R22R23R11R12R21
 142137149.666 9 110756295.184 9                  27047761.940    27047762.480
 146607323.498 9 114239530.244 6                  27898407.594    27898408.434
 159565928.764 6 124337128.586 5                  30364385.138    30364377.738
 143629889.389 9 111919446.495 7                  27331823.698    27331825.678
 146293377.579 9 113994893.701 6                  27838671.616    27838671.256
 162593341.712 6 126696124.559 4                  30940486.754    30940477.334
 163897735.502 6 127712532.667 3                  31188698.872    31188695.492
 150181351.633 8 117024493.172 8                  28578541.170    28578538.010
 164382385.557 6 128090197.516 3                  31280898.272    31280897.212
 156505005.800 7 121952009.056 5                  29781891.222    29781887.462
 148620502.243 8 115808217.238 5                  28281511.072    28281510.352
 159213201.716 7 123832510.198 6                  29742354.984    29742351.024
 155063609.176 6                                                  29038413.528
 141260953.316 9 109869709.711 8                  26462896.964    26462898.524
 151700879.874 8                                                  28358864.872
 152677770.721 9 118749405.836 6                  28571535.352    28571536.892
 143693543.082 9 111761725.259 8                  26899689.984    26899690.524
 153129435.255 9 119100707.157 6                  28615857.112    28615856.612
 24 11 23  1 16 30.0000000  0 18G17G22G06G19G14G24G07G30G02G15G13R03
                                R13R22R23R11R12R21
 142105550.142 9 110731672.223 9                  27041748.640    27041749.280
 146559083.491 9 114201940.678 6                  27889227.734    27889228.634
 159402144.645 6 124209504.832 5                  30333218.158    30333211.478
 143522697.281 8 111835920.261 7                  27311425.618    27311427.498
 146264091.502 8 113972073.410 6                  27833098.616    27833097.956
 162429673.956 6 126568591.528 4                  30909341.494    30909333.434
 163937416.201 6 127743452.694 3                  31196249.852    31196245.772
 150196151.930 8 117036025.868 7                  28581357.670    28581354.090
 164389874.053 6 128096032.727 3                  31282323.472    31282323.292
 156468258.567 7 121923374.854 5                  29774898.482    29774894.882
 148612187.910 8 115801738.533 5                  28279929.032    28279928.132
 159153247.076 8 123785878.834 6                  29731154.644    29731151.084
 154922770.094 7                                                  29012038.608
 141169262.757 9 109798394.896 8                  26445720.004    26445721.724
 151516751.346 8                                                  28324443.312
 152669735.775 9 118743156.443 6                  28570031.312    28570032.612
 143603276.515 9 111691518.000 8                  26882792.004    26882792.764
 153159255.473 9 119123900.649 6                  28621429.952    28621429.152
 24 11 23  1 17  0.0000000  0 18G17G22G06G19G14G24G07G30G02G15G13R03
                                R13R22R23R11R12R21
 142123306.334 9 110745508.270 9                  27045127.440    27045128.200
 146559877.390 8 114202559.352 6                  27889378.734    27889380.114
 159287345.109 6 124120050.896 5                  30311372.338    30311364.758
 143464875.387 9 111790864.320 7                  27300422.498    27300424.158
 146283879.517 8 113987492.673 6                  27836863.956    27836863.296
 162315061.312 6 126479283.243 4                  30887531.234    30887522.434
 164026204.631 6 127812638.482 3                  31213145.932    31213141.912
 150260242.369 8 117085966.465 8                  28593553.570    28593550.370
 164446672.098 6 128140290.964 3                  31293131.452    31293131.512
 156480943.242 7 121933259.019 5                  29777312.522    29777308.302
 148653272.905 8 115833752.808 5                  28287747.172    28287746.472
 159143828.555 8 123778553.340 6                  29729395.484    29729392.424
 154831621.142 7                                                  28994969.368
 141128065.182 9 109766352.417 8                  26438002.324    26438004.304
 151382756.916 8                                                  28299394.112
 152711690.956 8 118775788.273 6                  28577883.092    28577883.452
 143562934.683 9 111660141.105 8                  26875240.084    26875239.864
 153239438.726 9 119186265.387 6                  28636413.612    28636413.832
 24 11 23  1 17 30.0000000  0 18G17G22G06G19G14G24G07G30G02G15G13R03
                                R13R22R23R11R12R21
 142307688.494 9 110889182.724 9                  27080214.080    27080215.020
 146726976.782 9 114332766.728 6                  27921176.694    27921177.834
 159338805.324 6 124160150.007 5                  30321165.258    30321157.238
 143573696.289 9 111875659.909 7                  27321130.398    27321132.338
 146470013.444 9 114132532.127 6                  27872283.916    27872283.496
 162366778.283 6 126519582.452 4                  30897372.354    30897363.814
 164281370.614 5 128011469.097 2                  31261701.992    31261698.232
 150490893.414 8 117265694.552 7                  28637445.150    28637442.110
 164670049.246 6 128314351.096 3                  31335638.392    31335638.912
 156660329.984 7 122073040.889 5                  29811448.302    29811444.162
 148861026.659 8 115995638.842 5                  28327281.552    28327280.592
 159304405.141 8 123903446.264 6                  29759392.404    29759389.124
 154909330.645 6                                                  29009521.788
 141256486.915 9 109866236.053 8                  26462059.904    26462061.544
 151418276.776 8                                                  28306034.432
 152922887.683 9 118940052.400 6                  28617405.892    28617406.052
 143691727.741 9 111760313.564 8                  26899350.344    26899350.584
 153489398.667 9 119380678.656 6                  28683124.892    28683124.572
 24 11 23  1 18  0.0000000  0 18G17G22G06G19G14G24G07G30G02G15G13R03
                                R13R22R23R11R12R21
 143817672.180 9 112065793.436 9                  27367554.418    27367555.218
 148219359.988 9 115495662.790 6                  28205167.772    28205169.092
 160715509.971 6 125232907.142 5                  30583142.116    30583135.116
 145008140.511 9 112993408.728 7                  27594096.076    27594097.696
 147981471.553 8 115310291.722 6                  28159904.794    28159904.554
 163743808.805 6 127592593.510 4                  31159411.934    31159403.354
 165861888.805 5 129243041.662 2                  31562464.830    31562459.950
 152047080.875 8 118478308.160 7                  28933577.728    28933574.588
 166218980.778 6 129521310.739 3                  31630390.530    31630389.690
 158165395.107 7 123245818.909 5                  30097852.560    30097848.780
 150394423.982 8 117190493.895 5                  28619077.510    28619076.350
 160815577.452 8 125078802.529 6                  30041691.680    30041689.340
 156333606.396 6 121592719.973 3                  29276241.788    29276241.888
 142731821.339 9 111013718.472 8                  26738439.724    26738441.464
 152803092.504 8 118846790.383 3                  28564911.852    28564911.032
 154481857.853 9 120152584.761 6                  28909144.948    28909146.528
 145167777.306 9 112908352.183 8                  27175669.700    27175670.080
 155089317.155 9 120625059.690 6                  28982107.628    28982106.968
 24 11 23  1 18 30.0000000  0 18G17G22G06G19G14G24G07G30G02G15G13R03
                                R13R22R23R11R12R21
 143563937.809 9 111868078.382 9                  27319270.338    27319271.598
 147947707.972 9 115283985.953 6                  28153474.094    28153475.314
 160328135.533 6 124931057.214 5                  30509427.378    30509420.678
 144678886.004 9 112736846.850 7                  27531440.778    27531442.698
 147728936.210 8 115113510.964 6                  28111848.914    28111848.434
 163356828.734 6 127291050.876 4                  31085771.994    31085764.254
 165678444.456 5 129100097.930 2                  31527557.310    31527551.610
 151839488.734 8 118316548.040 7                  28894074.188    28894071.248
 166004149.237 6 129353909.556 3                  31589509.390    31589508.990
 157906818.880 7 123044330.936 5                  30048647.180    30048643.500
 150164146.442 8 117011056.838 5                  28575256.890    28575255.810
 160530388.058 8 124856988.582 6                  29988416.520    29988413.080
 155965208.549 7                                                  29207252.788
 142415935.238 9 110768029.346 8                  26679263.424    26679265.484
 152392449.762 8                                                  28488144.932
 154247163.851 9 119970045.001 6                  28865225.548    28865226.868
 144850744.206 9 112661770.954 8                  27116320.260    27116320.240
 154893342.629 9 120472635.048 6                  28945484.808    28945484.348
 24 11 23  1 19  0.0000000  0 18G17G22G06G19G14G24G07G30G02G15G13R03
                                R13R22R23R11R12R21
 143474473.499 9 111798365.972 9                  27302245.878    27302247.058
 147840010.983 9 115200066.281 6                  28132979.894    28132980.774
 160104680.586 6 124756936.781 5                  30466905.318    30466898.258
 144513926.079 9 112608306.722 7                  27500049.798    27500051.658
 147640397.286 8 115044519.623 6                  28095000.534    28095000.254
 163133835.787 6 127117290.398 4                  31043337.454    31043329.474
 165659022.927 5 129084964.242 2                  31523861.810    31523856.730
 151796103.668 8 118282741.491 7                  28885818.488    28885815.388
 165953541.064 6 129314474.617 3                  31579878.870    31579879.050
 157812589.556 7 122970905.489 5                  30030715.800    30030712.020
 150098180.591 8 116959654.871 5                  28562704.270    28562702.970
 160412796.773 8 124765528.696 6                  29966449.344    29966445.344
 155763283.961 7                                                  29169439.828
 142267285.409 9 110652412.888 8                  26651416.404    26651418.444
 152148942.574 8                                                  28442624.312
 154179323.504 9 119917280.307 6                  28852530.148    28852530.988
 144700462.511 9 112544885.253 8                  27088187.300    27088187.540
 154864740.328 9 120450388.802 6                  28940140.128    28940139.288
 24 11 23  1 19 30.0000000  0 18G17G22G06G19G14G24G07G30G02G15G13R03
                                R13R22R23R11R12R21
 143479080.042 9 111801955.527 9                  27303122.438    27303123.478
 147826071.274 9 115189204.221 6                  28130327.314    28130328.374
 159974950.566 6 124655848.732 5                  30442217.918    30442211.678
 144443063.673 9 112553089.343 7                  27486565.078    27486567.218
 147645657.479 8 115048618.500 6                  28096001.454    28096001.114
 163004634.733 6 127016614.516 4                  31018750.994    31018742.954
 165733424.597 4 129142939.604 1                  31538019.330    31538015.210
 151846727.020 8 118322188.255 7                  28895451.608    28895448.748
 165996956.974 6 129348305.208 3                  31588140.650    31588140.030
 157812507.517 7 122970841.563 5                  30030700.180    30030696.200
 150126326.004 8 116981586.359 5                  28568060.130    28568058.850
 160391295.475 8 124748805.494 6                  29962431.744    29962429.724
 155656501.817 7                                                  29149442.228
 142214566.389 9 110611409.264 8                  26641540.404    26641541.924
 152001118.198 8                                                  28414989.912
 154206956.233 9 119938772.432 6                  28857701.148    28857702.288
 144645577.175 9 112502196.723 8                  27077912.440    27077912.720
 154932024.544 9 120502720.955 6                  28952713.768    28952713.588
 24 11 23  1 20  0.0000000  0 17G17G22G06G19G14G24G30G02G15G13R03R13
                                R22R23R11R12R21
 143605513.771 9 111900475.354 9                  27327181.858    27327182.858
 147933646.789 8 115273029.351 6                  28150798.254    28150799.174
 159966706.832 6 124649425.346 5                  30440648.938    30440642.498
 144494057.294 8 112592824.712 7                  27496268.938    27496271.038
 147772475.025 8 115147437.391 6                  28120134.034    28120133.674
 162996986.281 6 127010654.940 4                  31017295.174    31017286.894
 152019115.678 8 118456517.071 7                  28928256.008    28928252.868
 166162153.268 6 129477029.614 3                  31619576.830    31619575.810
 157934329.019 7 123065767.396 5                  30053882.260    30053878.000
 150276338.764 9 117098479.410 5                  28596606.630    28596605.390
 160494159.106 8 124828810.565 6                  29981648.400    29981645.260
 155673069.939 7                                                  29152544.628
 142285976.088 9 110666950.222 8                  26654917.624    26654919.444
 151977237.008 9                                                  28410525.532
 154358288.982 9 120056475.697 6                  28886021.308    28886022.288
 144714306.287 9 112555652.768 8                  27090778.680    27090779.120
 155123457.141 9 120651612.969 6                  28988487.828    28988487.868
 24 11 23  1 20 30.0000000  0 17G17G22G06G19G14G24G30G02G15G13R03R13
                                R22R23R11R12R21
 143682697.351 9 111960618.436 9                  27341869.478    27341870.478
 147991662.294 9 115318236.294 6                  28161838.054    28161839.214
 159908877.011 6 124604363.453 5                  30429644.038    30429637.558
 144495832.211 9 112594207.844 7                  27496606.478    27496608.378
 147849774.915 8 115207671.094 6                  28134843.334    28134843.254
 162939817.284 6 126966107.917 4                  31006415.674    31006408.314
 152142193.394 8 118552421.772 7                  28951676.848    28951673.628
 166278052.700 6 129567340.881 3                  31641631.250    31641630.850
 158006977.120 6 123122376.298 5                  30067706.820    30067702.720
 150377141.461 8 117177026.961 5                  28615788.750    28615787.370
 160547119.457 7 124870001.985 5                  29991541.120    29991537.460
 155639149.690 7                                                  29146192.308
 142307737.229 9 110683875.624 8                  26658994.004    26658995.764
 151903157.952 8                                                  28396676.992
 154459361.400 9 120135087.584 6                  28904936.168    28904936.728
 144732751.241 9 112569998.905 8                  27094231.400    27094231.980
 155264828.813 9 120761568.707 6                  29014906.408    29014906.748
 24 11 23  1 21  0.0000000  0 17G17G22G06G19G14G24G30G02G15G13R03R13
                                R22R23R11R12R21
 143574194.566 9 111876070.853 9                  27321222.058    27321222.958
 147863683.063 9 115218512.268 6                  28137484.334    28137485.674
 159665029.600 6 124414352.760 5                  30383240.798    30383234.338
 144311954.839 9 112450926.853 7                  27461615.498    27461617.718
 147741123.079 8 115123007.350 6                  28114167.954    28114167.674
 162696695.496 6 126776662.621 4                  30960151.134    30960144.114
 152079524.755 8 118503589.054 7                  28939751.628    28939748.068
 166208219.041 6 129512925.068 3                  31628342.550    31628342.330
 157894015.553 7 123034354.281 5                  30046210.960    30046206.900
 150292297.079 8 117110914.451 5                  28599643.050    28599642.050
 160411195.225 8 124764283.133 6                  29966150.044    29966146.664
 155416102.933 7                                                  29104422.908
 142141260.803 9 110554394.028 8                  26627807.364    26627809.424
 151640002.760 8 117942154.744 3                  28347481.912    28347482.552
 154371437.909 9 120066702.636 6                  28888482.088    28888483.028
 144562226.260 9 112437368.422 7                  27062308.780    27062309.240
 155217204.638 9 120724527.667 6                  29006007.088    29006006.968
 24 11 23  1 21 30.0000000  0 18G17G22G06G19G14G24G07G30G02G15G13R03
                                R13R22R23R11R12R21
 143511462.128 9 111827188.472 9                  27309284.538    27309285.158
 147781167.395 9 115154214.396 6                  28121781.994    28121783.334
 159466626.750 6 124259753.460 5                  30345485.938    30345479.798
 144173883.454 8 112343338.842 7                  27435341.238    27435343.558
 147677977.979 8 115073803.396 6                  28102151.814    28102151.534
 162499082.417 6 126622678.656 4                  30922546.374    30922539.094
 166042520.399 4 129383746.369 2                  31596838.710    31596834.810
 152062566.519 8 118490374.836 7                  28936524.508    28936521.068
 166184108.026 6 129494137.280 3                  31623755.090    31623754.510
 157826900.613 7 122982056.904 5                  30033438.980    30033435.120
 150253261.388 9 117080497.020 5                  28592215.110    28592213.990
 160322162.091 7 124695035.153 6                  29949517.624    29949513.464
 155239129.465 7                                                  29071281.528
 142021663.564 9 110461374.030 8                  26605402.344    26605404.744
 151423388.096 8                                                  28306989.032
 154329882.376 9 120034381.693 6                  28880704.708    28880706.448
 144438013.939 9 112340758.901 8                  27039055.660    27039056.400
 155216274.414 9 120723804.173 6                  29005833.648    29005832.428
 24 11 23  1 22  0.0000000  0 18G17G22G06G19G14G24G07G30G02G15G13R03
                                R13R22R23R11R12R21
 143430940.079 9 111764444.055 9                  27293961.658    27293962.298
 147680557.234 9 115075816.914 6                  28102636.654    28102637.854
 159250113.416 6 124091042.078 5                  30304284.358    30304278.238
 144018060.716 9 112221918.615 7                  27405689.258    27405691.698
 147596781.651 8 115010533.555 6                  28086700.754    28086700.274
 162283422.243 6 126454632.019 4                  30881507.374    30881499.854
 166030560.561 4 129374426.919 2                  31594561.090    31594557.750
 152027759.353 8 118463252.361 7                  28929900.908    28929897.608
 166142160.228 6 129461450.687 3                  31615772.430    31615771.590
 157742072.404 7 122915957.007 5                  30017297.420    30017293.380
 150196474.135 8 117036247.212 5                  28581408.610    28581407.650
 160215275.247 7 124611900.945 5                  29929550.584    29929546.344
 155043645.106 7                                                  29034672.508
 141884384.204 9 110354601.265 8                  26579685.784    26579687.464
 151188619.006 8                                                  28263101.392
 154270065.563 9 119987857.517 6                  28869511.368    28869513.008
 144295508.358 9 112229921.284 8                  27012378.320    27012379.100
 155197313.118 9 120709056.500 6                  29002289.628    29002289.168
 24 11 23  1 22 30.0000000  0 17G17G22G06G19G14G24G30G02G15G13R03R13
                                R22R23R11R12R21
 143470612.832 9 111795357.922 9                  27301511.058    27301511.778
 147699838.535 9 115090841.347 6                  28106305.774    28106306.854
 159153479.596 6 124015743.282 5                  30285894.618    30285888.778
 143982473.837 9 112194188.661 7                  27398917.258    27398919.578
 147635520.695 8 115040719.850 6                  28094072.514    28094071.994
 162187704.255 6 126380046.806 4                  30863292.936    30863285.036
 152113088.280 8 118529742.418 7                  28946138.568    28946135.208
 166220359.733 6 129522385.389 3                  31630653.070    31630652.990
 157777515.358 6 122943574.888 5                  30024042.120    30024037.220
 150259918.727 8 117085684.563 5                  28593481.830    28593481.130
 160231093.481 8 124624204.028 5                  29932505.584    29932501.884
 154969867.756 7                                                  29020857.008
 141869590.435 9 110343095.073 8                  26576914.144    26576916.264
 151076163.015 9                                                  28242078.472
 154332302.066 9 120036263.688 6                  28881158.468    28881159.228
 144274976.558 9 112213952.160 8                  27008534.840    27008535.340
 155300827.992 9 120789568.066 6                  29021633.228    29021633.588
 24 11 23  1 23  0.0000000  0 17G17G22G06G19G14G24G30G02G15G13R03R13
                                R22R23R11R12R21
 143538465.819 9 111848230.416 9                  27314422.978    27314423.778
 147746998.408 9 115127589.341 6                  28115279.894    28115280.874
 159084715.668 6 123962161.304 5                  30272809.600    30272803.680
 143975110.163 9 112188450.818 7                  27397515.898    27397518.158
 147702182.709 8 115092664.305 6                  28106757.694    28106757.614
 162119918.179 6 126327226.713 4                  30850393.796    30850385.636
 152226539.569 8 118618146.005 7                  28967727.648    28967723.808
 166326692.197 6 129605241.870 3                  31650887.210    31650886.990
 157841214.730 7 122993210.740 5                  30036163.180    30036158.980
 150351580.141 8 117157109.043 5                  28610924.270    28610923.470
 160275886.579 7 124659043.125 5                  29940873.404    29940868.944
 154924298.287 7                                                  29012323.868
 141883816.714 9 110354160.023 8                  26579579.104    26579581.044
 150992360.313 9                                                  28226412.572
 154423027.967 9 120106828.283 6                  28898136.408    28898137.188
 144282888.144 9 112220105.670 8                  27010015.960    27010016.580
 155433118.912 9 120892461.000 6                  29046355.388    29046355.308
 24 11 23  1 23 30.0000000  0 17G17G22G06G19G14G24G30G02G15G13R03R13
                                R22R23R11R12R21
 143485709.585 9 111807121.701 9                  27304383.658    27304384.638
 147673249.556 9 115070122.737 6                  28101245.954    28101246.974
 158895037.099 6 123814360.120 5                  30236714.140    30236708.480
 143847182.565 9 112088767.061 7                  27373171.958    27373174.498
 147647980.534 8 115050428.872 6                  28096443.474    28096443.054
 161931278.712 6 126180235.134 4                  30814496.556    30814488.696
 152219324.471 8 118612523.831 7                  28966354.728    28966350.828
 166312367.939 6 129594080.125 3                  31648161.750    31648161.130
 157784381.312 6 122948924.949 5                  30025348.020    30025345.060
 150322668.927 8 117134580.835 5                  28605422.870    28605421.770
 160198089.604 7 124598534.392 6                  29926339.804    29926335.984
 154755746.625 7                                                  28980758.908
 141775925.471 9 110270244.677 8                  26559367.524    26559369.304
 150785757.987 9                                                  28187789.992
 154390946.445 9 120081876.010 6                  28892132.248    28892133.208
 144168000.139 9 112130748.380 8                  26988508.680    26988509.320
 155442672.191 9 120899891.322 6                  29048140.948    29048140.228
 24 11 23  1 24  0.0000000  0 17G17G22G06G19G14G24G30G02G15G13R03R13
                                R22R23R11R12R21
 143522467.917 9 111835764.600 9                  27311378.458    27311379.298
 147688717.600 9 115082175.790 6                  28104189.474    28104190.294
 158794573.267 6 123736076.879 5                  30217596.780    30217591.340
 143808817.432 9 112058872.232 7                  27365871.258    27365873.798
 147683039.878 8 115077747.869 6                  28103115.054    28103114.854
 161831914.512 6 126102808.694 4                  30795587.996    30795580.556
 152301567.066 8 118676608.949 7                  28982004.988    28982001.268
 166387510.278 6 129652632.621 3                  31662460.550    31662460.610
 157817138.904 7 122974450.326 5                  30031581.980    30031577.940
 150383307.793 8 117181831.901 5                  28616961.970    28616960.950
 160211747.351 7 124609157.080 6                  29928891.224    29928887.264
 154677735.059 7                                                  28966149.928
 141759363.505 9 110257363.217 8                  26556265.024    26556266.784
 150670256.537 9                                                  28166198.036
 154449728.756 9 120127595.592 6                  28903133.028    28903133.808
 144143910.342 9 112112011.921 8                  26983998.720    26983999.340
 155543454.182 9 120978277.305 6                  29066974.288    29066974.188
 24 11 23  1 24 30.0000000  0 17G17G22G06G19G14G24G30G02G15G13R03R13
                                R22R23R11R12R21
 143663053.805 9 111945312.090 9                  27338131.058    27338131.818
 147807716.622 9 115174902.331 6                  28126834.234    28126835.314
 158797641.867 6 123738468.274 5                  30218180.460    30218174.380
 143874329.650 9 112109920.796 7                  27378337.658    27378340.038
 147821675.407 8 115185775.583 6                  28129496.434    28129496.254
 161836142.622 6 126106103.525 4                  30796392.756    30796384.616
 152487580.474 8 118821554.443 7                  29017401.968    29017398.748
 166566431.734 6 129792051.956 3                  31696507.790    31696508.250
 157953799.588 7 123080939.161 5                  30057587.920    30057583.940
 150547808.357 8 117310014.157 5                  28648265.310    28648264.570
 160331439.639 8 124702251.076 5                  29951250.884    29951247.564
 154704810.501 7                                                  28971220.068
 141848672.154 9 110326825.560 8                  26572995.064    26572997.424
 150660431.906 9                                                  28164361.436
 154613931.533 9 120255308.875 6                  28933860.888    28933862.068
 144225171.464 9 112175215.073 8                  26999210.940    26999211.600
 155750037.006 9 121138952.830 6                  29105579.148    29105579.188
 24 11 23  1 25  0.0000000  0 17G17G22G06G19G14G24G30G02G15G13R03R13
                                R22R23R11R12R21
 143572092.129 8 111874432.903 9                  27320821.578    27320822.438
 147694874.442 9 115086973.386 6                  28105361.014    28105362.054
 158568873.073 7 123560207.138 6                  30174646.880    30174641.500
 143708346.945 9 111980583.703 7                  27346752.218    27346754.538
 147728515.166 9 115113183.215 6                  28111768.534    28111768.434
 161608592.544 6 125928791.948 4                  30753090.916    30753084.116
 152441991.501 8 118786030.560 7                  29008726.908    29008723.208
 166513758.432 6 129751007.850 3                  31686484.270    31686484.510
 157858989.249 7 123007060.983 5                  30039545.380    30039542.240
 150480796.302 8 117257796.975 5                  28635513.330    28635512.590
 160215535.441 8 124612103.360 6                  29929599.384    29929595.864
 154496182.504 7                                                  28932150.248
 141703180.705 9 110213665.603 8                  26545739.904    26545742.084
 150414897.241 9                                                  28118461.196
 154542524.912 9 120199770.401 6                  28920498.048    28920499.748
 144070874.186 9 112055206.128 8                  26970326.264    26970326.884
 155720908.027 9 121116296.947 6                  29100135.948    29100135.348
 24 11 23  1 25 30.0000000  0 17G17G22G06G19G14G24G30G02G15G13R03R13
                                R22R23R11R12R21
 143682298.454 8 111960308.007 9                  27341793.098    27341793.998
 147782908.065 9 115155571.047 6                  28122113.054    28122114.334
 158540988.415 6 123538479.079 6                  30169340.380    30169335.000
 143743587.176 9 112008043.695 7                  27353458.118    27353460.698
 147836276.432 8 115197153.061 6                  28132274.854    28132274.774
 161581985.057 6 125908059.030 4                  30748027.716    30748019.896
 152597515.393 8 118907217.996 7                  29038321.968    29038319.068
 166662204.897 6 129866680.432 3                  31714732.070    31714732.870
 157965422.786 7 123089996.186 5                  30059799.240    30059795.060
 150614985.848 8 117362360.264 5                  28661048.670    28661047.570
 160304824.134 8 124681550.129 6                  29946279.344    29946275.444
 154491561.869 7                                                  28931285.128
 141762444.512 9 110259759.739 8                  26556841.944    26556843.944
 150374139.822 9                                                  28110842.176
 154675527.559 9 120303216.919 6                  28945387.748    28945389.248
 144120884.182 9 112094102.841 8                  26979688.224    26979688.784
 155896698.154 8 121253022.587 6                  29132986.268    29132985.828
 24 11 23  1 26  0.0000000  0 17G17G22G06G19G14G24G30G02G15G13R03R13
                                R22R23R11R12R21
 143638449.813 9 111926140.276 9                  27333449.038    27333449.898
 147716596.157 9 115103899.464 6                  28109494.274    28109495.794
 158358769.019 6 123396490.200 6                  30134665.200    30134659.520
 143624829.250 9 111915505.118 7                  27330859.278    27330861.778
 147789738.326 8 115160889.635 6                  28123418.954    28123418.474
 161401100.643 6 125767110.320 4                  30713606.296    30713599.116
 152598930.051 8 118908320.311 7                  29038591.308    29038587.768
 166656548.316 6 129862272.725 3                  31713656.290    31713656.210
 157917877.124 6 123052947.606 5                  30050751.820    30050747.560
 150595153.152 8 117346906.223 5                  28657274.890    28657274.070
 160237455.068 7 124629151.967 6                  29933694.084    29933689.244
 154329988.363 7                                                  28901026.668
 141665630.133 9 110184459.725 8                  26538705.164    26538707.104
 150176567.829 9                                                  28073907.796
 154651725.884 9 120284704.527 6                  28940934.188    28940935.128
 144014115.338 9 112011060.463 8                  26959700.924    26959701.424
 155915682.332 8 121267788.048 6                  29136533.728    29136533.308
 24 11 23  1 26 30.0000000  0 17G17G22G06G19G14G24G30G02G15G13R03R13
                                R22R23R11R12R21
 143728213.518 9 111996086.062 9                  27350530.478    27350531.338
 147783607.883 9 115156116.430 6                  28122246.134    28122247.474
 158309888.193 7 123358401.484 6                  30125363.240    30125357.220
 143639743.088 9 111927126.361 7                  27333697.038    27333699.278
 147876570.278 8 115228550.937 6                  28139942.574    28139942.414
 161353611.915 6 125730106.323 4                  30704569.096    30704561.996
 152733903.012 8 119013494.032 7                  29064275.788    29064272.528
 166784455.604 6 129961940.752 3                  31737996.230    31737997.250
 158004019.292 7 123120071.359 5                  30067143.760    30067140.060
 150708964.963 8 117435590.749 5                  28678932.370    28678931.510
 160306463.624 7 124682825.299 6                  29946585.024    29946581.084
 154303781.551 7                                                  28896119.228
 141704953.021 9 110215044.252 8                  26546071.584    26546073.724
 150115017.464 9                                                  28062401.596
 154763642.862 9 120371751.074 6                  28961878.268    28961879.328
 144042990.025 9 112033518.620 8                  26965106.084    26965106.784
 156070789.959 9 121388427.297 6                  29165519.628    29165519.068
 24 11 23  1 27  0.0000000  0 17G17G22G06G19G14G24G30G02G15G13R03R13
                                R22R23R11R12R21
 143979759.214 9 112192095.737 9                  27398397.858    27398398.758
 148012115.123 9 115334174.055 6                  28165729.534    28165730.894
 158422521.092 6 123446167.626 6                  30146796.380    30146790.980
 143816500.607 9 112064859.556 7                  27367332.818    27367335.418
 148124944.282 8 115422089.161 6                  28187206.432    28187205.912
 161467693.290 6 125819001.108 4                  30726277.776    30726270.536
 153030604.635 8 119244690.077 7                  29120736.126    29120732.466
 167074096.261 6 130187634.785 3                  31793113.208    31793114.168
 158252018.993 7 123313317.874 5                  30114336.400    30114332.840
 150984590.509 8 117650363.902 5                  28731382.310    28731381.290
 160540545.055 8 124864888.642 6                  29990314.580    29990310.080
 154441569.365 7                                                  28921921.928
 141909030.646 9 110373771.357 8                  26584302.164    26584304.384
 150218169.987 9                                                  28081684.356
 155039926.821 8 120586638.608 6                  29013580.188    29013581.208
 144236146.801 9 112183751.724 8                  27001265.460    27001265.720
 156390703.961 9 121637249.271 6                  29225303.328    29225303.408
 24 11 23  1 27 30.0000000  0 17G17G22G06G19G14G24G30G02G15G13R03R13
                                R22R23R11R12R21
 143781884.385 9 112037907.595 9                  27360743.438    27360744.398
 147790916.713 9 115161811.687 6                  28123636.894    28123638.114
 158085468.303 7 123183529.330 6                  30082657.120    30082651.520
 143543900.280 9 111852443.774 7                  27315458.698    27315461.218
 147923659.707 8 115265244.069 6                  28148903.094    28148903.074
 161132144.751 6 125557534.935 4                  30662424.476    30662418.096
 152877833.210 8 119125647.390 6                  29091664.686    29091661.386
 166914267.915 6 130063093.241 3                  31762699.010    31762699.590
 158050673.279 7 123156425.099 5                  30076022.380    30076018.540
 150810826.440 8 117514963.332 5                  28698315.990    28698314.990
 160317093.596 8 124691093.071 6                  29948570.844    29948567.684
 154122275.376 7                                                  28862128.928
 141657004.793 9 110177751.311 8                  26537089.284    26537090.904
 149863860.518 9                                                  28015449.936
 154859065.224 8 120445968.485 6                  28979734.388    28979735.648
 143972292.438 9 111978531.728 8                  26951871.184    26951871.984
 156253035.441 9 121530173.750 6                  29199576.548    29199576.488
 24 11 23  1 28  0.0000000  0 17G17G22G06G19G14G24G30G02G15G13R03R13
                                R22R23R11R12R21
 143816616.872 8 112064971.908 9                  27367352.698    27367353.718
 147802042.926 9 115170481.499 6                  28125754.234    28125755.314
 157980765.382 6 123101942.867 6                  30062732.340    30062726.340
 143503973.900 9 111821332.366 7                  27307861.018    27307863.538
 147954747.044 8 115289468.009 6                  28154818.934    28154818.554
 161029001.095 6 125477163.481 4                  30642796.496    30642789.916
 152957616.916 8 119187816.492 7                  29106847.006    29106843.486
 166986998.103 6 130119766.139 3                  31776539.530    31776539.030
 158082010.148 6 123180843.424 5                  30081985.180    30081980.800
 150869700.147 9 117560838.940 5                  28709519.370    28709518.190
 160330862.578 8 124701802.302 6                  29951143.884    29951139.404
 154038952.561 7                                                  28846525.088
 141641683.387 9 110165834.723 8                  26534218.784    26534220.884
 149746363.347 9                                                  27993485.036
 154914596.026 9 120489159.120 6                  28990126.068    28990127.708
 143944723.374 9 111957089.198 8                  26946710.104    26946710.684
 156352290.932 9 121607372.455 6                  29218124.668    29218124.368
 24 11 23  1 28 30.0000000  0 17G17G22G06G19G14G24G30G02G15G13R03R13
                                R22R23R11R12R21
 143831783.866 9 112076790.375 9                  27370238.918    27370240.058
 147793322.681 9 115163686.539 6                  28124094.774    28124095.934
 157856243.753 6 123004913.278 6                  30039036.700    30039030.340
 143444550.113 9 111775028.170 7                  27296553.018    27296555.558
 147966035.491 8 115298264.238 6                  28156967.054    28156966.494
 160906093.078 6 125381391.229 4                  30619407.736    30619401.196
 153017783.504 8 119234699.531 6                  29118296.606    29118292.706
 167040113.915 6 130161155.100 3                  31786646.968    31786646.128
 158093856.588 7 123190074.408 5                  30084238.880    30084236.220
 150909038.058 8 117591491.858 5                  28717004.950    28717004.230
 160324974.443 8 124697222.635 6                  29950042.964    29950039.684
 153935356.055 7                                                  28827124.268
 141606911.114 9 110138789.690 8                  26527704.764    26527707.184
 149608985.987 9                                                  27967803.616
 154950094.193 9 120516768.820 6                  28996769.368    28996770.628
 143897105.689 9 111920053.291 8                  26937795.904    26937796.644
 156431680.910 8 121669120.214 6                  29232960.308    29232960.068
 24 11 23  1 29  0.0000000  0 17G17G22G06G19G14G24G30G02G15G13R03R13
                                R22R23R11R12R21
 143764516.291 9 112024374.109 9                  27357438.338    27357439.318
 147701888.364 9 115092439.065 6                  28106695.354    28106696.634
 157649039.134 7 122843455.367 6                  29999606.740    29999601.440
 143302761.645 9 111664543.706 7                  27269571.380    27269574.100
 147894657.860 8 115242645.344 6                  28143384.174    28143383.934
 160700555.708 6 125221232.485 4                  30580294.776    30580288.876
 152995464.176 8 119217307.828 6                  29114049.086    29114045.946
 167010745.831 6 130138270.895 3                  31781058.008    31781057.488
 158023342.859 7 123135128.649 5                  30070821.500    30070817.360
 150865969.839 8 117557932.205 5                  28708809.490    28708808.370
 160235386.869 7 124627543.420 6                  29933307.384    29933303.964
 153747604.051 7                                                  28791964.088
 141488827.570 9 110046946.983 8                  26505583.844    26505586.004
 149387737.093 9                                                  27926442.776
 154901632.073 8 120479076.054 6                  28987700.108    28987701.488
 143765535.253 9 111817720.801 8                  26913165.904    26913166.524
 156427183.364 8 121665622.116 6                  29232119.968    29232120.088
 24 11 23  1 29 30.0000000  0 17G17G22G06G19G14G24G30G02G15G13R03R13
                                R22R23R11R12R21
 143854480.446 9 112094476.071 9                  27374557.938    27374559.198
 147767409.334 9 115143494.411 6                  28119163.394    28119164.714
 157598824.535 7 122804327.337 6                  29990051.040    29990045.660
 143318278.159 9 111676634.560 7                  27272524.040    27272526.480
 147980283.427 8 115309366.611 6                  28159678.014    28159678.014
 160652061.316 6 125183444.895 5                  30571066.238    30571060.798
 153130326.248 8 119322395.140 6                  29139712.486    29139709.166
 167138560.475 6 130237866.728 3                  31805380.508    31805380.008
 158110135.645 7 123202759.377 5                  30087338.000    30087333.320
 150980161.555 8 117646912.759 5                  28730539.610    28730538.230
 160306238.516 8 124682650.254 6                  29946543.884    29946539.324
 153719240.033 7                                                  28786651.648
 141530889.236 9 110079661.675 8                  26513463.104    26513465.164
 149326591.013 9                                                  27915012.336
 155012923.419 8 120565635.991 6                  29008527.248    29008527.988
 143793641.418 9 111839581.215 8                  26918427.404    26918427.644
 156582849.033 8 121786695.418 6                  29261209.788    29261209.248
 24 11 23  1 30  0.0000000  0 17G17G22G06G19G14G24G30G02G15G13R03R13
                                R22R23R11R12R21
 143806829.100 9 112057345.177 9                  27365490.098    27365491.318
 147695039.807 9 115087102.621 6                  28105391.894    28105393.274
 157410756.963 6 122657781.437 6                  29954262.822    29954256.462
 143196253.944 9 111581550.818 7                  27249303.620    27249306.140
 147928067.072 8 115268678.585 6                  28149741.594    28149741.554
 160465766.284 6 125038280.180 5                  30535615.258    30535609.278
 153127523.201 8 119320210.924 6                  29139179.086    29139176.086
 167128710.739 6 130230191.617 3                  31803505.548    31803506.208
 158059387.389 7 123163215.271 5                  30077680.000    30077676.380
 150956765.835 8 117628682.319 5                  28726087.530    28726086.190
 160237181.660 8 124628939.358 6                  29933642.924    29933639.724
 153550655.129 7                                                  28755081.292
 141433592.104 9 110003986.188 8                  26495235.944    26495238.084
 149125415.275 9                                                  27877404.736
 154984148.849 8 120543255.787 6                  29003141.688    29003143.588
 143681711.123 9 111752524.388 8                  26897473.484    26897473.944
 156598433.317 8 121798816.536 6                  29264122.628    29264120.908
 24 11 23  1 30 30.0000000  0 17G17G22G06G19G14G24G30G02G15G13R03R13
                                R22R23R11R12R21
 143741762.439 9 112006643.907 9                  27353108.258    27353109.458
 147604981.902 8 115016927.675 6                  28088254.434    28088255.674
 157205042.162 7 122497484.427 6                  29915115.522    29915111.102
 143056891.709 9 111472956.930 7                  27222783.680    27222786.280
 147858211.102 9 115214245.412 6                  28136448.434    28136448.234
 160261875.603 6 124879404.575 5                  30496815.898    30496809.658
 153107255.478 8 119304417.878 6                  29135322.306    29135319.466
 167101396.396 6 130208907.707 3                  31798308.248    31798308.708
 157991297.929 7 123110158.565 5                  30064722.840    30064719.380
 150915981.573 8 117596902.367 5                  28718326.270    28718325.710
 160150658.822 8 124561643.826 6                  29917479.784    29917476.304
 153363995.257 7                                                  28720126.352
 141319037.842 9 109914888.487 8                  26473775.824    26473778.624
 148906573.350 9                                                  27836494.376
 154937538.806 8 120507003.533 6                  28994420.128    28994421.288
 143551933.599 9 111651586.382 8                  26873178.744    26873179.544
 156596333.904 8 121797183.664 6                  29263730.128    29263729.728
 24 11 23  1 31  0.0000000  0 17G17G22G06G19G14G24G30G02G15G13R03R13
                                R22R23R11R12R21
 143772374.434 9 112030497.428 9                  27358933.558    27358934.698
 147610331.368 9 115021096.141 6                  28089272.354    28089273.734
 157094779.332 6 122411565.572 6                  29894133.402    29894128.102
 143013287.054 9 111438979.344 7                  27214486.080    27214488.520
 147883811.454 8 115234193.789 6                  28141319.894    28141319.954
 160153487.856 6 124794946.842 5                  30476190.278    30476184.798
 153182617.148 8 119363141.231 7                  29149663.406    29149659.906
 167169710.620 6 130262139.574 3                  31811307.908    31811307.688
 158018960.898 7 123131714.118 5                  30069987.780    30069983.620
 150970901.878 8 117639697.397 5                  28728777.410    28728776.370
 160161873.733 8 124570366.544 6                  29919575.164    29919571.744
 153274185.253 7                                                  28703307.952
 141302109.342 9 109901721.928 8                  26470604.784    26470607.184
 148785194.874 9                                                  27813804.436
 154988097.846 8 120546327.239 6                  29003881.468    29003882.028
 143519274.286 9 111626184.769 7                  26867065.064    26867066.044
 156691711.382 8 121871366.142 6                  29281553.608    29281553.428
 24 11 23  1 31 30.0000000  0 17G17G22G06G19G14G24G30G02G15G13R03R13
                                R22R23R11R12R21
 143821416.919 9 112068712.378 9                  27368265.998    27368267.218
 147633842.504 9 115039416.559 6                  28093746.254    28093747.794
 157002725.964 6 122339835.921 6                  29876616.042    29876611.142
 142988194.688 9 111419426.921 7                  27209711.000    27209713.660
 147927622.721 8 115268332.488 6                  28149656.874    28149656.734
 160063359.775 6 124724717.424 5                  30459039.098    30459033.878
 153276361.119 8 119436188.462 6                  29167502.306    29167498.786
 167256405.688 6 130329694.189 3                  31827805.008    31827804.908
 158065128.103 7 123167688.549 5                  30078772.680    30078769.040
 151044278.209 8 117696873.746 5                  28742740.710    28742739.530
 160192137.546 7 124593905.063 6                  29925228.804    29925223.504
 153202732.370 7                                                  28689927.192
 141304340.687 9 109903457.465 8                  26471022.644    26471025.164
 148682651.962 9                                                  27794634.616
 155057277.326 8 120600133.502 6                  29016827.568    29016828.388
 143505213.618 9 111615248.773 8                  26864432.484    26864433.404
 156805902.835 8 121960181.709 6                  29302893.108    29302893.408
 24 11 23  1 32  0.0000000  0 17G17G22G06G19G14G24G30G02G15G13R03R13
                                R22R23R11R12R21
 143829480.321 9 112074995.565 9                  27369800.438    27369801.598
 147616107.514 9 115025597.137 6                  28090371.294    28090372.634
 156869477.464 7 122236006.154 6                  29851258.962    29851254.222
 142922206.674 9 111368007.765 7                  27197153.800    27197156.400
 147930237.538 8 115270370.048 6                  28150154.414    28150153.974
 159932086.170 6 124622426.549 5                  30434058.538    30434052.418
 153329078.258 8 119477266.730 6                  29177534.006    29177530.606
 167302072.372 6 130365278.635 3                  31836495.808    31836495.648
 158070389.654 6 123171788.453 5                  30079773.580    30079770.540
 151076700.127 8 117722137.569 5                  28748910.270    28748909.270
 160180932.391 7 124585189.964 6                  29923134.844    29923130.204
 153089270.415 7                                                  28668678.592
 141265385.474 9 109873159.015 8                  26463725.144    26463727.284
 148538474.876 9                                                  27767681.916
 155084668.157 8 120621437.473 6                  29021954.148    29021953.588
 143449364.706 9 111571810.807 8                  26853977.524    26853978.224
 156878409.428 8 122016575.734 6                  29316442.008    29316442.748
 24 11 23  1 32 30.0000000  0 17G17G22G06G19G14G24G30G02G15G13R03R13
                                R22R23R11R12R21
 143850727.778 9 112091552.049 9                  27373843.638    27373844.838
 147611291.689 9 115021844.603 6                  28089454.934    28089456.294
 156749202.369 7 122142285.538 6                  29828372.022    29828366.862
 142869488.555 9 111326928.787 8                  27187121.860    27187124.400
 147945821.209 8 115282513.209 6                  28153119.894    28153119.614
 159813834.855 6 124530282.905 5                  30411555.858    30411550.338
 153394932.074 7 119528581.369 6                  29190065.526    29190061.866
 167360873.155 6 130411097.433 3                  31847684.848    31847685.428
 158088908.483 7 123186218.703 5                  30083298.220    30083294.500
 151122330.021 8 117757693.316 5                  28757593.190    28757592.370
 160183432.156 8 124587134.240 6                  29923602.064    29923598.404
 152988841.350 7                                                  28649871.292
 141240264.793 9 109853620.743 8                  26459019.244    26459021.604
 148407805.207 9                                                  27743254.476
 155125349.795 9 120653078.741 6                  29029566.048    29029567.208
 143406789.106 9 111538696.520 8                  26846007.084    26846008.044
 156964383.311 8 122083444.320 6                  29332508.068    29332508.968
 24 11 23  1 33  0.0000000  0 17G17G22G06G19G14G24G30G02G15G13R03R13
                                R22R23R11R12R21
 143919267.968 9 112144960.018 9                  27386886.418    27386887.358
 147653505.649 9 115054738.651 6                  28097488.114    28097489.094
 156676014.657 7 122085256.390 6                  29814444.042    29814439.022
 142864151.000 9 111322769.733 7                  27186106.000    27186108.780
 148008484.638 9 115331341.902 6                  28165044.194    28165043.954
 159742719.174 6 124474868.322 5                  30398022.638    30398016.618
 153508031.654 8 119616710.890 6                  29211587.706    29211584.066
 167466916.261 6 130493728.445 3                  31867864.288    31867864.428
 158154792.700 6 123237557.058 5                  30095835.560    30095831.160
 151215275.849 8 117830118.620 5                  28775280.210    28775279.270
 160234381.074 7 124626761.164 6                  29933118.364    29933115.104
 152936108.112 7                                                  28639995.452
 141263628.297 9 109871792.419 8                  26463395.904    26463398.164
 148325369.683 9                                                  27727843.816
 155214008.798 9 120722035.755 6                  29046157.868    29046158.408
 143412162.855 9 111542876.173 7                  26847012.984    26847014.064
 157098554.973 8 122187800.061 6                  29357581.768    29357581.548
 24 11 23  1 33 30.0000000  0 17G17G22G06G19G14G24G30G02G15G13R03R13
                                R22R23R11R12R21
 143950208.353 9 112169069.438 9                  27392774.058    27392775.358
 147657859.367 9 115058131.216 6                  28098316.554    28098317.774
 156565027.425 7 121998773.058 6                  29793323.102    29793319.082
 142821304.052 9 111289382.583 7                  27177952.440    27177954.940
 148033338.170 8 115350708.334 6                  28169773.594    28169773.854
 159633851.611 6 124390036.674 5                  30377305.518    30377299.418
 153583485.553 8 119675506.115 6                  29225946.346    29225942.606
 167535309.657 6 130547022.008 3                  31880879.428    31880879.168
 158183150.077 7 123259653.701 5                  30101231.460    30101227.620
 151270644.697 8 117873263.157 5                  28785816.648    28785816.168
 160247303.932 7 124636812.301 6                  29935534.044    29935529.424
 152844810.624 7                                                  28622897.972
 141249244.667 9 109860605.216 8                  26460701.304    26460703.464
 148204759.054 9                                                  27705296.836
 155264323.786 8 120761169.620 6                  29055573.428    29055574.388
 143379195.780 9 111517235.196 8                  26840841.344    26840842.244
 157194477.289 8 122262406.279 6                  29375507.448    29375506.528
 24 11 23  1 34  0.0000000  0 17G17G22G06G19G14G24G30G02G15G13R03R13
                                R22R23R11R12R21
 143967694.882 9 112182695.342 9                  27396101.578    27396102.678
 147648500.086 9 115050838.329 6                  28096535.334    28096536.614
 156440391.255 7 121901654.175 6                  29769605.502    29769601.002
 142765094.924 9 111245583.344 8                  27167256.020    27167258.780
 148044529.281 8 115359428.715 6                  28171903.254    28171903.234
 159511382.011 6 124294606.034 5                  30354000.318    30353994.458
 153645439.399 8 119723781.809 6                  29237735.606    29237732.226
 167590198.534 6 130589792.574 3                  31891324.328    31891323.968
 158198125.491 7 123271322.855 5                  30104080.840    30104077.740
 151312581.060 8 117905940.832 5                  28793796.848    28793795.588
 160246796.150 7 124636417.352 6                  29935439.804    29935434.944
 152739487.775 7                                                  28603174.652
 141221642.613 9 109839136.992 8                  26455530.584    26455532.984
 148070558.110 9                                                  27680209.296
 155300849.570 8 120789578.563 6                  29062408.888    29062409.848
 143332435.887 9 111480866.461 7                  26832087.924    26832088.904
 157276735.166 8 122326384.624 6                  29390879.044    29390879.244
 24 11 23  1 34 30.0000000  0 17G17G22G06G19G14G24G30G02G15G13R03R13
                                R22R23R11R12R21
 144141586.353 9 112318195.232 9                  27429192.078    27429193.038
 147795289.441 9 115165219.706 6                  28124468.274    28124469.874
 156471971.507 7 121926262.374 6                  29775614.762    29775610.842
 142865385.610 9 111323732.013 7                  27186340.640    27186343.200
 148211919.833 8 115489862.952 6                  28203756.632    28203756.352
 159545175.142 6 124320938.560 5                  30360430.618    30360423.978
 153863752.977 7 119893896.264 6                  29279279.546    29279276.106
 167801442.270 6 130754398.103 3                  31931522.628    31931522.188
 158369578.094 7 123404922.259 5                  30136707.700    30136704.120
 151510943.399 8 118060508.880 5                  28831543.828    28831543.088
 160405886.120 7 124760154.015 6                  29965158.844    29965153.884
 152792747.463 7 118838707.365 3                  28613149.892    28613148.552
 141353367.592 9 109941589.792 8                  26480206.844    26480209.184
 148095680.552 9 115185449.820 3                  27684905.876    27684905.596
 155496314.392 8 120941606.754 6                  29098987.528    29098988.228
 143444552.139 9 111568068.057 8                  26853076.344    26853077.044
 157518294.457 8 122514264.061 6                  29436020.464    29436020.104
 24 11 23  1 35  0.0000000  0 17G17G22G06G19G14G24G30G02G15G13R03R13
                                R22R23R11R12R21
 144096632.835 9 112283166.551 9                  27420637.698    27420638.818
 147722979.215 9 115108874.143 6                  28110708.054    28110709.474
 156284522.395 7 121780198.336 6                  29739944.702    29739939.242
 142746927.675 9 111231427.210 7                  27163798.940    27163801.780
 148160262.125 8 115449610.226 6                  28193926.512    28193926.612
 159359984.565 6 124176634.446 5                  30325189.698    30325183.518
 153863177.233 8 119893447.608 6                  29279169.886    29279165.866
 167793790.566 6 130748435.760 3                  31930066.688    31930066.168
 158322257.587 7 123368049.127 5                  30127702.460    30127698.980
 151490481.657 8 118044564.653 5                  28827650.008    28827649.388
 160342322.857 8 124710715.944 6                  29953284.844    29953279.684
 152623279.581 7                                                  28581412.532
 141263242.082 9 109871492.227 8                  26463323.404    26463325.724
 147898148.944 9                                                  27647979.296
 155469139.476 9 120920470.711 6                  29093901.648    29093903.528
 143334100.730 9 111482161.467 8                  26832399.564    26832400.384
 157537036.550 8 122528841.240 6                  29439523.324    29439522.804
 24 11 23  1 35 30.0000000  0 17G17G22G06G19G14G24G30G02G15G13R03R13
                                R22R23R11R12R21
 144179993.998 9 112348123.351 9                  27436500.698    27436501.778
 147778731.284 9 115152317.371 6                  28121317.334    28121318.594
 156225209.611 7 121733980.791 6                  29728657.602    29728653.122
 142756882.712 9 111239184.455 8                  27165693.200    27165696.140
 148236717.851 8 115509186.143 6                  28208475.232    28208475.672
 159302975.318 6 124132211.892 5                  30314341.058    30314335.098
 153990871.494 7 119992949.603 6                  29303469.066    29303466.146
 167914402.466 6 130842419.090 3                  31953018.568    31953018.028
 158403322.963 7 123431216.929 5                  30143129.480    30143124.920
 151598353.809 8 118128620.859 5                  28848177.528    28848176.528
 160409742.427 8 124763153.393 6                  29965879.324    29965874.504
 152583857.039 7                                                  28574029.952
 141303912.915 9 109903125.147 8                  26470942.204    26470944.364
 147831358.358 9                                                  27635493.096
 155572344.021 9 121000740.898 6                  29113215.368    29113216.088
 143353979.006 9 111497622.421 8                  26836120.844    26836121.864
 157686471.159 8 122645068.149 6                  29467448.524    29467447.364
 24 11 23  1 36  0.0000000  0 17G17G22G06G19G14G24G30G02G15G13R03R13
                                R22R23R11R12R21
 144255458.623 9 112406926.998 9                  27450861.238    27450862.238
 147826336.853 9 115189412.677 6                  28130376.214    28130377.534
 156157827.265 7 121681475.252 6                  29715834.662    29715829.722
 142759041.996 9 111240867.090 8                  27166104.080    27166106.680
 148305078.508 8 115562454.216 6                  28221483.872    28221483.852
 159237940.831 6 124081535.909 5                  30301965.078    30301959.118
 154110625.570 7 120086264.447 6                  29326257.706    29326253.806
 168027067.063 6 130930209.720 2                  31974457.988    31974456.748
 158476563.088 7 123488287.126 5                  30157066.460    30157062.040
 151698348.529 8 118206538.812 5                  28867206.088    28867204.788
 160469392.396 8 124809547.837 6                  29977021.524    29977018.224
 152536071.203 7                                                  28565081.372
 141337018.758 8 109928874.190 7                  26477144.024    26477146.224
 147756660.053 9                                                  27621528.276
 155667421.990 8 121074690.412 6                  29131007.328    29131008.548
 143365730.279 9 111506762.382 8                  26838320.364    26838321.364
 157827892.913 8 122755062.838 6                  29493876.224    29493875.744
 24 11 23  1 36 30.0000000  0 17G17G22G06G19G14G24G30G02G15G13R03R13
                                R22R23R11R12R21
 144322010.557 9 112458785.695 9                  27463525.678    27463526.678
 147864781.812 8 115219369.837 6                  28137691.954    28137693.454
 156081364.458 7 121621894.031 6                  29701284.782    29701279.702
 142752391.267 9 111235684.772 7                  27164838.260    27164841.180
 148364330.205 8 115608624.404 6                  28232759.212    28232759.152
 159163869.540 6 124023818.268 5                  30287869.718    30287864.258
 154221423.623 8 120172600.566 6                  29347342.106    29347338.606
 168130767.829 6 131011015.532 3                  31994190.648    31994190.708
 158540961.078 6 123538467.362 5                  30169320.100    30169316.400
 151789448.626 8 118277525.896 5                  28884542.308    28884540.368
 160520237.366 8 124849093.929 6                  29986519.940    29986515.980
 152478892.944 7                                                  28554373.592
 141361529.154 9 109947937.895 8                  26481735.864    26481738.124
 147673025.624 9                                                  27605893.956
 155753342.131 8 121141517.179 6                  29147086.248    29147086.988
 143368325.704 9 111508781.112 8                  26838806.144    26838807.004
 157960265.315 8 122858019.143 6                  29518613.364    29518613.084
 24 11 23  1 37  0.0000000  0 17G17G22G06G19G14G24G30G02G15G13R03R13
                                R22R23R11R12R21
 144365107.675 9 112492367.914 9                  27471726.718    27471727.738
 147879525.284 9 115230858.312 6                  28140497.634    28140498.874
 155981283.910 7 121543909.375 6                  29682239.582    29682234.662
 142722389.815 9 111212307.084 7                  27159129.320    27159131.880
 148399932.718 8 115636366.659 6                  28239534.232    28239534.032
 159066223.574 6 123947730.754 5                  30269288.040    30269283.200
 154308723.510 7 120240626.439 6                  29363954.446    29363950.906
 168210962.092 6 131073504.599 2                  32009451.928    32009450.908
 158581974.000 6 123570425.452 5                  30177125.380    30177120.740
 151857110.744 8 118330249.605 5                  28897417.888    28897416.448
 160547463.475 8 124870269.804 6                  29991606.260    29991603.000
 152397548.735 7                                                  28539140.112
 141362673.427 9 109948827.942 8                  26481950.064    26481952.404
 147565657.369 9                                                  27585822.776
 155815319.422 8 121189721.726 6                  29158684.748    29158685.848
 143346986.464 9 111492183.990 8                  26834811.004    26834812.424
 158068777.188 8 122942417.270 6                  29538891.104    29538890.904
 24 11 23  1 37 30.0000000  0 17G17G22G06G19G14G24G30G02G15G13R03R13
                                R22R23R11R12R21
 144364726.783 9 112492071.168 9                  27471654.138    27471655.118
 147850547.177 8 115208278.022 6                  28134983.334    28134984.734
 155837568.409 7 121431923.445 6                  29654891.424    29654886.704
 142649017.252 9 111155133.720 8                  27145166.740    27145169.600
 148391865.868 8 115630080.837 6                  28237999.032    28237999.052
 158924985.073 6 123837675.030 5                  30242411.060    30242405.880
 154352503.231 7 120274740.483 6                  29372285.646    29372282.526
 168247627.360 6 131102074.971 2                  32016428.448    32016428.168
 158579579.172 7 123568559.313 5                  30176669.920    30176665.400
 151881311.433 8 118349107.268 5                  28902023.068    28902021.748
 160530674.078 7 124857211.409 6                  29988469.520    29988464.520
 152271696.116 8                                                  28515571.992
 141320114.317 9 109915726.457 8                  26473977.064    26473979.484
 147414179.874 9                                                  27557505.420
 155832995.730 8 121203469.957 6                  29161993.108    29161993.228
 143281363.462 9 111441143.940 8                  26822526.284    26822527.404
 158133037.937 8 122992397.863 6                  29550900.044    29550899.584
 24 11 23  1 38  0.0000000  0 17G17G22G06G19G14G24G30G02G15G13R03R13
                                R22R23R11R12R21
 144443086.293 9 112553130.578 9                  27486565.498    27486566.458
 147900068.140 9 115246865.843 6                  28144406.674    28144408.274
 155772442.184 7 121381175.907 6                  29642498.404    29642494.144
 142654494.168 9 111159401.502 8                  27146209.040    27146211.440
 148462350.563 8 115685004.013 6                  28251411.732    28251411.352
 158862377.639 6 123788890.278 5                  30230497.240    30230492.320
 154474981.536 7 120370178.095 6                  29395592.544    29395588.984
 168362981.690 6 131191961.488 2                  32038379.708    32038379.468
 158655994.682 7 123628103.834 5                  30191210.620    30191207.580
 151984268.419 8 118429333.480 5                  28921615.168    28921613.608
 160594367.544 8 124906750.752 6                  30000367.740    30000365.260
 152225532.069 7                                                  28506926.852
 141358003.362 9 109945195.781 8                  26481074.944    26481077.324
 147343010.829 9                                                  27544201.280
 155930654.554 8 121279426.808 6                  29180268.288    29180269.428
 143295697.765 9 111452292.912 8                  26825209.784    26825211.044
 158277500.639 8 123104757.737 6                  29577896.484    29577895.844
 24 11 23  1 38 30.0000000  0 17G17G22G06G19G14G24G30G02G15G13R03R13
                                R22R23R11R12R21
 144451886.504 9 112559987.936 9                  27488240.058    27488241.138
 147879790.104 9 115231064.829 6                  28140547.814    28140549.354
 155637609.950 7 121276112.005 6                  29616840.044    29616835.324
 142590522.257 9 111109553.313 8                  27134035.500    27134037.900
 148463088.959 9 115685579.421 6                  28251552.232    28251552.132
 158730105.302 6 123685821.205 5                  30205326.340    30205320.340
 154527858.778 7 120411381.114 6                  29405654.544    29405651.204
 168408724.795 6 131227605.490 2                  32047083.968    32047084.048
 158662919.925 7 123633500.078 5                  30192528.560    30192525.240
 152017680.738 8 118455369.046 4                  28927972.888    28927972.108
 160587476.826 7 124901391.309 6                  29999081.260    29999075.200
 152108363.744 7                                                  28484984.732
 141325698.614 9 109920069.928 8                  26475023.244    26475025.304
 147201194.695 9                                                  27517690.040
 155957495.909 8 121300303.407 6                  29185291.088    29185292.428
 143239244.038 9 111408384.523 8                  26814641.564    26814642.184
 158351149.131 8 123162039.887 6                  29591659.044    29591658.384
 24 11 23  1 39  0.0000000  0 17G17G22G06G19G14G24G30G02G15G13R03R13
                                R22R23R11R12R21
 144524436.707 9 112616520.613 9                  27502045.858    27502046.898
 147923024.807 9 115264754.257 6                  28148775.174    28148776.514
 155566387.201 7 121220613.912 6                  29603286.704    29603282.484
 142590413.257 9 111109468.429 8                  27134014.740    27134017.600
 148527393.178 8 115735686.643 6                  28263789.012    28263789.052
 158661482.907 6 123632349.481 5                  30192267.580    30192263.080
 154644444.958 7 120502227.482 6                  29427840.104    29427836.804
 168518166.227 6 131312884.561 2                  32067909.708    32067910.248
 158733663.951 7 123688625.262 5                  30205990.380    30205986.800
 152114857.361 8 118531091.078 4                  28946465.468    28946464.148
 160645798.565 8 124946752.644 6                  30009975.100    30009972.580
 152055658.661 7                                                  28475113.812
 141358617.838 9 109945673.839 8                  26481190.044    26481192.584
 147124440.080 9                                                  27503341.440
 156049081.200 8 121371536.415 6                  29202429.688    29202431.708
 143247517.648 9 111414819.616 8                  26816190.104    26816191.404
 158489730.608 8 123269825.482 6                  29617556.344    29617555.184
 24 11 23  1 39 30.0000000  0 17G17G22G06G19G14G24G30G02G15G13R03R13
                                R22R23R11R12R21
 144523859.197 9 112616070.652 9                  27501935.798    27501936.958
 147892896.654 9 115241277.829 6                  28143041.914    28143043.114
 155421900.879 7 121108027.337 6                  29575791.964    29575786.704
 142517290.873 9 111052489.995 8                  27120099.940    27120102.860
 148518387.592 8 115728669.345 6                  28262075.172    28262075.032
 158519636.793 6 123521820.318 5                  30165275.020    30165269.180
 154687862.655 7 120536059.421 6                  29436102.104    29436098.804
 168554427.860 6 131341140.412 2                  32074810.248    32074810.868
 158731348.425 6 123686820.917 5                  30205549.540    30205546.620
 152138919.546 8 118549840.818 4                  28951043.888    28951042.768
 160629900.324 8 124934387.366 6                  30007006.460    30007002.260
 151928330.954 7 118166376.992 3                  28451270.932    28451270.352
 141317721.731 9 109913865.814 8                  26473528.644    26473530.964
 146973418.248 9 114312576.387 3                  27475109.960    27475109.400
 156066225.727 8 121384871.041 6                  29205638.768    29205639.448
 143181384.056 9 111363382.439 8                  26803810.084    26803810.944
 158553860.307 8 123319704.128 6                  29629540.564    29629540.104
 24 11 23  1 40  0.0000000  0 17G17G22G06G19G14G24G30G02G15G13R03R13
                                R22R23R11R12R21
 144607018.023 9 112680869.783 9                  27517760.358    27517761.618
 147946272.414 9 115282869.386 6                  28153198.934    28153200.154
 155361021.450 7 121060588.986 6                  29564206.424    29564201.784
 142528021.979 9 111060851.949 8                  27122141.960    27122144.740
 148592939.193 8 115786761.546 6                  28276261.632    28276261.792
 158461436.739 6 123476469.899 5                  30154199.680    30154193.960
 154814976.650 8 120635109.287 6                  29460291.264    29460287.844
 168674373.914 6 131434604.888 2                  32097635.666    32097635.826
 158812837.348 7 123750318.749 5                  30221056.960    30221053.580
 152246730.564 8 118633849.390 4                  28971560.168    28971558.788
 160699573.178 8 124988577.345 5                  30020022.380    30020017.580
 151885783.552 7                                                  28443302.472
 141362355.027 9 109948580.671 8                  26481890.084    26481892.344
 146907815.362 9                                                  27462845.660
 156168443.067 8 121464373.418 6                  29224767.108    29224767.688
 143200302.856 9 111378097.132 8                  26807351.644    26807352.584
 158703271.410 8 123435912.758 6                  29657462.024    29657460.844
