     2.11           OBSERVATION DATA    GPS(GPS)            RINEX VERSION / TYPE
cnvtToRINEX 3.14.0  convertToRINEX OPR  20241124 004231 UTC PGM / RUN BY / DATE 
----------------------------------------------------------- COMMENT             
ZLAB                                                        MARKER NAME         
ZLAB                                                        MARKER NUMBER       
GNSS Observer       Trimble                                 OBSERVER / AGENCY   
4611206603          TRIMBLE NETRS       1.32                REC # / TYPE / VERS 
12421073            TRM41249.00                             ANT # / TYPE        
 -2455551.4716 -4767160.7018  3441689.9000                  APPROX POSITION XYZ 
        0.5990        0.0000        0.0000                  ANTENNA: DELTA H/E/N
     1     1     0                                          WAVELENGTH FACT L1/2
     4    C1    L1    L2    P2                              # / TYPES OF OBSERV 
  2024    11    23     0     0    0.0000000     GPS         TIME OF FIRST OBS   
  2024    11    23    23    59   30.0000000     GPS         TIME OF LAST OBS    
     0                                                      RCV CLOCK OFFS APPL 
    18                                                      LEAP SECONDS        
    31                                                      # OF SATELLITES     
   G02   752   734   606   606                              PRN / # OF OBS      
   G03   680   661   675   675                              PRN / # OF OBS      
   G04   807   794   739   739                              PRN / # OF OBS      
   G05   632   617   620   620                              PRN / # OF OBS      
   G06   602   581   591   591                              PRN / # OF OBS      
   G07   907   900   891   891                              PRN / # OF OBS      
   G08   823   804   804   804                              PRN / # OF OBS      
   G09   796   787   792   792                              PRN / # OF OBS      
   G10   871   863   863   863                              PRN / # OF OBS      
   G11   682   679   656   656                              PRN / # OF OBS      
   G12   754   750   745   745                              PRN / # OF OBS      
   G13   726   708   550   550                              PRN / # OF OBS      
   G14   802   790   737   737                              PRN / # OF OBS      
   G15   846   820   810   810                              PRN / # OF OBS      
   G16   729   695   569   569                              PRN / # OF OBS      
   G17   708   704   694   694                              PRN / # OF OBS      
   G18   865   854   834   834                              PRN / # OF OBS      
   G19   728   724   707   707                              PRN / # OF OBS      
   G20   667   654   579   579                              PRN / # OF OBS      
   G21   593   588   563   563                              PRN / # OF OBS      
   G22   897   891   838   838                              PRN / # OF OBS      
   G23   798   793   751   751                              PRN / # OF OBS      
   G24   604   591   602   602                              PRN / # OF OBS      
   G25   625   612   613   613                              PRN / # OF OBS      
   G26   816   791   804   804                              PRN / # OF OBS      
   G27   738   704   728   728                              PRN / # OF OBS      
   G28   599   585   555   555                              PRN / # OF OBS      
   G29   785   775   769   769                              PRN / # OF OBS      
   G30   842   822   817   817                              PRN / # OF OBS      
   G31   643   638   642   642                              PRN / # OF OBS      
   G32   715   708   709   709                              PRN / # OF OBS      
CARRIER PHASE MEASUREMENTS: PHASE SHIFTS REMOVED            COMMENT             
                                                            END OF HEADER       
 24 11 23  0  0  0.0000000  0  8G02G07G13G14G17G19G22G30            
  23600108.96911  -2045391.37711                
  22131743.773 6 -13741847.472 6 -11641149.99648  22131740.09848
  21277599.586 6  -9846613.905 6  -6287915.57147  21277594.79747
  20557897.789 7 -23806056.073 7 -16338135.10748  20557892.29348
  20588037.555 6 -22838710.794 6 -16638078.93049  20588031.76649
  22820345.531 6 -14461486.590 6 -10162266.57147  22820340.09447
  21124322.039 6 -17573714.170 6 -12610826.76448  21124316.25048
  20563136.586 7 -16098124.024 7 -17813742.80049  20563132.61749
 24 11 23  0  0 30.0000000  0  8G02G07G13G14G17G19G22G30            
  23599303.95311  -2049626.24411                
  22142703.414 6 -13684252.389 6 -11596270.75148  22142699.15248
  21270956.953 6  -9881523.968 6  -6315118.16047  21270951.28147
  20558999.133 7 -23800267.136 7 -16333624.25248  20558994.34448
  20578733.844 6 -22887601.039 6 -16676175.14549  20578728.23049
  22801349.516 6 -14561312.541 6 -10240052.81347  22801344.37547
  21122059.203 7 -17585607.554 7 -12620094.30448  21122052.53548
  20565767.859 7 -16084294.574 7 -17802966.58749  20565764.65249
 24 11 23  0  1  0.0000000  0  8G02G07G13G14G17G19G22G30            
  23598590.88311  -2053372.82511                
  22153726.852 6 -13626323.807 6 -11551131.64248  22153721.71148
  21264422.023 6  -9915859.701 6  -6341873.23047  21264417.52747
  20560140.250 7 -23794271.976 7 -16328952.67848  20560134.46148
  20569527.281 6 -22935977.766 6 -16713871.22249  20569522.78549
  22782392.258 6 -14660927.562 6 -10317674.70447  22782387.70347
  21119838.297 7 -17597273.715 7 -12629184.80148  21119832.50848
  20568473.891 7 -16070076.221 7 -17791887.34049  20568470.21549
 24 11 23  0  1 30.0000000  0  8G02G07G13G14G17G19G22G30            
  23597970.953 3  -2056629.146 3   -738614.37556  23597963.17256
  22164814.273 6 -13568060.210 6 -11505731.48448  22164808.77748
  21257998.086 6  -9949618.888 6  -6368179.04248  21257993.53148
  20561320.461 7 -23788069.826 7 -16324119.82048  20561314.90648
  20560419.844 6 -22983838.554 6 -16751165.29049  20560414.87949
  22763477.133 6 -14760328.003 6 -10395129.40747  22763472.63747
  21117661.148 6 -17608712.963 6 -12638098.47348  21117655.88748
  20571253.945 7 -16055466.600 7 -17780503.21249  20571250.68049
 24 11 23  0  2  0.0000000  0  8G02G07G13G14G17G19G22G30            
  23597443.953 2  -2059395.282 2   -740769.62845  23597439.69145
  22175965.164 6 -13509462.893 6 -11460071.29848  22175960.19948
  21251683.391 6  -9982800.681 6  -6394034.94848  21251679.30548
  20562539.555 7 -23781662.376 7 -16319126.98948  20562534.17648
  20551410.969 7 -23031183.324 7 -16788057.25749  20551404.94549
  22744602.711 6 -14859512.495 6 -10472415.84447  22744598.15647
  21115527.453 6 -17619926.790 6 -12646836.50048  21115522.01648
  20574108.695 7 -16040465.769 7 -17768814.24449  20574104.72749
 24 11 23  0  2 30.0000000  0  8G02G07G13G14G17G19G22G30            
  23597011.266 1  -2061670.163 1   -742542.15545  23597008.05945
  22187180.328 6 -13450531.777 6 -11414150.97248  22187175.18848
  21245479.180 6 -10015403.998 6  -6419440.09748  21245474.68448
  20563797.922 6 -23775050.398 6 -16313974.77248  20563792.54348
  20542500.195 6 -23078011.016 6 -16824546.29149  20542494.11349
  22725769.438 6 -14958479.057 6 -10549532.45747  22725764.59047
  21113436.375 6 -17630916.187 6 -12655399.64548  21113430.23448
  20577038.188 7 -16025072.937 7 -17756819.82849  20577034.27749
 24 11 23  0  3  0.0000000  0  8G02G07G13G14G17G19G22G30            
  23596671.656 1  -2063454.759 1   -743932.69945  23596668.62545
  22198457.063 6 -13391268.436 6 -11367971.77648  22198452.97748
  21239385.156 6 -10047428.890 6  -6444394.51748  21239380.48448
  20565094.680 7 -23768236.112 7 -16308664.91148  20565089.53948
  20533687.586 7 -23124322.286 7 -16860632.92549  20533681.15249
  22706978.063 6 -15057226.725 6 -10626478.52947  22706973.50847
  21111387.445 7 -17641684.317 7 -12663790.37748  21111380.89548
  20580041.258 7 -16009288.785 7 -17744520.48449  20580037.99249
 24 11 23  0  3 30.0000000  0  8G02G07G13G14G17G19G22G30            
  23596425.80511                  -1972532.86655  23596424.70755
  22209799.109 6 -13331663.954 6 -11321526.71848  22209796.13748
  21233403.133 6 -10078865.182 6  -6468890.27948  21233397.93048
  20566431.063 6 -23761211.100 6 -16303190.84848  20566426.33248
  20524974.477 6 -23170106.897 6 -16896309.17349  20524968.57049
  22688230.938 6 -15155744.256 6 -10703245.24247  22688225.91447
  21109381.797 6 -17652222.332 6 -12672001.77448  21109376.06648
  20583121.461 7 -15993103.236 7 -17731908.36749  20583117.66849
 24 11 23  0  4  0.0000000  0  8G02G07G13G14G17G19G22G30            
  23596271.523 3  -3640968.873 3  -1973164.24245  23596270.83645
  22221201.570 6 -13271746.184 6 -11274837.58848  22221197.71948
  21227527.703 6 -10109739.685 6  -6492948.27748  21227522.56348
  20567802.820 6 -23754003.939 6 -16297574.84248  20567797.55948
  20516356.563 6 -23215391.755 6 -16931596.01749  20516350.94949
  22669523.172 6 -15254057.139 6 -10779852.50847  22669517.79347
  21107414.727 6 -17662559.182 6 -12680056.43948  21107408.93848
  20586272.664 7 -15976543.406 7 -17719004.61249  20586269.22349
 24 11 23  0  4 30.0000000  0  9G02G07G13G14G15G17G19G22G30         
  23596213.977 3  -3641276.638 3  -1973404.00445  23596211.82445
  22232668.938 6 -13211487.522 6 -11227882.81648  22232664.38348
  21221765.219 7 -10140023.086 7  -6516545.69347  21221760.13747
  20569214.500 7 -23746587.210 7 -16291795.54148  20569208.59448
  23493466.73411   -531054.00711                
  20507839.992 6 -23260147.225 6 -16966470.32949  20507834.02749
  22650859.570 6 -15352135.282 6 -10856276.87047  22650854.30947
  21105491.016 6 -17672667.866 6 -12687933.31748  21105485.28548
  20589501.313 7 -15959580.328 7 -17705786.64049  20589496.52349
 24 11 23  0  5  0.0000000  0  9G02G07G13G14G15G17G19G22G30         
  23596248.344 3  -3641087.553 3  -1973256.57745  23596247.65645
  22244199.570 6 -13150893.923 6 -11180667.07448  22244195.01648
  21216113.266 6 -10169720.402 6  -6539686.40447  21216109.53147
  20570663.820 6 -23738967.896 6 -16285858.37548  20570658.91448
  23482875.992 1   -586695.308 1                
  20499422.906 6 -23304378.982 6 -17000936.55749  20499417.76649
  22632238.031 6 -15449982.762 6 -10932521.47647  22632234.76647
  21103609.000 6 -17682555.826 6 -12695638.17348  21103604.15248
  20592804.570 7 -15942219.490 7 -17692258.71149  20592800.36749
 24 11 23  0  5 30.0000000  0  9G02G07G13G14G15G17G19G22G30         
  23596380.961 4  -3640402.188 4  -1972722.39545  23596377.52045
  22255792.797 6 -13089967.243 6 -11133191.76848  22255789.23848
  21210573.906 6 -10198832.079 6  -6562370.78247  21210569.35247
  20572151.859 6 -23731148.125 6 -16279765.00948  20572146.48048
  23472385.742 1   -641817.071 1                
  20491105.406 6 -23348087.709 6 -17034995.24249  20491100.02749
  22613663.469 6 -15547598.785 6 -11008585.75747  22613659.03147
  21101768.984 6 -17692225.433 6 -12703172.90848  21101763.66448
  20596183.875 7 -15924461.512 7 -17678421.32349  20596179.73049
 24 11 23  0  6  0.0000000  0  9G02G07G13G14G15G17G19G22G30         
  23596604.719 2  -3639221.604 2  -1971802.39144  23596602.44944
  22267449.148 5 -13028709.231 5 -11085458.27348  22267446.00048
  21205145.297 6 -10227358.882 6  -6584599.40547  21205140.62547
  20573677.734 6 -23723130.292 6 -16273517.32848  20573672.18048
  23461996.352 1   -696419.475 1                
  20482887.063 6 -23391274.076 6 -17068646.88249  20482881.80149
  22595131.266 6 -15644982.340 6 -11084468.90347  22595127.64847
  21099970.578 6 -17701679.545 6 -12710539.71448  21099964.96548
  20599638.070 7 -15906307.300 7 -17664275.19549  20599634.57049
 24 11 23  0  6 30.0000000  0  9G02G07G13G14G15G17G19G22G30         
  23596925.180 1  -3637543.790 1                
  22279169.914 6 -12967119.145 6 -11037466.03248  22279166.23848
  21199828.289 6 -10255298.201 6  -6606370.27547  21199823.73447
  20575241.688 7 -23714913.975 7 -16267114.96448  20575235.89848
  23451703.164 1   -750499.771 1                
  20474768.703 6 -23433936.093 6 -17101889.94149  20474763.56349
  22576643.984 5 -15742130.504 5 -11160168.62047  22576640.83647
  21098212.547 6 -17710917.668 6 -12717738.20148  21098207.10948
  20603168.695 7 -15887754.917 7 -17649818.80249  20603164.49249
 24 11 23  0  7  0.0000000  0  9G02G07G13G14G15G17G19G22G30         
  23597339.94511                                
  22290955.359 6 -12905190.323 6 -10989209.83048  22290950.80548
  21194625.961 6 -10282642.772 6  -6627677.68447  21194620.17247
  20576843.766 6 -23706493.265 6 -16260553.35348  20576838.15248
  23441514.000 1   -804049.697 1   -258471.77955  23441515.65655
  20466751.953 6 -23476066.354 6 -17134718.66049  20466746.22349
  22558204.695 6 -15839034.334 6 -11235677.95447  22558200.37547
  21096496.570 6 -17719934.458 6 -12724764.23848  21096491.43048
  20606776.078 7 -15868797.063 7 -17635046.45649  20606772.16849
 24 11 23  0  7 30.0000000  0  9G02G07G13G14G15G17G19G22G30         
  23597844.50011  -3632700.85211                
  22302798.703 6 -12842950.294 6 -10940711.14448  22302794.85248
  21189530.359 7 -10309418.758 7  -6648542.06648  21189524.92248
  20578479.320 7 -23697896.019 7 -16253854.19148  20578473.76648
  23431419.19511                   -299805.47555  23431421.37955
  20458831.000 7 -23517690.925 7 -17167153.32949  20458825.32849
  22539805.586 6 -15935718.930 6 -11311016.45947  22539802.37947
  21094818.156 6 -17728758.079 6 -12731639.73548  21094811.84048
  20610455.797 7 -15849460.146 7 -17619978.73149  20610451.77049
 24 11 23  0  8  0.0000000  0  9G02G07G13G14G15G17G19G22G30         
  23598449.73412  -3629522.85012                
  22314709.539 6 -12780360.218 6 -10891939.74348  22314705.39548
  21184550.203 6 -10335585.956 6  -6668932.05048  21184546.41048
  20580156.320 7 -23689083.895 7 -16246987.57748  20580150.76648
  23421431.422 2   -909594.537 2   -340714.26545  23421430.32445
  20451014.156 7 -23558770.348 7 -17199163.21349  20451007.89849
  22521456.844 5 -16032142.999 5 -11386151.95747  22521451.70347
  21093182.633 6 -17737350.408 6 -12738335.00348  21093176.72748
  20614214.953 7 -15829704.422 7 -17604584.63949  20614211.57049
 24 11 23  0  8 30.0000000  0  9G02G07G13G14G15G17G19G22G30         
  23599149.836 4  -3625852.895 4                
  22326681.430 6 -12717446.865 6 -10842916.39648  22326677.40248
  21179681.852 7 -10361169.849 7  -6688867.51548  21179677.59048
  20581868.586 6 -23680083.953 6 -16239974.62648  20581863.79748
  23411540.961 2   -961573.304 2   -381217.05946  23411538.45746
  20443295.063 7 -23599330.036 7 -17230768.10549  20443289.80149
  22503152.742 6 -16128331.058 6 -11461103.52147  22503146.48447
  21091585.805 6 -17745739.029 6 -12744871.55148  21091580.30948
  20618048.750 7 -15809555.506 7 -17588884.19949  20618046.07049
 24 11 23  0  9  0.0000000  0  9G02G07G13G14G15G17G19G22G30         
  23599942.805 4  -3621684.119 4                
  22338715.945 6 -12654204.151 6 -10793636.39148  22338712.62148
  21174925.836 6 -10386163.179 6  -6708342.81048  21174921.75048
  20583618.563 6 -23670890.593 6 -16232810.94948  20583613.65648
  23401751.109 3  -1013024.134 3   -421308.46846  23401747.66846
  20435677.594 7 -23639362.985 7 -17261962.54149  20435671.62949
  22484895.109 5 -16224274.348 5 -11535864.33647  22484888.32447
  21090029.227 6 -17753918.703 6 -12751245.27648  21090023.55548
  20621959.719 7 -15789006.358 7 -17572871.89049  20621956.57049
 24 11 23  0  9 30.0000000  0  9G02G07G13G14G15G17G19G22G30         
  23600831.227 4  -3617013.918 4                
  22350813.250 5 -12590630.121 5 -10744098.23048  22350810.33648
  21170282.992 6 -10410562.955 6  -6727355.58648  21170278.32048
  20585405.242 6 -23661502.326 6 -16225495.40648  20585399.74648
  23392058.055 1  -1063943.023 1   -460985.43645  23392057.83645
  20428160.000 6 -23678866.353 6 -17292744.31849  20428154.79749
  22466685.164 6 -16319968.403 6 -11610430.93647  22466678.67247
  21088513.797 7 -17761888.026 7 -12757455.07248  21088507.12948
  20625946.398 7 -15768054.262 7 -17556545.58549  20625943.77749
 24 11 23  0 10  0.0000000  0  8G02G07G13G14G17G19G22G30            
  23601814.492 2  -3611841.979 2                
  22362974.719 6 -12526725.619 6 -10694302.55248  22362970.75048
  21165753.328 6 -10434368.728 6  -6745905.51848  21165748.00848
  20587228.063 6 -23651920.282 6 -16218028.86148  20587223.21548
  20420743.461 6 -23717839.651 6 -17323113.07549  20420738.14149
  22448522.750 5 -16415411.654 5 -11684802.13447  22448516.66847
  21087036.250 7 -17769648.528 7 -12763502.14848  21087029.99248
  20630010.969 7 -15746698.885 7 -17539905.02949  20630007.35249
 24 11 23  0 10 30.0000000  0  9G02G07G13G14G15G17G19G22G30         
  23602894.172 1  -3606165.812 1                
  22375198.180 6 -12462488.790 6 -10644247.92148  22375194.44548
  21161335.992 7 -10457577.488 7  -6763990.22848  21161331.02748
  20589088.445 6 -23642142.970 6 -16210410.17648  20589083.65648
  23372986.06313  -1164176.89713   -511522.32456  23372983.85256
  20413428.750 7 -23756280.143 7 -17353066.64149  20413422.78549
  22430409.234 6 -16510599.828 6 -11758974.55047  22430404.09447
  21085599.445 6 -17777198.896 6 -12769385.52548  21085593.42248
  20634152.102 7 -15724937.428 7 -17522948.04849  20634148.30949
 24 11 23  0 11  0.0000000  0  9G02G07G13G14G15G17G19G22G30         
  23604068.945 1  -3599989.383 1                
  22387484.797 6 -12397924.257 6 -10593937.96148  22387480.30148
  21157032.797 6 -10480193.138 6  -6781612.77248  21157027.59448
  20590985.578 6 -23632175.692 6 -16202643.45548  20590980.55548
  23363601.875 2  -1213492.718 2   -549950.03446  23363599.13746
  20406214.406 7 -23794192.084 7 -17382608.34749  20406208.73449
  22412343.992 6 -16605535.313 6 -11832950.08947  22412338.96947
  21084202.242 7 -17784545.149 7 -12775109.83048  21084195.69148
  20638369.547 7 -15702773.903 7 -17505677.78549  20638364.99249
 24 11 23  0 11 30.0000000  0  9G02G07G13G14G15G17G19G22G30         
  23605341.83611  -3593307.57211                
  22399834.008 6 -12333028.331 6 -10543369.76048  22399830.03948
  21152842.984 7 -10502209.977 7  -6798768.72048  21152837.96148
  20592919.336 6 -23622014.610 6 -16194725.71748  20592914.01648
  23354319.156 1  -1262268.888 1   -587957.36145  23354317.35545
  20399101.656 7 -23831569.893 7 -17411733.84249  20399095.45749
  22394327.328 6 -16700211.640 6 -11906723.68447  22394321.89147
  21082843.258 7 -17791683.711 7 -12780672.31148  21082837.23448
  20642664.211 7 -15680203.064 7 -17488090.12049  20642661.23849
 24 11 23  0 12  0.0000000  0  9G02G07G13G14G15G17G19G22G30         
  23606710.20311                                
  22412246.195 5 -12267798.876 5 -10492541.66848  22412242.28548
  21148767.859 7 -10523625.714 7  -6815456.26748  21148762.77748
  20594889.969 6 -23611658.214 6 -16186655.78248  20594884.82848
  23345141.031 1  -1310502.209 1   -625541.72446  23345138.58646
  20392090.242 6 -23868410.775 6 -17440440.96749  20392084.39549
  22376361.977 6 -16794624.617 6 -11980292.04147  22376354.60547
  21081523.602 6 -17798613.381 6 -12786072.02748  21081518.34048
  20647037.867 7 -15657222.176 7 -17470182.95149  20647034.19149
 24 11 23  0 12 30.0000000  0  9G02G07G13G14G15G17G19G22G30         
  23608171.016 1  -3578436.929 1                
  22424720.359 6 -12202252.913 6 -10441466.88948  22424715.15648
  21144803.656 7 -10544455.845 7  -6831687.49848  21144799.21948
  20596894.461 6 -23601123.747 6 -16178447.09248  20596889.08248
  23336060.961 2  -1358207.827 2   -662714.88946  23336060.03946
  20385179.430 7 -23904731.138 7 -17468742.49249  20385173.46549
  22358442.836 6 -16888788.434 6 -12053666.25847  22358435.81647
  21080241.648 6 -17805351.739 6 -12791322.66148  21080235.39148
  20651486.000 7 -15633847.210 7 -17451968.69349  20651482.09049
 24 11 23  0 13  0.0000000  0  9G02G07G13G14G15G17G19G22G30         
  23609730.156 1  -3570244.750 1                
  22437256.344 6 -12136372.076 6 -10390131.19548  22437252.19948
  21140955.305 7 -10564680.684 7  -6847447.07948  21140949.92648
  20598936.672 6 -23590393.139 6 -16170085.54948  20598931.00048
  23327089.086 3  -1405365.595 3   -699461.10346  23327085.76246
  20378370.117 7 -23940511.388 7 -17496623.15249  20378364.56349
  22340574.289 6 -16982682.196 6 -12126830.04347  22340568.09047
  21078999.000 6 -17811880.967 6 -12796410.32148  21078993.03548
  20656012.617 7 -15610058.835 7 -17433432.29049  20656008.70749
 24 11 23  0 13 30.0000000  0  9G02G07G13G14G15G17G19G22G30         
  23611385.89811                                
  22449857.289 6 -12070156.156 6 -10338534.41848  22449853.61348
  21137221.656 7 -10584299.285 7  -6862734.26648  21137216.63348
  20601015.688 7 -23579466.399 7 -16161571.19048  20601010.95748
  23318218.953 3  -1451973.565 3   -735778.86946  23318217.27046
  20371664.750 7 -23975750.393 7 -17524082.06249  20371659.07849
  22322756.797 5 -17076303.485 5 -12199781.50447  22322752.71147
  21077796.484 6 -17818201.433 6 -12801335.32848  21077790.40248
  20660618.680 7 -15585855.787 7 -17414572.77349  20660614.35949
 24 11 23  0 14  0.0000000  0  9G02G07G13G14G15G17G19G22G30         
  23613136.26611                                
  22462518.367 6 -12003620.130 6 -10286688.21348  22462515.10248
  21133601.273 7 -10603325.516 7  -6877559.85748  21133596.01248
  20603129.406 6 -23568358.790 6 -16152915.89748  20603124.55948
  23309453.430 3  -1498045.118 3   -771678.69846  23309449.87146
  20365058.820 6 -24010462.148 6 -17551130.12649  20365053.91449
  22304991.531 5 -17169664.696 5 -12272530.33447  22304986.80147
  21076630.680 6 -17824328.848 6 -12806109.91148  21076624.83248
  20665300.273 7 -15561252.146 7 -17395401.09749  20665295.77749
 24 11 23  0 14 30.0000000  0  8G07G13G14G15G17G19G22G30            
  22475242.789 6 -11936755.905 6 -10234586.24548  22475238.87948
  21130094.789 7 -10621749.933 7  -6891916.51848  21130090.17648
  20605278.953 6 -23557062.384 6 -16144113.48748  20605273.81348
  23300786.938 1  -1543570.273 1   -807152.78446  23300786.71946
  20358555.680 6 -24044637.676 6 -17577760.36949  20358550.30149
  22287277.500 6 -17262755.215 6 -12345068.21647  22287272.53547
  21075502.750 6 -17830255.786 6 -12810728.26548  21075496.43448
  20670060.125 7 -15536238.773 7 -17375910.15449  20670056.56649
 24 11 23  0 15  0.0000000  0  8G07G13G14G15G17G19G22G30            
  22488028.711 6 -11869565.288 6 -10182229.95448  22488024.33248
  21126703.367 7 -10639573.636 7  -6905805.07948  21126698.22748
  20607463.984 6 -23545579.219 6 -16135165.53848  20607458.60548
  23292228.438 3  -1588549.477 3   -842201.40846  23292226.75446
  20352153.617 6 -24078278.035 6 -17603973.57849  20352148.71149
  22269614.570 6 -17355574.229 6 -12417394.53847  22269609.19147
  21074412.203 6 -17835984.707 6 -12815192.32448  21074406.64848
  20674897.742 7 -15510816.471 7 -17356100.56949  20674894.12549
 24 11 23  0 15 30.0000000  0  8G07G13G14G15G17G19G22G30            
  22500876.375 6 -11802047.916 6 -10129619.07348  22500871.52748
  21123426.281 7 -10656795.103 7  -6919224.36648  21123420.66848
  20609684.555 6 -23533909.181 6 -16126071.97548  20609678.94148
  23283774.305 4  -1632980.603 4   -876822.94046  23283771.44946
  20345854.695 6 -24111381.624 6 -17629768.52949  20345848.61349
  22252003.844 6 -17448119.296 6 -12489507.40947  22251997.41047
  21073360.133 6 -17841515.469 6 -12819501.97548  21073354.10948
  20679813.242 7 -15484984.057 7 -17335971.40449  20679809.39149
 24 11 23  0 16  0.0000000  0  9G02G07G13G14G15G17G19G22G30         
  23621103.04711    507257.14011                
  22513785.477 6 -11734210.476 6 -10076758.80848  22513780.09848
  21120263.023 7 -10673420.012 7  -6932178.82848  21120257.00048
  20611939.773 6 -23522059.049 6 -16116838.07548  20611934.57048
  23275422.000 2  -1676868.634 2   -911021.25846  23275420.08246
  20339655.586 6 -24143954.236 6 -17655149.72549  20339650.14849
  22234443.609 6 -17540394.253 6 -12561409.80447  22234438.17247
  21072343.984 6 -17846855.474 6 -12823662.96248  21072338.19548
  20684805.945 7 -15458746.999 7 -17315526.93949  20684803.09049
 24 11 23  0 16 30.0000000  0  9G02G07G13G14G15G17G19G22G30         
  23623336.719 2    518989.870 2                
  22526757.125 6 -11666041.906 6 -10023640.50447  22526751.92247
  21117215.102 7 -10689436.497 7  -6944659.17148  21117209.43048
  20614231.367 6 -23510018.042 6 -16107455.44648  20614225.93048
  23267173.836 1  -1720200.660 1   -944786.45946  23267174.90646
  20333560.398 6 -24175984.350 6 -17680108.20549  20333555.43449
  22216938.273 6 -17632385.204 6 -12633090.94547  22216932.77747
  21071366.242 6 -17851994.190 6 -12827667.12948  21071360.10248
  20689878.203 6 -15432093.478 6 -17294757.96249  20689874.23449
 24 11 23  0 17  0.0000000  0  9G02G07G13G14G15G17G19G22G30         
  23625663.820 1    531228.959 1                
  22539791.461 6 -11597548.608 6  -9970269.17148  22539787.37548
  21114281.750 7 -10704849.954 7  -6956669.63248  21114276.07848
  20616557.875 6 -23497792.730 6 -16097929.20048  20616552.32048
  23259035.461 3  -1762981.756 3   -978122.29946  23259033.13346
  20327568.625 7 -24207477.608 7 -17704648.36149  20327562.07449
  22199485.055 5 -17724096.584 5 -12704554.22047  22199479.44147
  21070425.188 6 -17856938.527 6 -12831519.82848  21070419.10548
  20695028.055 7 -15405028.948 7 -17273668.72549  20695025.14149
 24 11 23  0 17 30.0000000  0  9G02G07G13G14G15G17G19G22G30         
  23628091.188 4    543975.012 4                
  22552887.031 6 -11528730.810 6  -9916644.96348  22552884.05948
  21111464.031 7 -10719659.404 7  -6968209.43048  21111458.12548
  20618919.273 6 -23485383.395 6 -16088259.56448  20618913.71948
  23250999.328 3  -1805210.356 3  -1011027.65246  23250997.46946
  20321677.359 6 -24238433.265 6 -17728769.60849  20321671.74649
  22182087.828 6 -17815525.870 6 -12775797.67947  22182081.51247
  21069520.742 6 -17861689.258 6 -12835221.66448  21069514.83648
  20700256.992 7 -15377552.551 7 -17252258.54349  20700253.14149
 24 11 23  0 18  0.0000000  0  9G02G07G13G14G15G17G19G22G30         
  23630612.648 3    557227.891 3  -1198383.98855  23630606.56655
  22566043.391 5 -11459589.995 5  -9862769.03648  22566040.59448
  21108760.367 7 -10733865.384 7  -6979278.99548  21108755.10548
  20621315.414 7 -23472791.491 7 -16078447.66948  20621309.97748
  23243068.164 2  -1846886.369 2  -1043502.35646  23243067.12546
  20315889.133 6 -24268851.761 6 -17752472.29249  20315882.52349
  22164742.867 6 -17906671.596 6 -12846820.14547  22164737.19547
  21068653.148 6 -17866248.417 6 -12838774.22648  21068647.24248
  20705564.141 7 -15349664.704 7 -17230527.74549  20705560.28949
 24 11 23  0 18 30.0000000  0  9G02G07G13G14G15G17G19G22G30         
  23633230.273 2    570990.030 2  -1187660.20745  23633225.48445
  22579263.070 6 -11390123.639 6  -9808639.44148  22579259.80548
  21106172.063 7 -10747464.671 7  -6989875.81748  21106167.21548
  20623746.547 6 -23460014.812 6 -16068491.79448  20623740.58248
  23235242.742 1  -1888005.502 1  -1075543.17846  23235242.34846
  20310203.711 7 -24298729.728 7 -17775753.78249  20310197.16049
  22147453.945 6 -17997529.307 6 -12917618.23347  22147448.50847
  21067822.930 6 -17870613.815 6 -12842175.78548  21067816.55548
  20710949.398 7 -15321362.124 7 -17208473.78649  20710945.54749
 24 11 23  0 19  0.0000000  0  9G02G07G13G14G15G17G19G22G30         
  23635946.047 1    585261.070 1  -1176539.87145  23635942.19545
  22592544.633 6 -11320333.420 6  -9754257.49648  22592540.66448
  21103699.320 7 -10760457.683 7  -7000000.19748  21103695.00048
  20626213.180 6 -23447054.736 6 -16058392.99148  20626207.27348
  23227521.727 1  -1928567.731 1  -1107150.04746  23227523.32446
  20304620.922 6 -24328067.820 6 -17798614.59149  20304614.48849
  22130218.531 6 -18088098.002 6 -12988191.13247  22130214.38747
  21067027.789 6 -17874787.170 6 -12845427.70348  21067022.46948
  20716414.156 6 -15292645.091 6 -17186096.86649  20716410.36349
 24 11 23  0 19 30.0000000  0  9G02G07G13G14G15G17G19G22G30         
  23638758.563 1    600038.439 1  -1165024.99045  23638755.18045
  22605886.766 6 -11250221.694 6  -9699625.06348  22605881.91848
  21101341.539 7 -10772846.076 7  -7009653.46748  21101337.39548
  20628713.453 6 -23433914.175 6 -16048153.57048  20628707.95748
  23219911.938 3  -1968574.323 3  -1138323.94746  23219909.78546
  20299140.430 6 -24356868.066 6 -17821056.28849  20299133.99649
  22113039.336 6 -18178376.966 6 -13058538.27647  22113034.60547
  21066269.914 6 -17878772.195 6 -12848532.87248  21066263.59848
  20721957.664 6 -15263515.541 6 -17163398.51649  20721953.75449
 24 11 23  0 20  0.0000000  0  9G02G07G13G14G15G17G19G22G30         
  23641667.016 2    615321.445 2  -1153116.13545  23641663.57445
  22619289.320 6 -11179790.237 6  -9644743.48448  22619285.58648
  21099099.578 7 -10784630.970 7  -7018836.45648  21099094.61348
  20631247.422 6 -23420594.879 6 -16037774.88248  20631241.92648
  23212403.938 4  -2008025.594 4  -1169065.02947  23212402.37147
  20293761.961 6 -24385131.325 6 -17843079.55449  20293756.11349
  22095914.805 6 -18268366.121 6 -13128659.59247  22095910.36747
  21065547.406 6 -17882570.747 6 -12851492.74648  21065540.97348
  20727579.188 7 -15233974.214 7 -17140379.29849  20727575.51249
 24 11 23  0 20 30.0000000  0  9G02G07G13G14G15G17G19G22G30         
  23644672.313 2    631112.839 2  -1140811.08845  23644667.75845
  22632752.711 6 -11109036.692 6  -9589610.90348  22632748.62548
  21096972.641 7 -10795808.620 7  -7027546.28648  21096967.20348
  20633817.156 6 -23407094.347 6 -16027254.97348  20633811.66048
  23205003.258 3  -2046917.200 3  -1199370.05946  23205001.75046
  20288485.750 6 -24412854.160 6 -17864681.72549  20288479.90249
  22078846.445 6 -18358060.154 6 -13198550.96047  22078841.77347
  21064860.078 6 -17886180.648 6 -12854305.61448  21064854.28948
  20733279.734 7 -15204017.557 7 -17117036.46049  20733276.05949
 24 11 23  0 21  0.0000000  0  9G02G07G13G14G15G17G19G22G30         
  23647772.867 1    647414.169 1  -1128108.66745  23647770.18845
  22646277.648 6 -11037960.966 6  -9534227.27748  22646273.73848
  21094961.047 7 -10806377.905 7  -7035782.06048  21094955.78548
  20636420.781 6 -23393412.105 6 -16016593.46048  20636414.75848
  23197709.125 2  -2085247.090 2  -1229237.42746  23197708.14546
  20283313.406 6 -24440035.337 6 -17885861.80149  20283307.61749
  22061834.633 6 -18447456.125 6 -13268210.06447  22061829.37147
  21064208.523 6 -17889601.844 6 -12856971.42448  21064202.91048
  20739059.352 7 -15173644.178 7 -17093368.90249  20739055.91049
 24 11 23  0 21 30.0000000  0  9G02G07G13G14G15G17G19G22G30         
  23650972.148 3    664223.222 3  -1115010.63345  23650969.11745
  22659863.414 6 -10966565.277 6  -9478594.31548  22659859.73848
  21093064.953 7 -10816340.963 7  -7043545.45248  21093059.57448
  20639057.617 6 -23379550.819 6 -16005792.44748  20639052.77048
  23190521.789 1  -2123016.349 1  -1258668.01546  23190520.69146
  20278243.563 6 -24466676.920 6 -17906621.42349  20278237.59849
  22044880.102 6 -18536554.130 6 -13337636.98847  22044874.37147
  21063593.336 6 -17892837.635 6 -12859492.77448  21063586.72748
  20744917.703 7 -15142855.795 7 -17069377.96149  20744914.67249
 24 11 23  0 22  0.0000000  0  9G02G07G13G14G15G17G19G22G30         
  23654267.211 3    681540.967 3  -1101516.25345  23654264.76645
  22673509.602 5 -10894848.819 5  -9422711.41348  22673507.33248
  21091285.070 7 -10825695.807 7  -7050834.92748  21091280.45748
  20641729.977 7 -23365509.915 7 -15994851.46248  20641724.89548
  23183440.555 2  -2160223.269 2  -1287660.36546  23183438.93046
  20273277.344 6 -24492777.706 6 -17926959.64949  20273271.37949
  22027982.414 6 -18625351.139 6 -13406829.36347  22027976.50847
  21063012.602 6 -17895887.845 6 -12861869.51148  21063006.46148
  20750856.609 7 -15111650.846 7 -17045062.43249  20750852.93449
 24 11 23  0 22 30.0000000  0  9G02G07G13G14G15G17G19G22G30         
  23657659.430 2    699366.464 2                
  22687218.375 5 -10822813.541 5  -9366580.04948  22687215.28548
  21089620.055 7 -10834443.683 7  -7057651.42248  21089614.97348
  20644436.172 7 -23351291.074 7 -15983771.83648  20644430.44148
  23176468.227 3  -2196867.777 3  -1316214.41146  23176465.25446
  20268412.914 7 -24518338.544 7 -17946877.12449  20268406.77349
  22011142.516 6 -18713846.200 6 -13475786.44447  22011135.67247
  21062467.328 6 -17898754.153 6 -12864102.93948  21062460.66048
  20756873.391 6 -15080030.132 6 -17020422.92949  20756869.65649
 24 11 23  0 23  0.0000000  0  9G02G07G13G14G15G17G19G22G30         
  23661147.078 1    717700.958 1                
  22700987.672 5 -10750458.899 5  -9310199.85748  22700984.11348
  21088071.086 7 -10842583.034 7  -7063993.74447  21088066.29747
  20647175.852 7 -23336893.611 7 -15972553.03048  20647170.47348
  23169601.813 3  -2232947.760 3  -1344328.52646  23169599.19146
  20263651.539 7 -24543357.803 7 -17966372.60749  20263645.80949
  21994361.430 6 -18802036.138 6 -13544505.75147  21994353.76647
  21061957.000 7 -17901436.553 7 -12866193.08148  21061950.62548
  20762970.242 7 -15047992.073 7 -16995458.21949  20762966.56649
 24 11 23  0 23 30.0000000  0  9G02G07G13G14G15G17G19G22G30         
  23664733.891 3    736540.560 3                
  22714816.406 6 -10677789.660 6  -9253574.52748  22714812.90648
  21086637.805 7 -10850117.799 7  -7069864.95648  21086631.84048
  20649948.602 7 -23322321.957 7 -15961198.48348  20649943.69548
  23162844.063 3  -2268466.163 3  -1372005.07446  23162840.91446
  20258993.313 7 -24567839.955 7 -17985449.55049  20258986.64549
  21977635.289 6 -18889922.839 6 -13612988.80347  21977629.61747
  21061480.320 6 -17903939.841 6 -12868143.64048  21061474.35548
  20769145.344 7 -15015540.199 7 -16970171.04349  20769141.60949
 24 11 23  0 24  0.0000000  0  9G02G07G13G14G15G17G19G22G30         
  23668415.766 3    755889.868 3                
  22728706.117 6 -10604801.254 6  -9196700.52648  22728702.61748
  21085319.383 7 -10857042.852 7  -7075261.07348  21085314.59448
  20652755.742 7 -23307571.589 7 -15949704.67648  20652750.12948
  23156190.844 2  -2303417.265 2  -1399239.67146  23156191.03546
  20254437.602 7 -24591779.364 7 -18004103.56949  20254431.46149
  21960970.266 6 -18977499.267 6 -13681230.06347  21960964.53547
  21061038.945 7 -17906260.003 7 -12869951.52048  21061032.39548
  20775400.945 7 -14982669.154 7 -16944557.24749  20775396.74249
 24 11 23  0 24 30.0000000  0  9G02G07G13G14G15G17G19G22G30         
  23672194.703 3    775747.804 3   -948849.03455  23672188.73855
  22742655.039 5 -10531495.739 5  -9139579.39948  22742652.77048
  21084118.047 7 -10863358.833 7  -7080182.59148  21084112.90648
  20655595.969 7 -23292644.288 7 -15938073.00148  20655590.94548
  23149647.828 2  -2337801.358 2  -1426032.40447  23149647.96147
  20249985.234 7 -24615177.408 7 -18022335.77149  20249979.09449
  21944364.648 6 -19064764.977 6 -13749229.22947  21944358.33247
  21060631.563 6 -17908399.144 6 -12871618.36048  21060625.30548
  20781735.898 7 -14949379.829 7 -16918617.51049  20781731.98849
 24 11 23  0 25  0.0000000  0  9G02G07G13G14G15G17G19G22G30         
  23676069.359 4    796112.645 4   -932980.24246  23676064.62946
  22756664.914 5 -10457874.975 5  -9082212.63748  22756661.59048
  21083031.461 7 -10869067.156 7  -7084630.60048  21083026.32048
  20658469.727 7 -23277541.928 7 -15926304.92948  20658464.99648
  23143214.953 4  -2371619.253 4  -1452383.91647  23143212.50847
  20245634.898 7 -24638035.497 7 -18040147.21749  20245628.87549
  21927817.852 6 -19151719.223 6 -13816985.66647  21927810.65647
  21060258.945 6 -17910359.702 6 -12873146.01448  21060252.16048
  20788149.781 7 -14915673.379 7 -16892352.74749  20788146.75049
 24 11 23  0 25 30.0000000  0  9G02G07G13G14G15G17G19G22G30         
  23680040.781 3    816984.699 3   -916716.19745  23680036.69545
  22770734.766 6 -10383939.107 6  -9024600.32348  22770731.38348
  21082060.852 7 -10874167.636 7  -7088604.96248  21082055.64848
  20661377.180 7 -23262264.789 7 -15914400.66348  20661371.74248
  23136886.211 4  -2404870.157 4  -1478293.63446  23136884.35246
  20241388.805 7 -24660353.173 7 -18057537.55249  20241382.02049
  21911330.617 6 -19238359.568 6 -13884497.51447  21911322.36747
  21059919.125 7 -17912142.043 7 -12874534.82248  21059912.80948
  20794643.297 7 -14881549.158 7 -16865762.45449  20794640.20749
 24 11 23  0 26  0.0000000  0  9G02G07G13G14G15G17G19G22G30         
  23684109.898 4    838364.360 4   -900056.67345  23684105.87145
  22784864.602 6 -10309688.698 6  -8966742.94648  22784860.34048
  21081206.445 7 -10878660.024 7  -7092105.49748  21081200.89148
  20664317.289 7 -23246812.971 7 -15902360.27248  20664312.02748
  23130667.914 4  -2437552.106 4  -1503759.96646  23130664.53146
  20237244.547 7 -24682129.491 7 -18074506.05549  20237237.87949
  21894903.203 6 -19324683.641 6 -13951762.87547  21894895.53947
  21059614.445 7 -17913746.800 7 -12875785.26348  21059608.07048
  20801216.633 7 -14847006.540 7 -16838846.13949  20801213.48449
 24 11 23  0 26 30.0000000  0  9G02G07G13G14G15G17G19G22G30         
  23688274.570 2    860252.764 2   -883000.69745  23688270.13345
  22799052.289 5 -10235122.901 5  -8908639.82847  22799049.60947
  21080467.273 7 -10882542.718 7  -7095130.94848  21080462.19148
  20667291.234 7 -23231185.625 7 -15890183.09748  20667285.44548
  23124556.242 4  -2469663.242 4  -1528781.53746  23124554.44146
  20233203.195 7 -24703364.009 7 -18091052.38449  20233197.58249
  21878536.328 6 -19410688.389 6 -14018779.45247  21878530.12947
  21059343.164 6 -17915172.989 6 -12876896.57248  21059336.84848
  20807869.859 7 -14812043.969 7 -16811602.57549  20807866.41849
 24 11 23  0 27  0.0000000  0  9G02G07G13G14G15G17G19G22G30         
  23692534.984 1    882649.178 1   -865548.83245  23692533.41845
  22813302.164 5 -10160242.977 5  -8850291.93147  22813298.48847
  21079844.367 7 -10885816.125 7  -7097681.61648  21079838.93048
  20670298.398 6 -23215383.534 6 -15877869.77648  20670292.96148
  23118553.891 3  -2501203.561 3  -1553358.33747  23118553.26247
  20229265.711 7 -24724056.861 7 -18107176.64649  20229259.33649
  21862231.672 6 -19496372.609 6 -14085546.30047  21862225.53147
  21059105.250 6 -17916422.918 6 -12877870.52748  21059098.40648
  20814603.117 7 -14776661.423 7 -16784031.78649  20814599.55949
 24 11 23  0 27 30.0000000  0  9G02G07G13G14G15G17G19G22G30         
  23696894.469 1    905552.109 1   -847702.33345  23696892.02345
  22827611.508 6 -10085051.059 6  -8791700.91148  22827607.01248
  21079336.859 6 -10888481.646 6  -7099758.60248  21079331.48048
  20673338.359 7 -23199408.671 7 -15865421.81548  20673332.80548
  23112659.859 4  -2532173.404 4  -1577490.60847  23112659.81647
  20225430.852 7 -24744209.562 7 -18122879.98749  20225424.24249
  21845988.805 6 -19581735.336 6 -14152062.60748  21845982.66448
  21058900.734 7 -17917498.453 7 -12878708.58648  21058893.65648
  20821415.664 7 -14740860.117 7 -16756134.67949  20821411.63749
 24 11 23  0 28  0.0000000  0  9G02G07G13G14G15G17G19G22G30         
  23701350.797 3    928960.359 3   -829462.02545  23701345.59445
  22841978.781 5 -10009548.614 5  -8732867.89847  22841975.10547
  21078945.500 7 -10890540.291 7  -7101362.73048  21078939.59448
  20676410.656 7 -23183262.450 7 -15852840.33048  20676405.33648
  23106875.344 4  -2562573.281 4  -1601178.74347  23106875.77047
  20221697.805 7 -24763822.499 7 -18138162.75049  20221691.72349
  21829805.211 6 -19666775.375 6 -14218327.47248  21829799.89148
  21058728.484 7 -17918401.150 7 -12879411.96048  21058722.16848
  20828307.977 7 -14704640.843 7 -16727911.87249  20828303.89149
 24 11 23  0 28 30.0000000  0  9G02G07G13G14G15G17G19G22G30         
  23705900.750 1    952874.782 1   -810827.24245  23705896.02045
  22856404.398 4  -9933735.059 4  -8673792.42047  22856401.89547
  21078669.516 7 -10891990.677 7  -7102492.86248  21078663.84448
  20679515.508 7 -23166944.060 7 -15840124.68648  20679510.77748
  23101199.508 5  -2592401.501 5  -1624421.41747  23101198.76247
  20218068.344 7 -24782895.291 7 -18153024.62049  20218062.43849
  21813685.078 6 -19751490.216 6 -14284338.93948  21813678.99648
  21058589.703 6 -17919130.916 6 -12879980.59648  21058583.32848
  20835279.922 7 -14668002.069 7 -16699362.19549  20835276.65649
 24 11 23  0 29  0.0000000  0  9G02G07G13G14G15G17G19G22G30         
  23710546.688 1    977294.660 1   -791798.64145  23710543.24645
  22870890.477 4  -9857611.888 4  -8614475.67647  22870887.73847
  21078509.680 7 -10892833.456 7  -7103149.55948  21078503.89148
  20682653.719 6 -23150454.271 6 -15827275.48948  20682648.39848
  23095632.773 4  -2621657.335 4  -1647218.06747  23095631.03147
  20214541.961 7 -24801428.417 7 -18167465.97349  20214535.58649
  21797625.789 6 -19835878.094 6 -14350095.62147  21797619.29747
  21058482.930 6 -17919688.991 6 -12880415.44648  21058477.08248
  20842332.180 7 -14630943.870 7 -16670485.70149  20842328.68049
 24 11 23  0 29 30.0000000  0  9G02G07G13G14G15G17G19G22G30         
  23715289.547 1   1002222.767 1                
  22885436.148 5  -9781177.058 5  -8554916.12347  22885433.11747
  21078464.539 7 -10893066.217 7  -7103330.90948  21078459.45748
  20685825.164 7 -23133791.058 7 -15814291.13548  20685819.60948
  23090175.461 4  -2650338.020 4  -1669566.60447  23090172.84047
  20211118.852 7 -24819418.939 7 -18181484.52049  20211112.00849
  21781630.320 6 -19919934.391 6 -14415593.95347  21781622.71547
  21058410.000 6 -17920073.653 6 -12880715.17448  21058403.85948
  20849464.055 7 -14593463.633 7 -16641280.31549  20849460.49649
 24 11 23  0 30  0.0000000  0  9G02G07G13G14G15G17G19G22G30         
  23720130.438 2   1027653.961 2                
  22900040.445 5  -9704435.847 5  -8495117.85947  22900036.30147
  21078535.523 7 -10892693.680 7  -7103040.60048  21078530.32048
  20689027.922 7 -23116959.254 7 -15801175.41548  20689022.13348
  23084826.703 4  -2678447.265 4  -1691469.82547  23084823.14547
  20207797.352 7 -24836872.233 7 -18195084.45249  20207790.97749
  21765697.164 6 -20003661.925 6 -14480836.06047  21765689.91047
  21058368.813 6 -17920290.345 6 -12880883.98048  21058362.43848
  20856675.844 7 -14555565.548 7 -16611749.33749  20856672.34449
 24 11 23  0 30 30.0000000  0  9G02G07G13G14G15G17G19G22G30         
  23725066.42211   -521829.03411                
  22914702.039 5  -9627386.025 5  -8435079.13647  22914697.95347
  21078722.188 7 -10891712.914 7  -7102276.35948  21078716.45748
  20692263.383 6 -23099956.329 6 -15787926.34448  20692257.65248
  23079586.719 5  -2705981.603 5  -1712925.07947  23079583.62947
  20204579.164 7 -24853785.142 7 -18208263.30449  20204572.96549
  21749828.258 6 -20087055.675 6 -14545818.09847  21749821.12147
  21058360.266 6 -17920336.502 6 -12880919.92948  21058353.59848
  20863968.008 7 -14517246.429 7 -16581890.29449  20863964.27349
 24 11 23  0 31  0.0000000  0  9G02G07G13G14G15G17G19G22G30         
  23730096.289 1   -495386.013 1                
  22929421.313 4  -9550027.897 4  -8374800.13247  22929419.10247
  21079024.891 7 -10890123.723 7  -7101038.00948  21079018.92648
  20695531.453 6 -23082782.173 6 -15774543.85948  20695526.13348
  23074456.305 4  -2732939.908 4  -1733931.48247  23074453.33247
  20201463.250 7 -24870157.090 7 -18221020.62849  20201457.46149
  21734022.945 6 -20170113.464 6 -14610538.35547  21734016.62947
  21058383.430 7 -17920212.885 7 -12880823.55648  21058377.64148
  20871340.172 7 -14478505.657 7 -16551702.68449  20871336.26249
 24 11 23  0 31 30.0000000  0  9G02G07G13G14G15G17G19G22G30         
  23735226.039 1   -468438.664 1                
  22944201.945 5  -9472363.034 5  -8314282.14947  22944198.97347
  21079442.336 6 -10887927.203 6  -7099326.40348  21079436.89848
  20698832.070 7 -23065438.356 7 -15761029.14548  20698825.81348
  23069435.406 4  -2759322.851 4  -1754489.52147  23069432.78547
  20198450.570 7 -24885989.531 7 -18233357.55749  20198444.43049
  21718280.492 6 -20252834.541 6 -14674996.23548  21718275.64548
  21058438.484 6 -17919921.276 6 -12880596.29148  21058432.10948
  20878792.375 7 -14439344.174 7 -16521187.26849  20878787.99649
 24 11 23  0 32  0.0000000  0  9G02G07G13G14G15G17G19G22G30         
  23740449.52311   -440987.03511                
  22959038.930 5  -9394392.294 5  -8253525.83147  22959035.43047
  21079975.789 7 -10885123.666 7  -7097141.81148  21079971.23448
  20702164.477 6 -23047925.145 6 -15747382.45548  20702158.80548
  23064523.109 4  -2785129.916 4  -1774598.82947  23064522.18847
  20195541.070 7 -24901282.718 7 -18245274.27549  20195534.28549
  21702604.070 6 -20335216.967 6 -14739190.24548  21702599.86748
  21058527.281 7 -17919462.467 7 -12880238.71848  21058519.55948
  20886324.695 7 -14399761.771 7 -16490343.84949  20886320.84449
 24 11 23  0 32 30.0000000  0  9G02G07G13G14G15G17G19G22G30         
  23745769.336 1   -413032.513 1                
  22973934.086 5  -9316117.715 5  -8192532.70447  22973930.93847
  21080624.859 7 -10881714.326 7  -7094485.15648  21080619.59848
  20705528.445 6 -23030243.975 6 -15733604.86348  20705523.53948
  23059721.250 3  -2810361.327 3  -1794259.58447  23059720.56347
  20192732.773 7 -24916037.978 7 -18256771.83449  20192725.93049
  21686992.352 6 -20417259.907 6 -14803119.71548  21686986.56348
  21058644.430 7 -17918838.379 7 -12879752.36048  21058638.28948
  20893936.305 6 -14359759.310 6 -16459173.10749  20893933.85949
 24 11 23  0 33  0.0000000  0  9G02G07G13G14G15G17G19G22G30         
  23751186.750 1   -384575.436 1                
  22988887.672 5  -9237540.053 5  -8131303.40247  22988883.64547
  21081389.313 7 -10877699.161 7  -7091356.43648  21081384.05148
  20708925.688 6 -23012394.941 6 -15719696.48948  20708919.78148
  23055031.688 4  -2835016.632 4  -1813471.43347  23055029.30147
  20190026.719 7 -24930255.117 7 -18267850.07249  20190020.57849
  21671444.727 6 -20498960.845 6 -14866782.69048  21671438.46948
  21058795.289 7 -17918049.263 7 -12879137.42348  21058788.21148
  20901628.281 7 -14319336.380 7 -16427674.73149  20901625.54349
 24 11 23  0 33 30.0000000  0  9G02G07G13G14G15G17G19G22G30         
  23756697.71111                                
  23003900.461 5  -9158651.023 5  -8069831.45647  23003895.67247
  21082269.727 6 -10873069.887 6  -7087749.19748  21082264.82048
  20712355.656 6 -22994369.991 6 -15705651.04248  20712349.86748
  23050450.539 5  -2859087.007 5  -1832227.47547  23050448.27047
  20187425.086 7 -24943925.900 7 -18278502.58649  20187419.06349
  21655965.211 6 -20580309.936 6 -14930171.47548  21655957.95748
  21058978.055 7 -17917087.634 7 -12878388.06248  21058970.97748
  20909402.438 6 -14278484.470 6 -16395842.08349  20909399.64149
 24 11 23  0 34  0.0000000  0  8G07G13G14G15G17G19G22G30            
  23018966.844 5  -9079467.975 5  -8008130.41048  23018964.45748
  21083264.344 7 -10867843.438 7  -7083676.62148  21083259.61348
  20715815.820 6 -22976185.643 6 -15691481.36948  20715809.97348
  23045977.414 4  -2882588.196 4  -1850540.01447  23045976.49247
  20184924.680 7 -24957066.801 7 -18288742.19249  20184918.42249
  21640549.141 6 -20661321.312 6 -14993297.10047  21640541.77047
  21059190.734 6 -17915970.469 6 -12877517.48348  21059183.94948
  20917255.383 7 -14237219.610 7 -16363687.63649  20917251.70749
 24 11 23  0 34 30.0000000  0  8G07G13G14G15G17G19G22G30            
  23034092.539 5  -8999982.880 5  -7946193.98948  23034090.62148
  21084374.367 7 -10862011.127 7  -7079131.94348  21084369.22748
  20719308.188 7 -22957833.448 7 -15677180.91648  20719302.10548
  23041616.047 4  -2905510.992 4  -1868401.85947  23041614.94947
  20182526.672 7 -24969669.535 7 -18298562.45049  20182520.18049
  21625198.922 6 -20741984.478 6 -15056151.39447  21625192.19547
  21059433.930 6 -17914689.782 6 -12876519.47448  21059427.67248
  20925188.188 7 -14195532.927 7 -16331204.50649  20925184.33649
 24 11 23  0 35  0.0000000  0  8G07G13G14G15G17G19G22G30            
  23049275.297 4  -8920197.987 4  -7884023.96847  23049273.55547
  21085599.039 7 -10855574.964 7  -7074116.74848  21085593.30948
  20722831.820 7 -22939315.103 7 -15662750.99448  20722826.32448
  23037363.609 4  -2927856.392 4  -1885813.78047  23037362.04347
  20180229.813 7 -24981736.010 7 -18307964.84649  20180224.43449
  21609915.016 6 -20822298.999 6 -15118734.03347  21609908.52347
  21059708.133 7 -17913247.652 7 -12875395.69248  21059701.81648
  20933200.703 7 -14153425.720 7 -16298393.70549  20933197.20349
 24 11 23  0 35 30.0000000  0  9G02G07G13G14G15G17G19G22G30         
  23779693.87511    614062.29111                
  23064512.727 5  -8840127.060 5  -7821631.12447  23064509.69547
  21086935.750 7 -10848548.260 7  -7068641.39548  21086930.43048
  20726384.680 6 -22920644.067 6 -15648202.11048  20726379.41848
  23033218.750 4  -2949637.009 4  -1902785.59747  23033217.65247
  20178033.742 7 -24993279.202 7 -18316959.48749  20178027.19149
  21594695.523 6 -20902276.227 6 -15181053.84348  21594689.38348
  21060010.828 7 -17911657.991 7 -12874156.96048  21060004.27748
  20941290.922 7 -14110910.956 7 -16265265.32149  20941287.24649
 24 11 23  0 36  0.0000000  0  9G02G07G13G14G15G17G19G22G30         
  23785682.07011                                
  23079811.805 5  -8759730.303 5  -7758984.36447  23079808.24647
  21088393.383 7 -10840890.254 7  -7062674.11848  21088387.65248
  20729974.766 6 -22901779.566 6 -15633502.48048  20729969.09448
  23029188.008 3  -2970811.421 3  -1919285.01847  23029187.96547
  20175944.375 7 -25004259.092 7 -18325515.20049  20175938.17649
  21579548.539 6 -20981873.033 6 -15243077.23147  21579541.81347
  21060349.703 7 -17909880.704 7 -12872772.00648  21060342.21548
  20949466.742 7 -14067947.644 7 -16231787.41449  20949462.94949
 24 11 23  0 36 30.0000000  0  9G02G07G13G14G15G17G19G22G30         
  23791760.75811    677496.90011                
  23095163.102 5  -8679058.881 5  -7696123.58147  23095159.25047
  21089961.281 7 -10832651.931 7  -7056254.63148  21089955.49248
  20733591.914 7 -22882772.492 7 -15618691.73448  20733586.18448
  23025264.086 3  -2991430.267 3  -1935351.57747  23025264.27747
  20173952.602 7 -25014726.138 7 -18333671.29649  20173946.10949
  21564465.258 6 -21061138.197 6 -15304842.19148  21564458.47348
  21060713.023 7 -17907967.017 7 -12871280.78348  21060706.12148
  20957718.422 7 -14024586.092 7 -16197999.20849  20957714.45349
 24 11 23  0 37  0.0000000  0  9G02G07G13G14G15G17G19G22G30         
  23797939.523 2    709960.971 2                
  23110573.625 6  -8598080.996 6  -7633024.00448  23110569.48048
  21091644.828 6 -10823801.289 6  -7049358.01848  21091639.80548
  20737242.039 6 -22863590.517 6 -15603744.69848  20737236.30948
  23021453.313 5  -3011460.196 5  -1950959.22947  23021452.09847
  20172064.141 7 -25024647.998 7 -18341402.56849  20172057.94149
  21549451.578 6 -21140037.464 6 -15366322.02948  21549444.03148
  21061109.523 6 -17905884.562 6 -12869658.05448  21061103.14848
  20966052.297 7 -13980793.800 7 -16163875.36049  20966047.50849
 24 11 23  0 37 30.0000000  0  9G02G07G13G14G15G17G19G22G30         
  23804211.883 3    742921.822 3                
  23126039.539 6  -8516808.363 6  -7569694.71948  23126035.51248
  21093443.383 6 -10814349.833 6  -7041993.23148  21093438.47748
  20740923.031 6 -22844244.825 6 -15588670.10648  20740916.83248
  23017753.359 5  -3030912.232 5  -1966116.55147  23017750.85547
  20170278.500 7 -25034035.976 7 -18348717.82349  20170271.01249
  21534505.656 6 -21218579.934 6 -15427523.86048  21534497.69948
  21061535.977 7 -17903645.292 7 -12867913.12948  21061529.42648
  20974465.258 7 -13936581.634 7 -16129424.33949  20974461.11349
 24 11 23  0 38  0.0000000  0  9G02G07G13G14G15G17G19G22G30         
  23810578.805 3    776378.840 3                
  23141561.188 6  -8435241.974 6  -7506136.55148  23141557.57048
  21095356.523 6 -10804298.018 6  -7034160.64648  21095351.61748
  20744635.742 6 -22824735.866 6 -15573468.29448  20744629.36748
  23014161.906 5  -3049785.989 5  -1980823.29347  23014159.16847
  20168592.922 7 -25042890.947 7 -18355617.74149  20168586.02049
  21519627.031 6 -21296764.122 6 -15488446.48848  21519620.01248
  21061991.844 7 -17901250.029 7 -12866046.66148  21061984.29748
  20982957.492 7 -13891949.686 7 -16094646.21449  20982954.34449
 24 11 23  0 38 30.0000000  0  9G02G07G13G14G15G17G19G22G30         
  23817040.328 4    810331.931 4                
  23157137.680 6  -8353382.711 6  -7442350.18448  23157135.00048
  21097383.820 7 -10793645.987 7  -7025860.35748  21097378.32448
  20748379.227 6 -22805063.545 6 -15558139.19348  20748373.55548
  23010679.195 5  -3068081.299 5  -1995079.30448  23010678.33248
  20167008.938 7 -25051213.360 7 -18362102.69349  20167002.32849
  21504817.414 6 -21374587.693 6 -15549088.13148  21504810.51248
  21062476.359 6 -17898699.196 6 -12864058.96948  21062470.04348
  20991530.742 6 -13846897.622 6 -16059540.71449  20991528.18049
 24 11 23  0 39  0.0000000  0 10G02G06G07G13G14G15G17G19G22G30      
  23823597.039 3    844781.518 3                
  25088212.08611   -909585.00511   -538565.38856  25088216.73056
  23172771.422 5  -8271230.178 5  -7378335.25848  23172767.86348
  21099525.063 7 -10782393.357 7  -7017092.05748  21099519.44948
  20752154.266 6 -22785226.929 6 -15542682.06448  20752148.06648
  23007308.859 5  -3085796.690 5  -2008883.43747  23007306.53147
  20165526.742 7 -25059002.124 7 -18368171.81849  20165520.42649
  21490077.453 6 -21452047.908 6 -15609446.63848  21490070.66848
  21062992.344 6 -17895992.330 6 -12861949.66848  21062984.91448
  21000184.523 6 -13801424.284 6 -16024106.95149  21000181.49249
 24 11 23  0 39 30.0000000  0 10G02G06G07G13G14G15G17G19G22G30      
  23830243.906 1    879717.800 1                
  25069278.305 1  -1009082.253 1   -616095.19746  25069283.53546
  23188457.477 5  -8188794.328 5  -7314099.58947  23188454.79747
  21101778.820 7 -10770549.854 7  -7007863.36248  21101773.20748
  20755957.727 6 -22765235.575 6 -15527104.36448  20755952.34848
  23004046.695 5  -3102941.004 5  -2022242.53847  23004043.72347
  20164144.422 7 -25066266.885 7 -18373832.63449  20164137.87149
  21475404.672 6 -21529152.100 6 -15669527.73148  21475397.94548
  21063534.781 7 -17893139.414 7 -12859726.58948  21063527.29348
  21008915.719 6 -13755538.896 6 -15988352.11149  21008912.74649
 24 11 23  0 40  0.0000000  0 10G02G06G07G13G14G15G17G19G22G30      
  23836987.320 1    915157.347 1                
  25050318.34411  -1108719.51411   -693734.13156  25050321.69956
  23204201.203 5  -8106058.968 5  -7249630.49747  23204198.99247
  21104148.125 7 -10758098.934 7  -6998161.35048  21104141.80948
  20759795.094 6 -22745072.515 6 -15511392.86548  20759789.01248
  23000895.211 5  -3119497.167 5  -2035143.38147  23000893.41047
  20162864.313 7 -25072991.269 7 -18379072.36749  20162858.40649
  21460803.422 6 -21605881.399 6 -15729316.70448  21460797.04748
  21064108.969 7 -17890124.014 7 -12857376.89048  21064101.71548
  21017729.617 7 -13709224.298 7 -15952262.82049  21017726.70349
 24 11 23  0 40 30.0000000  0 10G02G06G07G13G14G15G17G19G22G30      
  23843825.89811   -624328.30911                
  25031327.39811  -1208501.72511   -771485.95056  25031332.98056
  23220000.672 5  -8023032.520 5  -7184934.59348  23219998.05148
  21106631.820 7 -10745048.868 7  -6987992.46148  21106625.62148
  20763663.219 6 -22724745.387 6 -15495553.53248  20763657.19548
  22997855.055 5  -3135472.306 5  -2047591.47547  22997852.19947
  20161686.039 7 -25079183.206 7 -18383897.21149  20161680.54349
  21446272.578 6 -21682241.574 6 -15788818.03148  21446265.44148
  21064711.969 6 -17886953.984 6 -12854906.70148  21064705.47748
  21026623.711 6 -13662488.046 6 -15915844.96449  21026620.38749
 24 11 23  0 41  0.0000000  0 10G02G06G07G13G14G15G17G19G22G30      
  23850754.69511                                
  25012310.836 1  -1308427.117 1   -849349.38946  25012317.88346
  23235855.156 5  -7939716.751 5  -7120013.26447  23235853.12147
  21109228.906 7 -10731400.989 7  -6977357.75248  21109222.82448
  20767561.484 6 -22704255.468 6 -15479587.34248  20767556.10548
  22994925.422 5  -3150867.190 5  -2059587.40948  22994922.85948
  20160608.969 7 -25084843.724 7 -18388307.96549  20160602.82849
  21431811.828 6 -21758231.714 6 -15848031.03448  21431804.57448
  21065344.500 6 -17883631.229 6 -12852317.50748  21065337.48048
  21035597.047 6 -13615331.133 6 -15879099.33049  21035593.37149
 24 11 23  0 41 30.0000000  0 10G02G06G07G13G14G15G17G19G22G30      
  23857784.711 2   -550975.502 2                
  24993267.06311                   -927319.04155  24993275.69555
  23251765.750 5  -7856108.443 5  -7054864.00847  23251762.42647
  21111940.492 7 -10717151.565 7  -6966254.30448  21111934.58648
  20771492.656 6 -22683598.514 6 -15463490.99648  20771487.10248
  22992106.875 5  -3165677.708 5  -2071128.00048  22992104.54748
  20159633.250 7 -25089969.338 7 -18392301.90649  20159627.22749
  21417422.953 6 -21833845.769 6 -15906950.96148  21417415.58248
  21066006.227 6 -17880151.701 6 -12849606.14148  21065998.68048
  21044651.430 6 -13567749.217 6 -15842022.54849  21044647.34449
 24 11 23  0 42  0.0000000  0  9G02G07G13G14G15G17G19G22G30         
  23864903.242 3   -513567.693 3                
  23267730.297 5  -7772221.858 5  -6989497.90648  23267726.62148
  21114763.352 6 -10702314.742 6  -6954693.13948  21114757.56348
  20775452.891 6 -22662788.068 6 -15447275.02148  20775447.27748
  22989397.070 5  -3179917.289 5  -2082223.71648  22989395.79748
  20158757.219 7 -25094574.166 7 -18395890.04449  20158751.07849
  21403103.742 6 -21909095.467 6 -15965586.98448  21403096.31348
  21066695.227 7 -17876529.583 7 -12846783.66648  21066688.20748
  21053784.313 6 -13519755.711 6 -15804625.00549  21053780.75449
 24 11 23  0 42 30.0000000  0 10G02G06G07G13G14G15G17G19G22G30      
  23872114.148 3   -475670.098 3  -2351730.36155  23872108.82855
  24955103.63311                                
  23283748.000 5  -7688050.368 5  -6923909.78948  23283743.38748
  21117700.133 6 -10686883.985 6  -6942669.15548  21117693.81648
  20779443.641 6 -22641816.862 6 -15430933.79048  20779437.79348
  22986798.164 6  -3193578.142 6  -2092868.48548  22986795.36748
  20157981.781 7 -25098651.434 7 -18399067.09449  20157974.93849
  21388854.984 6 -21983971.754 6 -16023932.04648  21388848.43448
  21067413.453 7 -17872757.943 7 -12843844.69248  21067406.60948
  21062996.656 6 -13471343.235 6 -15766901.01149  21062993.68449
 24 11 23  0 43  0.0000000  0 10G02G06G07G13G14G15G17G19G22G30      
  23879418.117 2   -437285.123 2  -2321819.89345  23879413.03545
  24935984.10911   -567060.05611   -986964.31556  24935988.57856
  23299817.523 4  -7603596.796 4  -6858101.84647  23299814.25847
  21120749.047 7 -10670861.278 7  -6930183.91348  21120742.90648
  20783464.023 6 -22620686.838 6 -15414468.79248  20783458.29348
  22984308.523 6  -3206661.819 6  -2103063.51248  22984305.78548
  20157305.672 6 -25102203.050 6 -18401834.53349  20157298.77049
  21374677.711 6 -22058474.724 6 -16081986.22948  21374671.57048
  21068158.914 7 -17868839.123 7 -12840791.01848  21068151.95348
  21072289.250 6 -13422513.614 6 -15728851.97649  21072285.22349
 24 11 23  0 43 30.0000000  0 10G02G06G07G13G14G15G17G19G22G30      
  23886814.484 1   -398404.290 1  -2291523.07845  23886811.62945
  24916839.62511                  -1065356.49456  24916844.15256
  23315943.484 4  -7518852.674 4  -6792067.51047  23315940.27747
  21123911.391 6 -10654238.339 6  -6917230.95348  21123906.42648
  20787516.516 6 -22599388.749 6 -15397872.85748  20787511.60948
  22981929.758 6  -3219159.310 6  -2112801.77348  22981927.43048
  20156731.094 7 -25105220.695 7 -18404185.88849  20156724.77749
  21360572.563 6 -22132592.751 6 -16139740.42548  21360566.53948
  21068934.180 6 -17864764.507 6 -12837615.95748  21068927.16048
  21081662.281 6 -13373257.576 6 -15690470.65749  21081657.66849
 24 11 23  0 44  0.0000000  0 10G02G06G07G13G14G15G17G19G22G30      
  23894306.109 2   -359041.846 2                
  24897668.31311   -768401.52411  -1143853.02856  24897672.89856
  23332121.203 3  -7433832.468 3  -6725818.02247  23332119.22747
  21127187.195 7 -10637029.050 7  -6903821.11148  21127181.52348
  20791599.695 6 -22577935.884 6 -15381156.30448  20791594.25848
  22979660.477 6  -3231083.518 6  -2122093.31348  22979658.32448
  20156255.906 7 -25107717.907 7 -18406131.72749  20156249.00449
  21346540.164 6 -22206337.568 6 -16197203.82848  21346532.91048
  21069736.984 7 -17860547.692 7 -12834330.06148  21069729.96548
  21091113.414 6 -13323588.368 6 -15651767.37449  21091109.73849
 24 11 23  0 44 30.0000000  0 10G02G06G07G13G14G15G17G19G22G30      
  23901892.648 5   -319186.927 5  -2228457.07755  23901884.75055
  24878474.86711                  -1222443.11956  24878479.80556
  23348355.375 3  -7348525.286 3  -6659344.93547  23348352.81347
  21130574.984 6 -10619223.095 6  -6889946.32248  21130569.48848
  20795714.156 6 -22556317.462 6 -15364310.73948  20795707.89848
  22977502.016 5  -3242423.583 5  -2130929.67248  22977499.57048
  20155881.961 7 -25109684.505 7 -18407664.08549  20155875.05949
  21332579.875 6 -22279696.550 6 -16254366.56548  21332572.85548
  21070568.094 7 -17856178.309 7 -12830925.29648  21070561.30948
  21100645.820 6 -13273495.123 6 -15612733.67649  21100642.37949
 24 11 23  0 45  0.0000000  0 10G02G06G07G13G14G15G17G19G22G30      
  23909567.852 4   -278851.096 4  -2197026.46945  23909561.41845
  24859257.78111                  -1301132.72856  24859262.60256
  23364640.625 3  -7262943.220 3  -6592657.66847  23364638.53147
  21134074.695 6 -10600832.115 6  -6875615.66748  21134069.61348
  20799856.992 6 -22534544.177 6 -15347344.48948  20799850.20748
  22975453.469 5  -3253190.058 5  -2139319.11048  22975451.55148
  20155606.648 7 -25111131.460 7 -18408791.52649  20155599.27749
  21318692.125 6 -22352678.882 6 -16311235.79948  21318685.10548
  21071426.320 7 -17851667.450 7 -12827410.28847  21071418.65647
  21110257.000 6 -13222988.575 6 -15573377.92649  21110254.02749
 24 11 23  0 45 30.0000000  0  9G02G07G13G14G15G17G19G22G30         
  23917334.172 2   -238030.101 2  -2165217.89645  23917330.96545
  23380981.008 4  -7177081.934 4  -6525752.82247  23380978.15247
  21137687.031 6 -10581851.690 6  -6860825.71548  21137680.83248
  20804030.844 6 -22512610.791 6 -15330253.50148  20804025.11348
  22973514.992 5  -3263377.828 5  -2147257.60248  22973512.48848
  20155430.883 7 -25112054.552 7 -18409510.75849  20155423.92249
  21304876.898 6 -22425277.386 6 -16367805.97048  21304870.05548
  21072312.492 7 -17847010.501 7 -12823781.43948  21072304.94548
  21119948.422 6 -13172063.496 6 -15533696.05949  21119944.51249
 24 11 23  0 46  0.0000000  0  9G02G07G13G14G15G17G19G22G30         
  23925192.930 1   -196724.456 1                
  23397372.203 3  -7090941.994 3  -6458630.83147  23397369.64147
  21141411.016 7 -10562282.025 7  -6845576.61448  21141404.99248
  20808234.711 6 -22490517.008 6 -15313037.55848  20808229.27348
  22971686.734 5  -3272986.676 5  -2154744.98448  22971684.28948
  20155354.844 7 -25112453.741 7 -18409821.76149  20155348.05949
  21291135.352 6 -22497490.021 6 -16424075.43348  21291128.09848
  21073226.422 7 -17842207.823 7 -12820039.04048  21073220.10548
  21129718.422 6 -13120719.712 6 -15493687.91149  21129714.57049
 24 11 23  0 46 30.0000000  0  9G02G07G13G14G15G17G19G22G30         
  23933146.453 1   -154935.893 1                
  23413816.914 3  -7004525.655 3  -6391293.50247  23413814.00047
  21145246.469 6 -10542125.363 6  -6829870.10948  21145240.56348
  20812469.828 6 -22468264.207 6 -15295697.67648  20812463.98048
  22969967.508 5  -3282017.976 5  -2161782.32148  22969965.70748
  20155378.258 7 -25112330.815 7 -18409725.92149  20155371.59049
  21277466.336 6 -22569316.197 6 -16480043.77748  21277460.13748
  21074167.867 6 -17837260.855 6 -12816184.21548  21074161.37548
  21139567.703 6 -13068958.493 6 -15453354.49149  21139564.73049
 24 11 23  0 47  0.0000000  0  9G02G07G13G14G15G17G19G22G30         
  23941190.188 3   -112666.526 3                
  23430314.344 3  -6917835.063 3  -6323742.46847  23430310.60947
  21149193.063 6 -10521383.989 6  -6813707.98948  21149187.03948
  20816734.156 6 -22445853.651 6 -15278234.85048  20816727.95748
  22968358.578 5  -3290472.915 5  -2168370.52148  22968356.83648
  20155500.047 7 -25111688.239 7 -18409225.15049  20155493.49649
  21263872.250 6 -22640755.556 6 -16535710.69348  21263865.52348
  21075136.359 6 -17832171.115 6 -12812218.13148  21075129.16448
  21149496.836 6 -13016781.257 6 -15412696.89749  21149493.80549
 24 11 23  0 47 30.0000000  0  9G02G07G13G14G15G17G19G22G30         
  23949323.734 3    -69917.847 3                
  23446862.656 5  -6830871.752 5  -6255978.90448  23446859.33248
  21153251.305 6 -10500059.060 6  -6797091.13748  21153245.51648
  20821027.992 6 -22423285.887 6 -15260649.53748  20821022.49648
  22966859.375 5  -3298352.425 5  -2174510.35148  22966857.63348
  20155721.242 7 -25110527.073 7 -18408320.29249  20155714.34049
  21250351.547 6 -22711807.047 6 -16591075.38548  21250344.93848
  21076131.805 6 -17826939.991 6 -12808141.86548  21076124.37548
  21159505.375 6 -12964188.750 6 -15371715.72349  21159501.75849
 24 11 23  0 48  0.0000000  0  9G02G07G13G14G15G17G19G22G30         
  23957551.891 3    -26690.375 3                
  23463463.664 5  -6743636.026 5  -6188003.08648  23463459.98848
  21157419.773 6 -10478150.823 6  -6780019.76648  21157414.45348
  20825352.484 6 -22400560.559 6 -15242941.45548  20825346.40248
  22965470.117 5  -3305656.180 5  -2180201.53348  22965467.26248
  20156040.711 7 -25108847.371 7 -18407011.36749  20156034.04349
  21236905.141 6 -22782468.415 6 -16646136.10048  21236898.64848
  21077153.859 6 -17821567.530 6 -12803955.47348  21077146.84048
  21169592.492 6 -12911180.630 6 -15330410.69849  21169588.81649
 24 11 23  0 48 30.0000000  0  9G02G07G13G14G15G17G19G22G30         
  23965868.391 4     17014.790 4                
  23480115.641 5  -6656129.553 5  -6119816.29948  23480111.37948
  21161699.680 7 -10455661.287 7  -6762495.43748  21161694.30148
  20829706.977 6 -22377678.046 6 -15225110.89548  20829701.77348
  22964189.359 5  -3312384.732 5  -2185444.49747  22964186.85547
  20156458.758 7 -25106650.380 7 -18405299.36849  20156451.97349
  21223533.297 6 -22852738.420 6 -16700891.84248  21223526.68848
  21078203.055 7 -17816054.513 7 -12799659.56848  21078196.27048
  21179758.281 6 -12857757.474 6 -15288782.24649  21179754.72349
 24 11 23  0 49  0.0000000  0 10G02G06G07G13G14G15G17G19G22G30      
  23974275.063 3     61198.686 3  -1930153.20255  23974269.85955
  24704740.20311                                
  23496818.875 5  -6568351.473 5  -6051417.87747  23496815.08247
  21166090.539 6 -10432588.724 6  -6744516.80248  21166084.10548
  20834091.906 6 -22354636.524 6 -15207156.42648  20834086.11748
  22963017.781 4  -3318536.216 4  -2190237.79847  22963015.80547
  20156975.438 7 -25103935.048 7 -18403183.46849  20156968.65249
  21210236.359 6 -22922613.624 6 -16755339.94148  21210229.34048
  21079279.313 6 -17810399.409 6 -12795252.93948  21079272.35248
  21190003.789 6 -12803917.529 6 -15246829.05849  21190000.23049
 24 11 23  0 49 30.0000000  0 10G02G06G07G13G14G15G17G19G22G30      
  23982772.289 1    105857.358 1  -1895354.18045  23982769.66845
  24685337.852 2     59254.664 2  -1179956.44656  24685338.68856
  23513572.992 5  -6480305.707 5  -5982810.81947  23513569.60947
  21170591.078 7 -10408937.581 7  -6726087.31748  21170585.17248
  20838505.828 6 -22331438.944 6 -15189080.36148  20838499.80548
  22961956.836 5  -3324113.886 5  -2194583.97648  22961955.79748
  20157590.344 7 -25100705.221 7 -18400666.67549  20157583.61749
  21197015.078 6 -22992095.406 6 -16809481.47948  21197006.41848
  21080381.219 7 -17804605.891 7 -12790738.46348  21080374.78548
  21200328.148 7 -12749664.080 7 -15204553.63349  21200323.71149
 24 11 23  0 50  0.0000000  0 10G02G06G07G13G14G15G17G19G22G30      
  23991363.008 2    150992.156 2  -1860184.09245  23991358.80545
  24665914.781 3    -42813.208 3  -1259489.44346  24665917.43446
  23530378.938 4  -6391990.931 4  -5913994.15147  23530376.60947
  21175201.539 6 -10384706.748 6  -6707206.12148  21175196.21948
  20842950.594 6 -22308083.100 6 -15170880.97548  20842944.68848
  22961004.336 4  -3329116.058 4  -2198481.72447  22961003.47347
  20158303.289 7 -25096959.261 7 -18397747.69149  20158296.44549
  21183867.836 6 -23061179.855 6 -16863313.41948  21183860.23048
  21081510.883 6 -17798671.926 6 -12786114.54548  21081503.98048
  21210731.180 6 -12694995.102 6 -15161954.40749  21210726.97749
 24 11 23  0 50 30.0000000  0 10G02G06G07G13G14G15G17G19G22G30      
  24000042.250 2    196600.181 2  -1824645.31645  24000037.69545
  24646473.398 4   -144974.667 4  -1339095.41846  24646478.92246
  23547235.531 5  -6303409.866 5  -5844969.98348  23547232.85248
  21179922.500 6 -10359898.823 6  -6687875.25748  21179917.06348
  20847424.688 6 -22284570.671 6 -15152559.56148  20847419.07448
  22960162.016 4  -3333544.380 4  -2201932.32747  22960159.86347
  20159112.953 7 -25092700.027 7 -18394428.76949  20159106.40249
  21170797.688 6 -23129867.128 6 -16916835.86748  21170788.79348
  21082665.773 7 -17792599.781 7 -12781382.95448  21082659.39848
  21221213.289 7 -12639912.410 7 -15119032.84949  21221208.85249
 24 11 23  0 51  0.0000000  0 10G02G06G07G13G14G15G17G19G22G30      
  24008810.492 1    242681.365 1  -1788737.78945  24008806.28945
  24627014.656 4   -247226.199 4  -1418771.56346  24627021.11746
  23564142.430 4  -6214563.199 4  -5775738.85947  23564139.51647
  21184753.195 6 -10334514.230 6  -6668095.03148  21184747.52348
  20851929.055 6 -22260901.015 6 -15134115.62448  20851922.68048
  22959429.180 4  -3337398.420 4  -2204935.39347  22959426.67647
  20160021.648 7 -25087927.474 7 -18390709.85249  20160014.74649
  21157802.156 6 -23198155.058 6 -16970047.14048  21157794.66848
  21083847.805 6 -17786389.058 6 -12776543.37648  21083841.84048
  21231774.313 6 -12584415.644 6 -15075788.62849  21231768.75849
 24 11 23  0 51 30.0000000  0 10G02G06G07G13G14G15G17G19G22G30      
  24017667.570 1    289234.692 1                
  24607537.492 3   -349564.868 3  -1498515.59746  24607545.00846
  23581100.211 5  -6125451.831 5  -5706301.47747  23581097.18047
  21189692.781 7 -10308554.155 7  -6647866.40048  21189687.99248
  20856463.008 6 -22237074.145 6 -15115549.18348  20856457.57048
  22958804.789 5  -3340679.025 5  -2207491.62847  22958802.63747
  20161027.219 7 -25082642.531 7 -18386591.67049  20161020.08249
  21144883.031 6 -23266041.931 6 -17022945.90548  21144876.36348
  21085056.516 6 -17780040.531 6 -12771596.43148  21085048.61748
  21242413.023 6 -12528505.181 6 -15032222.02849  21242408.70349
 24 11 23  0 52  0.0000000  0 10G02G06G07G13G14G15G17G19G22G30      
  24026617.359 1    336258.603 1                
  24588046.492 3   -451987.870 3  -1578325.39246  24588051.60546
  23598106.813 4  -6036077.128 4  -5636658.89047  23598103.95747
  21194742.875 7 -10282019.960 7  -6627190.40747  21194736.55947
  20861027.227 6 -22213090.424 6 -15096860.54248  20861021.20348
  22958289.461 5  -3343386.941 5  -2209601.61147  22958286.84047
  20162130.320 7 -25076846.509 7 -18382075.25349  20162123.53549
  21132041.438 6 -23333526.829 6 -17075531.43948  21132034.71148
  21086290.164 7 -17773554.709 7 -12766542.48348  21086282.67648
  21253130.961 6 -12472181.574 6 -14988333.51649  21253126.87549
 24 11 23  0 52 30.0000000  0 10G02G06G07G13G14G15G17G19G22G30      
  24035656.344 1    383751.312 1                
  24568539.961 3   -554493.323 3  -1658199.40147  24568546.12947
  23615163.711 3  -5946441.045 3  -5566812.62947  23615161.26647
  21199900.852 6 -10254913.562 6  -6606068.53448  21199894.94548
  20865620.922 6 -22188950.722 6 -15078050.34248  20865614.78148
  22957883.250 5  -3345523.262 5  -2211266.20947  22957880.21947
  20163330.195 7 -25070541.173 7 -18377161.97449  20163323.17649
  21119276.328 6 -23400609.113 6 -17127803.25148  21119268.95748
  21087550.133 7 -17766933.229 7 -12761382.83448  21087543.75848
  21263927.406 6 -12415445.998 6 -14944123.97149  21263923.61349
 24 11 23  0 53  0.0000000  0 10G02G06G07G13G14G15G17G19G22G30      
  24044780.79711    431711.65411                
  24549017.305 3   -657078.143 3  -1738135.20446  24549025.46546
  23632270.359 3  -5856544.957 3  -5496763.75847  23632268.26647
  21205167.719 6 -10227236.597 6  -6584502.05948  21205161.69548
  20870243.430 6 -22164655.116 6 -15059118.68248  20870238.40648
  22957583.398 4  -3347088.298 4  -2212485.66347  22957583.35547
  20164627.266 7 -25063727.528 7 -18371852.57749  20164619.71949
  21106587.953 6 -23467287.154 6 -17179760.06448  21106580.58248
  21088835.938 7 -17760176.025 7 -12756117.46248  21088829.03548
  21274801.313 6 -12358298.961 6 -14899593.79349  21274798.80949
 24 11 23  0 53 30.0000000  0 10G02G06G07G13G14G15G17G19G22G30      
  24053995.516 1    480138.753 1                
  24529481.438 3   -759739.298 3  -1818130.46247  24529488.60247
  23649428.016 3  -5766389.519 3  -5426512.85147  23649424.16447
  21210542.703 6 -10198989.852 6  -6562491.59748  21210537.03148
  20874896.953 6 -22140203.433 6 -15040065.39248  20874891.04748
  22957394.914 4  -3348082.675 4  -2213260.46047  22957393.28947
  20166019.539 7 -25056406.415 7 -18366147.76749  20166012.98849
  21093976.883 6 -23533559.278 6 -17231400.56048  21093969.16048
  21090147.469 7 -17753283.825 7 -12750746.86648  21090139.98048
  21285754.836 6 -12300740.588 6 -14854743.11649  21285751.98049
 24 11 23  0 54  0.0000000  0 10G02G06G07G13G14G15G17G19G22G30      
  24063299.797 1    529030.088 1                
  24509931.375 4   -862475.002 4  -1898183.78447  24509936.31347
  23666631.297 1  -5675977.403 1  -5356061.92747  23666629.43847
  21216025.977 7 -10170175.762 7  -6540039.03848  21216019.89548
  20879579.547 6 -22115597.017 6 -15020891.52648  20879573.46548
  22957314.375 5  -3348507.977 5  -2213591.78847  22957312.39847
  20167509.070 7 -25048580.060 7 -18360049.25249  20167501.81649
  21081442.031 6 -23599425.604 6 -17282724.87448  21081434.77748
  21091484.414 6 -17746258.257 6 -12745272.34348  21091476.75048
  21296786.031 6 -12242772.565 6 -14809573.22549  21296783.00049
 24 11 23  0 54 30.0000000  0 10G02G06G07G13G14G15G17G19G22G30      
  24072692.727 3    578384.131 3                
  24490367.961 4   -965282.977 4  -1978293.39547  24490372.02047
  23683884.930 1  -5585310.523 1  -5285412.46446  23683882.48446
  21221616.867 6 -10140796.585 6  -6517146.15248  21221610.90248
  20884291.211 6 -22090836.428 6 -15001597.53448  20884285.12948
  22957341.375 5  -3348365.605 5  -2213480.77947  22957339.22347
  20169094.047 7 -25040249.847 7 -18353558.12749  20169087.14549
  21068985.578 6 -23664885.010 6 -17333732.08748  21068978.61748
  21092846.625 7 -17739100.390 7 -12739694.73348  21092839.31348
  21307894.820 6 -12184395.842 6 -14764084.88149  21307891.55549
 24 11 23  0 55  0.0000000  0 10G02G06G07G13G14G15G17G19G22G30      
  24082171.172 2    628201.134 2                
  24470791.672 5  -1068158.721 5  -2058455.82647  24470794.44147
  23701185.72711 -41729048.38211 -33449364.04356  23701185.50856
  21227314.758 6 -10110851.695 6  -6493812.46248  21227309.14548
  20889032.461 6 -22065920.105 6 -14982182.19148  20889026.61348
  22957477.234 5  -3347654.692 5  -2212926.73647  22957474.32047
  20170775.266 7 -25031415.511 7 -18346674.17149  20170767.95349
  21056606.664 6 -23729934.793 6 -17384420.13648  21056600.75848
  21094234.055 7 -17731808.999 7 -12734013.09248  21094227.09448
  21319081.383 6 -12125609.436 6 -14718277.29149  21319078.11749
 24 11 23  0 55 30.0000000  0 10G02G06G07G13G14G15G17G19G22G30      
  24091740.008 2    678478.776 2                
  24451203.422 5  -1171100.514 5  -2138669.72647  24451205.84047
  23718536.37511 -41637873.34811 -33378318.60556  23718534.98456
  21233120.727 6 -10080343.923 6  -6470040.16048  21233114.17648
  20893803.313 6 -22040849.345 6 -14962646.49348  20893796.99648
  22957719.961 5  -3346376.832 5  -2211930.96447  22957718.57047
  20172551.492 7 -25022079.797 7 -18339399.52249  20172544.47349
  21044306.211 6 -23794574.632 6 -17434788.75348  21044299.60248
  21095646.977 6 -17724385.938 6 -12728228.84648  21095639.66448
  21330345.547 6 -12066414.950 6 -14672151.72249  21330341.63749
 24 11 23  0 56  0.0000000  0 10G02G06G07G13G14G15G17G19G22G30      
  24101395.266 2    729215.353 2                
  24431601.102 5  -1274105.444 5  -2218932.82647  24431604.45747
  23735935.59411 -41546446.79911 -33307077.17256  23735932.62156
  21239032.617 6 -10049274.898 6  -6445830.53347  21239026.65247
  20898603.977 6 -22015624.235 6 -14942990.51448  20898597.07448
  22958070.961 5  -3344532.628 5  -2210493.85747  22958068.22347
  20174423.391 7 -25012243.573 7 -18331734.87349  20174415.84449
  21032083.820 6 -23858803.336 6 -17484837.00348  21032077.09448
  21097083.727 7 -17716831.862 7 -12722342.51248  21097076.47348
  21341687.758 6 -12006812.952 6 -14625708.61349  21341683.67249
 24 11 23  0 56 30.0000000  0 10G02G06G07G13G14G15G17G19G22G30      
  24111137.094 1    780410.415 1                
  24411987.625 5  -1377170.012 5  -2299242.43147  24411991.56647
  23753381.52311 -43030189.44611 -34463240.30556  23753379.84056
  21245051.281 6 -10017645.243 6  -6421184.05848  21245046.31648
  20903432.664 6 -21990244.272 6 -14923213.88648  20903427.16848
  22958528.625 5  -3342122.556 5  -2208615.82247  22958526.29747
  20176389.891 7 -25001907.247 7 -18323680.53549  20176382.93049
  21019940.727 7 -23922618.894 7 -17534563.31748  21019933.00448
  21098546.156 6 -17709146.500 6 -12716353.85748  21098538.84448
  21353106.734 6 -11946803.439 6 -14578947.94149  21353103.29349
 24 11 23  0 57  0.0000000  0 10G02G06G07G13G14G15G17G19G22G30      
  24120965.96111                                
  24392365.117 5  -1480286.485 5  -2379592.55447  24392367.94547
  23770875.734 2 -42938257.924 2 -34391605.36746  23770873.58246
  21251177.297 6  -9985451.654 6  -6396098.14848  21251172.15648
  20908293.000 6 -21964704.785 6 -14903312.93448  20908286.97748
  22959096.211 5  -3339142.683 5  -2206293.74747  22959093.76647
  20178453.617 7 -24991066.984 7 -18315233.51849  20178445.89549
  21007876.563 6 -23986015.299 6 -17583963.01348  21007868.84048
  21100034.516 7 -17701325.353 7 -12710259.41248  21100027.55548
  21364604.414 6 -11886382.148 6 -14531866.40949  21364601.55949
 24 11 23  0 57 30.0000000  0  9G06G07G13G14G15G17G19G22G30         
  24372730.359 5  -1583461.869 5  -2459988.55347  24372734.06647
  23788417.211 2 -42846083.356 2 -34319781.07745  23788414.06345
  21257408.867 6  -9952705.735 6  -6370581.85948  21257403.13748
  20913180.898 6 -21939015.685 6 -14883295.39848  20913175.22748
  22959769.805 5  -3335603.538 5  -2203535.90247  22959767.12547
  20180609.773 7 -24979734.773 7 -18306403.17149  20180602.57849
  20995890.914 6 -24049001.451 6 -17633043.02148  20995882.43048
  21101546.813 7 -17693379.128 7 -12704067.50048  21101539.85248
  21376179.336 6 -11825559.624 6 -14484472.22749  21376175.83649
 24 11 23  0 58  0.0000000  0 10G02G06G07G13G14G15G17G19G22G30      
  24140888.22711                                
  24353087.352 5  -1686688.250 5  -2540424.30947  24353089.53547
  23806003.641 1 -42753661.989 1                
  21263746.016 6  -9919404.205 6  -6344632.61248  21263740.28548
  20918098.672 6 -21913172.115 6 -14863157.49348  20918093.00048
  22960550.305 6  -3331501.142 6  -2200339.13548  22960548.03548
  20182860.227 7 -24967906.553 7 -18297186.33149  20182853.14849
  20983983.836 6 -24111571.027 6 -17681798.44648  20983976.05548
  21103083.563 7 -17685303.327 7 -12697774.62248  21103076.30948
  21387830.305 6 -11764331.590 6 -14436762.04849  21387826.57049
 24 11 23  0 58 30.0000000  0  9G02G06G13G14G15G17G19G22G30         
  24150970.648 1   -519574.143 1                
  24333432.133 5  -1789974.902 5  -2620907.02247  24333436.01647
  21270185.953 6  -9885560.873 6  -6318261.17848  21270180.16448
  20923044.570 6 -21887186.319 6 -14842908.77248  20923038.37148
  22961435.227 6  -3326848.350 6  -2196713.52748  22961433.30948
  20185203.008 7 -24955595.537 7 -18287593.27749  20185196.39849
  20972154.344 6 -24173735.082 6 -17730237.83948  20972146.73848
  21104642.570 7 -17677110.473 7 -12691390.52648  21104635.02348
  21399556.406 6 -11702710.703 6 -14388745.75649  21399553.08249
 24 11 23  0 59  0.0000000  0  9G02G06G13G14G15G17G19G22G30         
  24161145.727 1   -466104.996 1                
  24313771.039 4  -1893291.727 4  -2701413.26547  24313774.80547
  21276734.383 6  -9851149.758 6  -6291447.32248  21276728.47748
  20928020.922 6 -21861031.240 6 -14822528.17248  20928015.01648
  22962430.656 6  -3321619.005 6  -2192638.63548  22962426.74648
  20187642.797 7 -24942775.810 7 -18277603.84849  20187635.71949
  20960407.594 6 -24235465.053 6 -17778339.01448  20960400.16448
  21106228.938 7 -17668774.233 7 -12684894.69848  21106221.97748
  21411361.969 6 -11640670.572 6 -14340402.79649  21411358.99649
 24 11 23  0 59 30.0000000  0  9G02G06G13G14G15G17G19G22G30         
  24171403.883 1   -412187.807 1                
  24294101.063 3  -1996652.837 3  -2781954.01247  24294105.18047
  21283386.203 6  -9816189.727 6  -6264205.72248  21283381.64848
  20933027.688 6 -21834723.959 6 -14802028.95148  20933021.37148
  22963532.188 6  -3315830.725 6  -2188128.19348  22963529.15648
  20190175.461 7 -24929466.123 7 -18267232.62349  20190168.14849
  20948739.984 6 -24296776.857 6 -17826114.35448  20948732.26248
  21107839.141 7 -17660311.674 7 -12678300.45348  21107832.00448
  21423243.531 6 -11578228.887 6 -14291746.94649  21423240.85249
 24 11 23  1  0  0.0000000  0  9G02G06G13G14G15G17G19G22G30         
  24181753.51611                                
  24274425.391 2  -2100046.780 2  -2862520.37147  24274428.16047
  21290145.086 6  -9780674.201 6  -6236531.30848  21290139.64848
  20938064.078 6 -21808256.119 6 -14781404.60748  20938058.52348
  22964740.859 6  -3309476.617 6  -2183176.86148  22964738.64848
  20192803.016 7 -24915659.393 7 -18256474.08949  20192795.29349
  20937153.891 6 -24357661.213 6 -17873556.62348  20937146.10948
  21109474.914 7 -17651715.599 7 -12671602.17548  21109467.83648
  21435203.875 6 -11515377.945 6 -14242772.19049  21435201.07849
 24 11 23  1  0 30.0000000  0  8G06G13G14G15G17G19G22G30            
  24254740.594 2  -2203485.299 2  -2943121.42247  24254742.54347
  21297005.672 6  -9744619.670 6  -6208436.86448  21297000.64848
  20943127.969 6 -21781642.442 6 -14760666.63248  20943122.35548
  22966055.234 5  -3302572.255 5  -2177796.79848  22966051.85248
  20195521.578 7 -24901371.343 7 -18245340.48549  20195514.09049
  20925646.539 6 -24418131.416 6 -17920676.17048  20925639.05148
  21111133.172 7 -17643000.368 7 -12664811.02748  21111126.32848
  21447239.797 6 -11452133.085 6 -14193490.46149  21447236.53149
 24 11 23  1  1  0.0000000  0  8G06G13G14G15G17G19G22G30            
  24235051.656 2  -2306957.567 2  -3023748.78247  24235053.02047
  21303970.828 6  -9708019.441 6  -6179917.21948  21303965.50848
  20948222.328 6 -21754875.141 6 -14739808.94748  20948215.83648
  22967475.680 5  -3295111.042 5  -2171982.81248  22967471.65248
  20198332.969 7 -24886595.411 7 -18233826.73149  20198325.94949
  20914220.109 6 -24478178.611 6 -17967466.09048  20914212.62148
  21112815.867 6 -17634158.788 6 -12657921.43948  21112809.19948
  21459351.578 6 -11388487.163 6 -14143896.23449  21459348.31349
 24 11 23  1  1 30.0000000  0  8G06G13G14G15G17G19G22G30            
  24215354.625 3  -2410462.721 3  -3104401.77647  24215356.63347
  21311038.484 6  -9670877.730 6  -6150975.64147  21311033.34447
  20953344.516 6 -21727956.279 6 -14718833.16548  20953338.25848
  22968999.930 5  -3287095.258 5  -2165736.68747  22968997.07447
  20201236.969 7 -24871335.407 7 -18221935.76749  20201229.59849
  20902874.195 6 -24537803.520 6 -18013926.96448  20902866.06348
  21114521.695 7 -17625193.480 7 -12650935.44548  21114514.79348
  21471538.781 6 -11324442.977 6 -14093991.65349  21471535.39849
 24 11 23  1  2  0.0000000  0  9G02G06G13G14G15G17G19G22G30         
  24223978.80511   -217624.29011                
  24195650.977 3  -2514004.170 3  -3185083.05147  24195653.04347
  21318208.000 6  -9633202.668 6  -6121618.47147  21318202.68047
  20958494.867 6 -21700892.409 6 -14697744.39548  20958488.90248
  22970629.336 5  -3278532.673 5  -2159064.51147  22970626.59847
  20204231.813 7 -24855598.994 7 -18209673.58249  20204224.26649
  20891607.055 6 -24597011.695 6 -18060063.10148  20891599.15648
  21116250.508 7 -17616111.512 7 -12643858.53748  21116242.96148
  21483800.172 6 -11260007.726 6 -14043782.35049  21483797.66849
 24 11 23  1  2 30.0000000  0  9G02G06G13G14G15G17G19G22G30         
  24234746.234 1   -161042.357 1                
  24175944.352 3  -2617560.590 3  -3265776.04347  24175946.65247
  21325481.914 6  -9594977.933 6  -6091832.95647  21325476.83247
  20963675.453 6 -21673665.278 6 -14676528.44848  20963669.54748
  22972366.031 5  -3269406.482 5  -2151953.13647  22972363.05947
  20207319.875 7 -24839369.263 7 -18197027.00549  20207312.79749
  20880423.000 6 -24655783.771 6 -18105859.42848  20880415.33648
  21118003.836 7 -17606894.928 7 -12636676.73848  21117996.40648
  21496139.148 6 -11195163.906 6 -13993254.69849  21496136.70349
 24 11 23  1  3  0.0000000  0  9G02G06G13G14G15G17G19G22G30         
  24245595.55511   -104020.69411                
  24156234.797 4  -2721137.970 4  -3346485.32347  24156236.74647
  21332858.578 6  -9556213.667 6  -6061627.03148  21332853.61348
  20968885.883 6 -21646283.652 6 -14655192.08648  20968880.32848
  22974208.094 5  -3259726.209 5  -2144410.03347  22974204.53547
  20210500.344 7 -24822656.606 7 -18184004.11149  20210492.91449
  20869320.664 6 -24714127.546 6 -18151322.00848  20869312.82448
  21119781.664 7 -17597553.519 7 -12629397.66448  21119773.94148
  21508554.391 6 -11129921.063 6 -13942416.11249  21508551.59449
 24 11 23  1  3 30.0000000  0  9G02G06G13G14G15G17G19G22G30         
  24256530.648 1    -46563.868 1                
  24136520.234 4  -2824736.793 4  -3427211.31247  24136522.00847
  21340336.969 6  -9516915.477 6  -6031005.06447  21340331.47347
  20974125.641 6 -21618751.116 6 -14633738.11648  20974119.20748
  22976155.813 5  -3249496.657 5  -2136438.86347  22976150.90647
  20213771.609 7 -24805465.935 7 -18170608.74249  20213763.94549
  20858299.180 6 -24772045.350 6 -18196452.68848  20858291.28148
  21121581.906 7 -17588090.190 7 -12622023.59948  21121574.06648
  21521045.031 6 -11064283.534 6 -13891270.00549  21521041.29749
 24 11 23  1  4  0.0000000  0  9G02G06G13G14G15G17G19G22G30         
  24267547.023 1     11328.051 1                
  24116802.031 3  -2928352.293 3  -3507950.34047  24116804.80147
  21347917.000 7  -9477083.412 7  -5999967.08848  21347911.03548
  20979393.102 6 -21591066.072 6 -14612165.30648  20979387.31348
  22978205.984 4  -3238717.339 4  -2128039.37347  22978202.83647
  20217133.383 7 -24787797.041 7 -18156840.72649  20217126.53949
  20847358.859 6 -24829534.451 6 -18241249.29548  20847351.13748
  21123406.500 7 -17578504.130 7 -12614553.89048  21123398.83648
  21533610.008 6 -10998250.517 6 -13839815.71549  21533606.85949
 24 11 23  1  4 30.0000000  0  9G02G06G13G14G15G17G19G22G30         
  24278644.531 1     69654.900 1                
  24097083.063 3  -3031980.087 3  -3588698.96347  24097084.13347
  21355597.883 6  -9436718.148 6  -5968513.65648  21355592.09448
  20984690.891 6 -21563227.000 6 -14590472.48848  20984685.33648
  22980362.883 5  -3227387.943 5  -2119211.25047  22980359.09047
  20220587.227 7 -24769649.879 7 -18142700.02549  20220579.79749
  20836501.336 6 -24886592.646 6 -18285710.13848  20836493.55548
  21125254.289 6 -17568794.225 6 -12606987.66848  21125246.56648
  21546251.148 6 -10931821.312 6 -13788052.68548  21546248.00048
 24 11 23  1  5  0.0000000  0  9G02G06G13G14G15G17G19G22G30         
  24289828.14111                                
  24077364.289 4  -3135610.438 4  -3669449.58347  24077363.83647
  21363382.211 7  -9395814.834 7  -5936640.93348  21363375.83648
  20990019.367 6 -21535227.240 6 -14568654.47048  20990013.05148
  22982623.930 5  -3215502.899 5  -2109950.12347  22982621.66047
  20224132.734 7 -24751019.145 7 -18128182.50949  20224124.71949
  20825727.438 7 -24943212.129 7 -18329829.13548  20825719.01248
  21127126.563 7 -17558954.835 7 -12599320.56048  21127119.01648
  21558968.984 6 -10864990.048 6 -13735976.36749  21558965.30949
 24 11 23  1  5 30.0000000  0  9G02G06G13G14G15G17G19G22G30         
  24301093.03111                                
  24057639.602 4  -3239257.873 4  -3750213.52747  24057640.55547
  21371264.023 7  -9354392.460 7  -5904363.75848  21371257.94148
  20995374.578 6 -21507084.315 6 -14546724.89847  20995367.96947
  22984988.250 5  -3203080.960 5  -2100270.64647  22984985.51247
  20227766.094 7 -24731923.587 7 -18113302.79049  20227758.78149
  20815032.547 6 -24999409.475 6 -18373619.17648  20815024.70748
  21129019.898 6 -17549003.167 6 -12591565.94848  21129012.82048
  21571759.695 6 -10797775.139 6 -13683601.10449  21571756.48849
 24 11 23  1  6  0.0000000  0  8G06G13G14G15G17G19G22G30            
  24037914.000 2  -3342908.578 2  -3830980.02847  24037916.24247
  21379247.164 7  -9312442.748 7  -5871675.67948  21379241.19948
  21000759.195 6 -21478787.554 6 -14524675.44248  21000753.28948
  22987456.781 5  -3190112.842 5  -2090165.57047  22987452.22747
  20231489.602 7 -24712354.850 7 -18098054.38349  20231482.69949
  20804421.586 7 -25055172.893 7 -18417071.09048  20804412.98448
  21130937.023 6 -17538929.280 6 -12583716.10748  21130930.12148
  21584624.805 6 -10730166.719 6 -13630919.21949  21584621.83249
 24 11 23  1  6 30.0000000  0  8G06G13G14G15G17G19G22G30            
  24018191.211 3  -3446560.028 3  -3911747.11147  24018190.69947
  21387329.898 7  -9269967.984 7  -5838578.46148  21387323.58248
  21006173.305 6 -21450337.335 6 -14502506.42048  21006166.93048
  22990026.195 4  -3176600.337 4  -2079636.30847  22990024.39547
  20235303.516 7 -24692314.277 7 -18082438.30949  20235296.37949
  20793892.875 7 -25110501.746 7 -18460184.38148  20793884.62548
  21132877.305 7 -17528733.931 7 -12575771.61648  21132869.64148
  21597564.602 6 -10662166.146 6 -13577931.75749  21597562.50849
 24 11 23  1  7  0.0000000  0  8G06G13G14G15G17G19G22G30            
  23998467.445 4  -3550210.206 4  -3992513.21447  23998467.52047
  21395512.000 7  -9226971.083 7  -5805074.40348  21395505.80148
  21011616.195 6 -21421734.806 6 -14480218.69548  21011610.11348
  22992700.352 4  -3162545.554 4  -2068684.52747  22992698.14147
  20239206.172 7 -24671804.929 7 -18066456.95049  20239198.85949
  20783447.156 7 -25165396.369 7 -18502959.32848  20783438.90648
  21134840.195 7 -17518418.553 7 -12567733.59648  21134832.94148
  21610579.555 6 -10593775.416 6 -13524640.27149  21610576.28949
 24 11 23  1  7 30.0000000  0  8G06G13G14G15G17G19G22G30            
  23978743.898 4  -3653855.891 4  -4073275.82247  23978743.68047
  21403792.859 7  -9183453.950 7  -5771164.94547  21403786.89547
  21017088.063 6 -21392979.686 6 -14457812.06148  21017081.86348
  22995477.594 2  -3147949.638 2  -2057311.02947  22995475.73447
  20243197.516 7 -24650828.241 7 -18050111.42149  20243190.37949
  20773082.898 7 -25219855.691 7 -18545395.08148  20773074.94148
  21136825.813 7 -17507983.366 7 -12559602.22248  21136818.67648
  21623668.602 6 -10524995.173 6 -13471045.27649  21623664.39849
 24 11 23  1  8  0.0000000  0  8G06G13G14G15G17G19G22G30            
  23959019.352 2  -3757493.003 2  -4154031.77447  23959021.77047
  21412172.797 6  -9139417.726 6  -5736851.01648  21412166.71548
  21022589.375 6 -21364071.029 6 -14435285.80348  21022582.94148
  22998360.781 4  -3132813.037 4  -2045516.29047  22998356.93047
  20247278.289 7 -24629384.266 7 -18033401.78149  20247271.09449
  20762802.820 7 -25273877.967 7 -18587490.25048  20762794.68848
  21138834.273 7 -17497427.840 7 -12551377.07648  21138827.31348
  21636830.664 6 -10455825.463 6 -13417146.80149  21636826.93049
 24 11 23  1  8 30.0000000  0  8G06G13G14G15G17G19G22G30            
  23939300.398 2  -3861120.525 2  -4234780.24247  23939301.46947
  21420650.609 7  -9094866.418 7  -5702135.72448  21420644.29348
  21028119.391 6 -21335010.782 6 -14412641.42048  21028112.66448
  23001341.039 4  -3117139.046 4  -2033302.77547  23001339.00447
  20251446.758 7 -24607476.831 7 -18016331.01149  20251439.97349
  20752605.156 6 -25327464.253 6 -18629245.71348  20752597.84448
  21140865.313 7 -17486754.150 7 -12543059.86448  21140858.11748
  21650067.422 6 -10386269.087 6 -13362947.05049  21650063.04349
 24 11 23  1  9  0.0000000  0  8G06G13G14G15G17G19G22G30            
  23919583.633 2  -3964734.126 2  -4315517.83747  23919584.17647
  21429226.000 7  -9049800.731 7  -5667019.59548  21429220.50448
  21033678.109 6 -21305797.633 6 -14389877.88848  21033671.85248
  23004426.859 5  -3100928.067 5  -2020670.81747  23004424.12147
  20255703.969 7 -24585106.272 7 -17998899.35949  20255696.59849
  20742491.641 6 -25380612.207 6 -18670659.61248  20742484.03548
  21142919.438 7 -17475961.586 7 -12534650.02548  21142911.77348
  21663376.656 6 -10316325.836 6 -13308445.81749  21663373.33249
 24 11 23  1  9 30.0000000  0  8G06G13G14G15G17G19G22G30            
  23899868.750 3  -4068331.585 3  -4396242.93747  23899869.76247
  21437899.250 7  -9004223.834 7  -5631505.12448  21437893.98848
  21039265.484 6 -21276432.480 6 -14366995.90347  21039259.87147
  23007612.109 5  -3084182.039 5  -2007621.94047  23007610.42647
  20260048.297 7 -24562275.530 7 -17981109.13349  20260041.16049
  20732461.117 6 -25433322.087 6 -18711732.15748  20732453.62948
  21144995.023 6 -17465051.346 6 -12526148.49248  21144987.82848
  21676759.523 6 -10245997.601 6 -13253644.58648  21676756.72748
 24 11 23  1 10  0.0000000  0  8G06G13G14G15G17G19G22G30            
  23880160.141 3  -4171907.832 3  -4476951.48447  23880159.57047
  21446668.984 7  -8958135.518 7  -5595592.16048  21446664.72348
  21044883.547 6 -21246913.231 6 -14343993.83847  21044877.05547
  23010901.992 5  -3066900.747 5  -1994155.99447  23010898.49247
  20264480.813 7 -24538983.797 7 -17962959.69549  20264473.79349
  20722514.984 6 -25485590.853 6 -18752460.96248  20722506.96948
  21147093.453 7 -17454021.814 7 -12517554.00448  21147086.25848
  21690215.891 6 -10175283.271 6 -13198542.51249  21690212.91849
 24 11 23  1 10 30.0000000  0  8G06G13G14G15G17G19G22G30            
  23860453.906 4  -4275462.718 4  -4557643.36047  23860454.39147
  21455535.625 7  -8911540.740 7  -5559284.53948  21455531.12948
  21050529.211 6 -21217242.806 6 -14320873.99647  21050523.12947
  23014292.867 6  -3049088.573 6  -1980276.40047  23014287.54747
  20268999.805 7 -24515235.698 7 -17944454.64049  20268992.19949
  20712652.172 6 -25537420.700 6 -18792847.76848  20712644.39148
  21149214.953 6 -17442876.184 6 -12508869.03548  21149207.52348
  21703744.992 6 -10104186.909 6 -13143142.74549  21703741.90249
 24 11 23  1 11  0.0000000  0  8G06G13G14G15G17G19G22G30            
  23840752.273 3  -4378992.466 3  -4638315.61647  23840753.57847
  21464498.336 6  -8864441.205 6  -5522583.60547  21464492.95747
  21056204.828 6 -21187420.313 6 -14297635.65647  21056197.69147
  23017782.094 6  -3030745.973 6  -1965983.43847  23017777.83247
  20273605.891 7 -24491032.176 7 -17925594.70549  20273598.34449
  20702872.602 6 -25588810.125 6 -18832891.38448  20702864.87948
  21151358.086 7 -17431614.014 7 -12500093.27948  21151350.59848
  21717346.633 6 -10032708.562 6 -13087445.34649  21717344.30549
 24 11 23  1 11 30.0000000  0  8G06G13G14G15G17G19G22G30            
  23821057.398 3  -4482491.693 3  -4718964.14547  23821057.64847
  21473557.742 7  -8816836.696 7  -5485489.20347  21473551.83647
  21061909.070 6 -21157443.643 6 -14274277.16848  21061902.52048
  23021373.203 5  -3011872.356 5  -1951276.73047  23021369.52747
  20278298.094 7 -24466372.751 7 -17906379.52849  20278290.72349
  20693177.406 6 -25639756.038 6 -18872589.40848  20693169.91848
  21153523.320 6 -17420233.557 6 -12491225.35148  21153516.35948
  21731021.852 6  -9960847.202 6 -13031449.47149  21731019.17249
 24 11 23  1 12  0.0000000  0  9G02G06G13G14G15G17G19G22G30         
  24454820.65611    643721.49411                
  23801365.398 4  -4585970.719 4  -4799596.99247  23801365.23847
  21482709.602 7  -8768743.119 7  -5448013.69747  21482703.40247
  21067640.211 6 -21127326.132 6 -14250808.94348  21067633.25048
  23025062.328 5  -2992482.980 5  -1936168.11947  23025059.06347
  20283074.328 7 -24441272.790 7 -17886821.06049  20283066.72349
  20683565.359 6 -25690271.363 6 -18911951.90648  20683556.58248
  21155708.563 7 -17408748.642 7 -12482276.02348  21155701.77748
  21744766.898 6  -9888617.385 6 -12975166.48249  21744765.09849
 24 11 23  1 12 30.0000000  0  9G02G06G13G14G15G17G19G22G30         
  24467196.063 1    708753.199 1                
  23781682.500 3  -4689405.594 3  -4880195.43547  23781682.16447
  21491958.047 7  -8720141.690 7  -5410142.47548  21491952.43448
  21073401.898 6 -21097046.826 6 -14227214.64247  21073395.05547
  23028855.531 5  -2972558.088 5  -1920642.23347  23028851.50447
  20287938.391 7 -24415712.858 7 -17866904.17749  20287930.60949
  20674038.258 6 -25740334.214 6 -18950961.82148  20674030.00848
  21157918.445 6 -17397138.631 6 -12473229.22448  21157910.84048
  21758585.883 6  -9815999.171 6 -12918580.86249  21758583.32049
 24 11 23  1 13  0.0000000  0  9G02G06G13G14G15G17G19G22G30         
  24479647.813 1    774191.408 1                
  23762006.195 3  -4792799.653 3  -4960762.05447  23762007.03147
  21501302.008 7  -8671040.889 7  -5371882.09848  21501296.33648
  21079193.453 6 -21066611.999 6 -14203499.15048  21079186.60948
  23032748.023 5  -2952105.910 5  -1904705.50746  23032743.23446
  20292888.094 7 -24389700.946 7 -17846635.11549  20292880.66449
  20664596.813 6 -25789950.382 6 -18989623.67448  20664587.97748
  21160149.836 7 -17385410.052 7 -12464090.02348  21160142.40648
  21772477.070 6  -9743000.011 6 -12861698.40649  21772474.21549
 24 11 23  1 13 30.0000000  0  9G02G06G13G14G15G17G19G22G30         
  24492177.352 1    840030.465 1                
  23742338.977 3  -4896153.936 3  -5041297.67547  23742339.40247
  21510739.203 7  -8621447.189 7  -5333237.66448  21510733.94148
  21085014.203 6 -21036025.882 6 -14179665.78148  21085007.53548
  23036738.094 4  -2931132.153 4  -1888362.31947  23036734.47747
  20297922.742 7 -24363242.979 7 -17826018.46149  20297915.48849
  20655239.367 6 -25839123.494 6 -19027940.28748  20655230.88348
  21162403.719 7 -17373567.476 7 -12454862.00748  21162396.52348
  21786439.680 6  -9669625.331 6 -12804523.32049  21786436.23849
 24 11 23  1 14  0.0000000  0  8G06G13G14G15G17G19G22G30            
  23722682.414 4  -4999451.164 4  -5121788.88448  23722682.78148
  21520272.508 7  -8571348.580 7  -5294199.78748  21520267.30548
  21090865.227 6 -21005274.287 6 -14155703.46647  21090859.02747
  23040830.258 4  -2909624.792 4  -1871603.29747  23040827.22747
  20303044.758 7 -24336327.043 7 -17805044.96649  20303037.03549
  20645969.297 7 -25887838.511 7 -19065899.94548  20645960.75448
  21164681.797 7 -17361597.209 7 -12445534.48048  21164673.72348
  21800476.656 6  -9595862.103 6 -12747045.48949  21800472.45349
 24 11 23  1 14 30.0000000  0  8G06G13G14G15G17G19G22G30            
  23703032.906 4  -5102712.742 4  -5202252.24748  23703033.15648
  21529897.305 7  -8520771.693 7  -5254789.21748  21529891.51648
  21096744.289 6 -20974381.435 6 -14131631.07448  21096737.68048
  23045019.719 4  -2887609.327 4  -1854448.35547  23045016.33647
  20308248.961 7 -24308979.097 7 -17783734.83849  20308241.12149
  20636781.625 7 -25936119.227 7 -19103521.20548  20636773.08248
  21166979.430 7 -17349524.110 7 -12436126.82148  21166971.06348
  21814583.039 6  -9521735.704 6 -12689284.66449  21814578.36749
 24 11 23  1 15  0.0000000  0  8G06G13G14G15G17G19G22G30            
  23683392.977 5  -5205925.682 5  -5282677.71948  23683392.23048
  21539614.484 7  -8469709.247 7  -5215000.29448  21539608.46148
  21102651.875 6 -20943337.640 6 -14107441.07447  21102645.38347
  23049308.102 3  -2865077.793 3  -1836891.32647  23049304.95347
  20313536.523 7 -24281191.162 7 -17762081.85249  20313528.91849
  20627678.484 7 -25983955.398 7 -19140796.04848  20627670.29348
  21169297.797 7 -17337338.407 7 -12426631.42248  21169290.13348
  21828759.422 6  -9447237.652 6 -12631234.25549  21828755.57049
 24 11 23  1 15 30.0000000  0  8G06G13G14G15G17G19G22G30            
  23663762.281 5  -5309085.085 5  -5363061.46748  23663760.01248
  21549423.492 7  -8418162.066 7  -5174833.68148  21549417.05948
  21108588.469 6 -20912140.975 6 -14083131.94348  21108582.03548
  23053693.508 4  -2842030.057 4  -1818932.06346  23053689.83246
  20318907.969 7 -24252962.987 7 -17740085.82549  20318900.71549
  20618660.891 7 -26031344.225 7 -19177722.33148  20618652.28948
  21171638.773 7 -17325038.789 7 -12417047.27048  21171630.87548
  21843006.227 6  -9372367.274 6 -12572893.71049  21843002.90249
 24 11 23  1 16  0.0000000  0  8G06G13G14G15G17G19G22G30            
  23644141.570 5  -5412186.943 5  -5443400.35447  23644138.42247
  21559324.641 7  -8366131.453 7  -5134290.36248  21559318.03148
  21114553.945 6 -20880790.446 6 -14058702.92148  21114547.74648
  23058176.742 3  -2818466.988 3  -1800571.21946  23058174.23846
  20324363.508 7 -24224295.736 7 -17717747.67349  20324356.19549
  20609728.367 7 -26078284.441 7 -19214299.05148  20609720.58648
  21174000.586 7 -17312624.532 7 -12407373.78548  21173992.80548
  21857324.141 6  -9297124.833 6 -12514263.23649  21857321.52049
 24 11 23  1 16 30.0000000  0  8G06G13G14G15G17G19G22G30            
  23624532.859 4  -5515226.814 4  -5523690.93247  23624530.76647
  21569316.875 7  -8313618.440 7  -5093371.14647  21569311.49647
  21120548.547 6 -20849284.711 6 -14034152.98347  21120542.52347
  23062758.180 4  -2794389.289 4  -1781809.38246  23062755.44146
  20329902.133 7 -24195190.121 7 -17695067.92649  20329894.58649
  20600882.070 7 -26124774.171 7 -19250524.74348  20600873.41048
  21176384.828 6 -17300094.394 6 -12397609.99148  21176377.04748
  21871711.961 6  -9221510.272 6 -12455342.78548  21871710.16048
 24 11 23  1 17  0.0000000  0  8G06G13G14G15G17G19G22G30            
  23604935.727 4  -5618203.528 4  -5603932.30447  23604934.04347
  21579400.688 7  -8260627.214 7  -5052079.29347  21579395.07447
  21126574.195 6 -20817625.621 6 -14009483.52048  21126567.29348
  23067437.797 4  -2769800.744 4  -1762649.44246  23067434.00446
  20335523.617 7 -24165649.561 7 -17672049.24749  20335515.54349
  20592120.492 7 -26170814.831 7 -19286400.50748  20592112.18448
  21178790.859 6 -17287451.014 6 -12387757.94848  21178782.96148
  21886172.344 6  -9145526.728 6 -12396134.81648  21886169.84048
 24 11 23  1 17 30.0000000  0  8G06G13G14G15G17G19G22G30            
  23585352.750 5  -5721115.906 5  -5684123.51447  23585351.24247
  21589574.813 6  -8207162.029 6  -5010418.12248  21589569.14148
  21132627.109 6 -20785815.085 6 -13984696.06248  21132621.32048
  23072215.023 4  -2744704.838 4  -1743094.17646  23072209.64546
  20341226.836 7 -24135677.602 7 -17648694.42349  20341219.34849
  20583444.148 6 -26216407.780 6 -19321927.39948  20583435.54748
  21181217.008 7 -17274696.663 7 -12377819.43548  21181210.04748
  21900700.625 6  -9069177.374 6 -12336641.80648  21900697.71148
 24 11 23  1 18  0.0000000  0  8G06G13G14G15G17G19G22G30            
  23565782.547 5  -5823959.711 5  -5764261.23947  23565780.45347
  21599839.680 7  -8153224.540 7  -4968388.93548  21599833.18848
  21138709.617 6 -20753851.789 6 -13959789.57747  21138703.06647
  23077085.984 4  -2719102.439 4  -1723144.27046  23077081.84046
  20347012.313 7 -24105275.677 7 -17625004.58449  20347004.59049
  20574853.773 7 -26261551.369 7 -19357104.14248  20574844.70348
  21183665.602 6 -17261830.425 6 -12367793.72948  21183658.46548
  21915300.000 6  -8992462.277 6 -12276863.80449  21915296.50049
 24 11 23  1 18 30.0000000  0  8G06G13G14G15G17G19G22G30            
  23546225.383 5  -5926732.700 5  -5844343.78048  23546224.87148
  21610191.813 7  -8098817.839 7  -4925994.09647  21610186.43447
  21144821.219 6 -20721736.696 6 -13934764.80348  21144814.96148
  23082052.992 3  -2692996.119 3  -1702801.70446  23082050.37146
  20352878.563 7 -24074446.498 7 -17600981.81849  20352871.19149
  20566348.438 6 -26306245.852 6 -19391930.93348  20566339.60248
  21186135.938 6 -17248853.334 6 -12357681.66548  21186128.15648
  21929966.820 6  -8915383.621 6 -12216802.53748  21929963.61348
 24 11 23  1 19  0.0000000  0  8G06G13G14G15G17G19G22G30            
  23526683.445 5  -6029428.957 5  -5924366.56248  23526682.93448
  21620634.563 6  -8043941.517 6  -4883233.33948  21620630.12548
  21150962.266 6 -20689466.868 6 -13909619.45848  21150954.77748
  23087117.109 3  -2666384.854 3  -1682065.65746  23087114.02046
  20358826.930 7 -24043189.058 7 -17576625.34249  20358819.26649
  20557928.781 7 -26350488.065 7 -19426405.30548  20557920.47348
  21188626.406 7 -17235762.962 7 -12347481.33348  21188618.50848
  21944703.703 6  -8837940.004 6 -12156456.87548  21944699.96948
 24 11 23  1 19 30.0000000  0  8G06G13G14G15G17G19G22G30            
  23507155.461 5  -6132047.728 5  -6004328.98648  23507155.30148
  21631165.469 6  -7988600.956 6  -4840110.82247  21631160.38747
  21157131.430 6 -20657044.574 6 -13884355.32548  21157125.11348
  23092278.258 4  -2639273.259 4  -1660939.75347  23092273.70347
  20364855.758 7 -24011507.453 7 -17551938.34349  20364848.15249
  20549595.734 7 -26394279.876 7 -19460528.73348  20549587.01648
  21191138.961 7 -17222561.905 7 -12337194.73848  21191130.88748
  21959509.133 6  -8760135.011 6 -12095829.60048  21959505.16448
 24 11 23  1 20  0.0000000  0  8G06G13G14G15G17G19G22G30            
  23487641.500 5  -6234584.501 5  -6084227.49048  23487642.21948
  21641785.109 6  -7932796.879 6  -4796627.14347  21641780.08647
  21163330.336 6 -20624468.391 6 -13858971.26748  21163324.07848
  23097530.492 2  -2611661.878 2  -1639424.42446  23097527.87146
  20370965.344 7 -23979402.213 7 -17526921.22949  20370957.09449
  20541348.773 7 -26437619.657 7 -19494299.91848  20541339.70348
  21193671.688 7 -17209249.118 7 -12326821.08148  21193664.60948
  21974384.781 6  -8681968.490 6 -12034920.66048  21974379.46148
 24 11 23  1 20 30.0000000  0  8G06G13G14G15G17G19G22G30            
  23468145.117 5  -6337033.925 5  -6164057.94647  23468146.24647
  21652492.109 6  -7876529.448 6  -4752782.40147  21652486.32047
  21169559.070 6 -20591735.976 6 -13833465.46348  21169552.87148
  23102878.984 1  -2583550.285 1  -1617519.31946  23102876.59846
  20377155.000 7 -23946873.288 7 -17501573.97949  20377147.27749
  20533187.633 7 -26480504.520 7 -19527716.61448  20533179.09048
  21196227.141 7 -17195822.370 7 -12316358.63848  21196219.35948
  21989328.109 6  -8603439.607 6 -11973729.35248  21989323.08648
 24 11 23  1 21  0.0000000  0  8G06G13G14G15G17G19G22G30            
  23448666.789 4  -6439393.895 4  -6243818.68847  23448667.68447
  21663287.688 6  -7819802.612 6  -4708579.69547  21663280.96147
  21175817.336 6 -20558848.314 6 -13807838.69848  21175810.25848
  23108322.836 1  -2554941.623 1  -1595226.88246  23108321.15246
  20383424.664 7 -23913923.802 7 -17475899.01449  20383417.29349
  20525113.453 7 -26522934.707 7 -19560779.02948  20525104.73448
  21198803.430 7 -17182283.265 7 -12305808.64148  21198795.29748
  22004339.898 6  -8524550.787 6 -11912257.58448  22004335.69548
 24 11 23  1 21 30.0000000  0  8G06G13G14G15G17G19G22G30            
  23429206.000 5  -6541665.139 5  -6323510.26047  23429205.54747
  21674167.680 6  -7762622.632 6  -4664023.88047  21674161.94947
  21182105.047 6 -20525809.075 6 -13782093.80848  21182097.20748
  23113861.352 3  -2525841.828 3  -1572551.74246  23113857.96946
  20389773.984 7 -23880559.168 7 -17449900.56549  20389766.14549
  20517125.422 7 -26564914.453 7 -19593490.44048  20517116.35248
  21201400.453 7 -17168635.708 7 -12295174.11648  21201392.32048
  22019419.461 6  -8445307.172 6 -11850509.31648  22019415.66848
 24 11 23  1 22  0.0000000  0  8G06G13G14G15G17G19G22G30            
  23409762.867 5  -6643843.114 5  -6403129.15348  23409760.30548
  21685135.086 6  -7704990.485 6  -4619115.70847  21685129.35547
  21188420.875 6 -20492616.864 6 -13756229.73348  21188414.61748
  23119492.227 3  -2496251.269 3  -1549494.18747  23119489.25447
  20396202.258 7 -23846779.999 7 -17423579.10349  20396194.24249
  20509221.727 7 -26606441.643 7 -19625849.21148  20509213.12548
  21204017.594 6 -17154878.370 6 -12284454.06748  21204010.28148
  22034566.273 6  -8365708.768 6 -11788484.59848  22034563.77048
 24 11 23  1 22 30.0000000  0  8G06G13G14G15G17G19G22G30            
  23390336.391 5  -6745924.837 5  -6482673.04848  23390333.88748
  21696187.008 6  -7646909.153 6  -4573857.53747  21696182.16047
  21194766.484 6 -20459271.643 6 -13730246.40848  21194760.34448
  23125217.031 4  -2466172.251 4  -1526056.00846  23125213.88346
  20402708.180 7 -23812588.415 7 -17396936.26649  20402700.39849
  20501406.023 7 -26647515.826 7 -19657854.97748  20501397.30548
  21206657.031 7 -17141011.924 7 -12273649.02848  21206649.25048
  22049779.711 6  -8285757.022 6 -11726184.53248  22049778.73048
 24 11 23  1 23  0.0000000  0  8G06G13G14G15G17G19G22G30            
  23370930.219 5  -6847905.667 5  -6562138.29647  23370927.36347
  21707324.117 6  -7588379.864 6  -4528250.28847  21707319.91447
  21201141.070 6 -20425771.858 6 -13704142.64948  21201134.52048
  23131033.648 4  -2435605.491 4  -1502237.75946  23131030.96946
  20409293.281 7 -23777985.069 7 -17369972.58749  20409285.32449
  20493676.688 7 -26688135.580 7 -19689506.64348  20493667.67648
  21209316.805 7 -17127035.278 7 -12262758.09648  21209308.73048
  22065061.602 6  -8205451.780 6 -11663609.04448  22065059.80148
 24 11 23  1 23 30.0000000  0  8G06G13G14G15G17G19G22G30            
  23351544.063 5  -6949781.708 5  -6641521.89647  23351541.91047
  21718547.648 6  -7529404.042 6  -4482295.10047  21718542.85947
  21207545.625 6 -20392116.588 6 -13677917.75548  21207538.89848
  23136942.125 4  -2404552.144 4  -1478040.34846  23136940.14846
  20415955.625 6 -23742971.308 6 -17342689.10449  20415948.19549
  20486033.461 7 -26728299.746 7 -19720803.31448  20486024.39148
  21211997.086 7 -17112947.603 7 -12251780.65748  21211989.65648
  22080411.055 6  -8124793.931 6 -11600758.78548  22080408.37548
 24 11 23  1 24  0.0000000  0  8G06G13G14G15G17G19G22G30            
  23332176.516 5  -7051551.726 5  -6720822.96648  23332176.47348
  21729855.328 7  -7469986.488 7  -4435995.71348  21729849.30548
  21213979.156 6 -20358307.831 6 -13651573.24548  21213972.78148
  23142942.500 3  -2373016.081 3  -1453466.73846  23142940.17246
  20422696.094 7 -23707551.045 7 -17315088.86549  20422688.54749
  20478476.820 7 -26768009.892 7 -19751746.21348  20478467.69148
  21214698.586 7 -17098750.984 7 -12240718.32848  21214690.80548
  22095827.086 6  -8043786.752 6 -11537636.34048  22095822.88348
 24 11 23  1 24 30.0000000  0  8G06G13G14G15G17G19G22G30            
  23312830.109 4  -7153210.752 4  -6800037.55348  23312830.71148
  21741246.078 7  -7410128.231 7  -4389352.91947  21741239.70347
  21220441.898 6 -20324343.480 6 -13625107.49548  21220435.93448
  23149038.078 4  -2340997.795 4  -1428517.44446  23149034.22746
  20429513.875 7 -23671723.825 7 -17287171.51849  20429506.32849
  20471007.031 7 -26807263.725 7 -19782333.53748  20470997.66848
  21217421.227 7 -17084444.006 7 -12229570.01748  21217413.91448
  22111309.102 6  -7962429.749 6 -11474241.30748  22111304.07848
 24 11 23  1 25  0.0000000  0  8G06G13G14G15G17G19G22G30            
  23293506.203 4  -7254757.403 4  -6879164.54048  23293506.45348
  21752719.586 6  -7349833.482 6  -4342369.99348  21752713.68048
  21226935.117 6 -20290225.280 6 -13598521.86248  21226928.39148
  23155220.680 3  -2308501.111 3  -1403195.35046  23155216.88746
  20436408.500 7 -23635494.597 7 -17258940.90049  20436400.48449
  20463624.063 7 -26846062.773 7 -19812566.49448  20463614.52348
  21220164.484 7 -17070028.445 7 -12218337.07048  21220156.87948
  22126855.703 6  -7880726.218 6 -11410576.24048  22126852.32048
 24 11 23  1 25 30.0000000  0  8G06G13G14G15G17G19G22G30            
  23274206.156 5  -7356186.350 5  -6958199.86348  23274204.47348
  21764276.156 6  -7289102.820 6  -4295047.40048  21764270.66048
  21233456.172 6 -20255950.929 6 -13571814.55848  21233450.20748
  23161495.133 3  -2275526.232 3  -1377500.61346  23161492.51246
  20443378.805 7 -23598862.737 7 -17230396.54749  20443371.72749
  20456327.750 7 -26884404.873 7 -19842443.37048  20456318.38748
  21222929.195 7 -17055502.423 7 -12207018.06448  21222920.82848
  22142469.094 6  -7798675.465 6 -11346640.62648  22142465.35948
 24 11 23  1 26  0.0000000  0  8G06G13G14G15G17G19G22G30            
  23254927.125 5  -7457496.439 5  -7037142.54048  23254926.49648
  21775915.109 6  -7227941.206 6  -4247388.99747  21775909.67247
  21240008.000 6 -20221522.238 6 -13544986.97547  21240001.85947
  23167861.219 1  -2242077.081 1  -1351436.37446  23167857.89546
  20450425.266 7 -23561832.186 7 -17201541.53449  20450418.24649
  20449117.617 7 -26922291.474 7 -19871965.33948  20449108.84048
  21225713.508 7 -17040868.124 7 -12195614.68648  21225705.66848
  22158148.477 6  -7716280.924 6 -11282437.09048  22158145.38748
 24 11 23  1 26 30.0000000  0  8G06G13G14G15G17G19G22G30            
  23235672.609 5  -7558684.405 5  -7115990.09248  23235671.74648
  21787634.836 6  -7166351.067 6  -4199396.68547  21787629.81347
  21246588.992 6 -20186939.077 6 -13518039.00747  21246582.61747
  23174316.609 1  -2208155.961 1  -1325004.29346  23174312.23046
  20457547.281 6 -23524404.885 6 -17172377.36949  20457540.55549
  20441994.656 7 -26959722.406 7 -19901132.22748  20441986.17248
  21228518.594 7 -17026125.774 7 -12184127.10948  21228510.81348
  22173892.672 6  -7633544.035 6 -11217966.79648  22173890.40248
 24 11 23  1 27  0.0000000  0  8G06G13G14G15G17G19G22G30            
  23216441.227 5  -7659745.374 5  -7194738.67248  23216439.66048
  21799436.125 6  -7104333.170 6  -4151071.03547  21799431.16047
  21253199.711 6 -20152199.579 6 -13490969.23347  21253192.92647
  23180860.875 1  -2173763.250 1  -1298204.82646  23180857.31646
  20464745.250 7 -23486581.309 7 -17142904.42749  20464737.93849
  20434958.875 7 -26996695.849 7 -19929942.65948  20434950.56648
  21231345.164 7 -17011273.621 7 -12172553.97048  21231337.03148
  22189702.438 6  -7550464.508 6 -11153229.51548  22189699.87548
 24 11 23  1 27 30.0000000  0  8G06G13G14G15G17G19G22G30            
  23197233.789 5  -7760677.829 5  -7273387.06348  23197232.22348
  21811318.727 6  -7041892.130 6  -4102415.67547  21811313.23047
  21259839.922 6 -20117305.243 6 -13463778.78247  21259833.25447
  23187494.33611                  -6181440.95155  23187491.77355
  20472017.539 6 -23448364.818 6 -17113125.31949  20472010.10949
  20428010.336 7 -27033213.299 7 -19958397.74548  20428001.61748
  21234191.805 7 -16996313.407 7 -12160896.63448  21234184.14148
  22205576.781 6  -7467045.506 6 -11088227.70448  22205573.51648
 24 11 23  1 28  0.0000000  0  7G06G13G14G17G19G22G30               
  23178052.352 5  -7861478.439 5  -7351932.70248  23178049.84848
  21823280.250 6  -6979030.437 6  -4053432.54547  21823274.75447
  21266510.813 6 -20082255.797 6 -13436467.49047  21266503.14847
  20479363.688 7 -23409757.861 7 -17083041.94249  20479356.84449
  20421147.719 7 -27069274.247 7 -19986497.13648  20421138.64848
  21237059.367 7 -16981245.434 7 -12149155.32748  21237051.58648
  22221515.953 6  -7383288.460 6 -11022962.51848  22221512.21948
 24 11 23  1 28 30.0000000  0  8G06G13G14G15G17G19G22G30            
  23158892.383 5  -7962160.487 5  -7430386.01648  23158890.99248
  21835319.688 6  -6915767.331 6  -4004136.65247  21835313.37147
  21273205.391 6 -20047067.581 6 -13409048.07247  21273199.42647
  23201024.71111  -8369483.97511                
  20486781.711 7 -23370778.779 7 -17052668.60249  20486773.93049
  20414369.258 7 -27104895.243 7 -20014253.70548  20414360.18848
  21239943.695 7 -16966086.207 7 -12137342.90648  21239935.56348
  22237515.117 6  -7299211.360 6 -10957447.94448  22237510.62148
 24 11 23  1 29  0.0000000  0  7G06G13G14G17G19G22G30               
  23139764.289 4  -8062665.211 4  -7508701.18948  23139765.30148
  21847444.297 6  -6852050.234 6  -3954486.97447  21847438.85947
  21279938.656 6 -20011684.865 6 -13381477.08747  21279931.87147
  20494280.148 7 -23331373.675 7 -17021963.29749  20494272.13349
  20407684.680 7 -27140020.455 7 -20041623.93048  20407676.19548
  21242856.578 7 -16950780.356 7 -12125416.21548  21242848.62148
  22253586.078 6  -7214760.207 6 -10891641.90548  22253579.87948
 24 11 23  1 29 30.0000000  0  7G06G13G14G17G19G22G30               
  23120662.141 4  -8163046.254 4  -7586919.95848  23120662.74248
  21859644.250 6  -6787938.807 6  -3904530.02547  21859638.87147
  21286698.266 6 -19976164.261 6 -13353798.65047  21286691.18847
  20501848.289 7 -23291602.121 7 -16990972.45249  20501840.80149
  20401085.023 7 -27174706.432 7 -20068651.91648  20401075.60248
  21245785.922 7 -16935384.530 7 -12113419.41648  21245778.55148
  22269715.945 6  -7129993.282 6 -10825589.77848  22269710.50848
 24 11 23  1 30  0.0000000  0  7G06G13G14G17G19G22G30               
  23101589.602 5  -8263284.034 5  -7665027.09048  23101588.91448
  21871922.367 6  -6723419.095 6  -3854254.92047  21871916.28547
  21293486.648 6 -19940489.313 6 -13325999.94547  21293480.21547
  20509488.977 7 -23251449.827 7 -16959684.93549  20509481.89849
  20394571.164 7 -27208936.959 7 -20095325.00848  20394561.39148
  21248736.266 7 -16919882.781 7 -12101340.08348  21248727.54748
  22285909.367 6  -7044895.845 6 -10759280.09448  22285904.69548
 24 11 23  1 30 30.0000000  0  7G06G13G14G17G19G22G30               
  23082543.031 5  -8363372.678 5  -7743017.98848  23082542.28548
  21884277.203 6  -6658491.462 6  -3803661.97947  21884271.23847
  21300305.570 6 -19904657.068 6 -13298078.67647  21300298.90247
  20517202.602 7 -23210915.961 7 -16928100.08649  20517195.23049
  20388144.078 7 -27242708.871 7 -20121640.71348  20388135.24248
  21251706.461 7 -16904272.463 7 -12089176.15148  21251698.15248
  22302166.234 6  -6959466.687 6 -10692711.93648  22302162.44148
 24 11 23  1 31  0.0000000  0  7G06G13G14G17G19G22G30               
  23063524.844 5  -8463310.186 5  -7820891.15248  23063523.98048
  21896709.336 6  -6593159.728 6  -3752754.14147  21896703.02047
  21307154.172 6 -19868668.660 6 -13270035.69048  21307146.85948
  20524988.047 7 -23170003.541 7 -16896220.26249  20524980.20749
  20381804.648 7 -27276023.705 7 -20147600.24348  20381795.63748
  21254697.977 7 -16888554.845 7 -12076928.61148  21254689.43448
  22318485.383 6  -6873708.693 6 -10625887.54148  22318482.58648
 24 11 23  1 31 30.0000000  0  7G06G13G14G17G19G22G30               
  23044537.172 5  -8563091.204 5  -7898642.33548  23044535.25448
  21909218.398 6  -6527424.797 6  -3701532.13547  21909212.49247
  21314032.352 6 -19832521.691 6 -13241869.17248  21314026.21148
  20532845.242 7 -23128712.997 7 -16864045.79749  20532837.22749
  20375552.148 6 -27308878.892 6 -20173201.62648  20375543.37148
  21257709.336 7 -16872727.888 7 -12064595.86748  21257701.26248
  22334866.789 6  -6787621.217 6 -10558806.39348  22334864.40248
 24 11 23  1 32  0.0000000  0  7G06G13G14G17G19G22G30               
  23025577.477 4  -8662715.531 4  -7976271.44548  23025577.08248
  21921802.641 6  -6461292.395 6  -3650000.40347  21921797.20347
  21320940.883 6 -19796218.918 6 -13213581.25648  21320934.21548
  20540773.422 7 -23087049.245 7 -16831580.52049  20540766.22749
  20369386.633 7 -27341277.641 7 -20198447.32948  20369377.68048
  21260740.375 6 -16856794.697 6 -12052180.33948  21260732.47748
  22351310.359 6  -6701208.804 6 -10491472.04948  22351308.44148
 24 11 23  1 32 30.0000000  0  7G06G13G14G17G19G22G30               
  23006650.594 5  -8762178.373 5  -8053774.70848  23006650.72748
  21934463.766 6  -6394763.858 6  -3598160.01147  21934457.27347
  21327878.758 6 -19759758.688 6 -13185170.65948  21327872.32448
  20548772.680 7 -23045012.819 7 -16798824.84549  20548765.42649
  20363309.266 7 -27373218.145 7 -20223335.95748  20363299.96148
  21263793.555 7 -16840753.661 7 -12039680.78148  21263785.65648
  22367816.133 6  -6614471.565 6 -10423884.61548  22367814.33248
 24 11 23  1 33  0.0000000  0  7G06G13G14G17G19G22G30               
  22987755.555 5  -8861477.759 5  -8131150.63848  22987754.34048
  21947197.961 7  -6327843.081 7  -3546013.97447  21947191.76247
  21334846.086 6 -19723142.040 6 -13156638.18948  21334839.71148
  20556842.773 7 -23002606.993 7 -16765781.32649  20556834.75849
  20357317.727 7 -27404701.735 7 -20247868.54148  20357308.42248
  21266866.773 7 -16824606.128 7 -12027098.24348  21266857.87948
  22384383.125 6  -6527412.390 6 -10356046.34748  22384379.97748
 24 11 23  1 33 30.0000000  0  7G06G13G14G17G19G22G30               
  22968890.188 5  -8960611.210 5  -8208397.26748  22968889.09048
  21960006.273 6  -6260533.879 6  -3493565.28047  21960000.01647
  21341844.508 6 -19686369.435 6 -13127984.16448  21341837.37148
  20564981.797 7 -22959835.085 7 -16732452.52949  20564973.84049
  20351412.945 7 -27435729.025 7 -20272045.58148  20351404.40248
  21269958.617 7 -16808352.896 7 -12014433.32948  21269950.60248
  22401010.703 5  -6440033.550 5 -10287959.00048  22401006.73448
 24 11 23  1 34  0.0000000  0  7G06G13G14G17G19G22G30               
  22950058.992 5  -9059570.645 5  -8285508.30748  22950057.13348
  21972889.508 6  -6192834.164 6  -3440812.28647  21972883.01647
  21348872.234 6 -19649435.817 6 -13099204.70547  21348865.62547
  20573191.086 7 -22916693.595 7 -16698835.74849  20573183.07049
  20345596.914 7 -27466295.284 7 -20295863.36948  20345587.49248
  21273072.969 7 -16791989.143 7 -12001682.30948  21273065.42248
  22417699.188 5  -6352331.863 5 -10219620.04848  22417695.16048
 24 11 23  1 34 30.0000000  0  8G06G13G14G15G17G19G22G30            
  22931258.500 5  -9158371.771 5  -8362495.96448  22931256.40648
  21985841.391 6  -6124765.954 6  -3387772.12447  21985836.95347
  21355927.266 6 -19612359.922 6 -13070314.35647  21355920.36347
  23289484.59413   -601220.66913                
  20581466.750 7 -22873204.269 7 -16664947.92149  20581459.08649
  20339864.359 7 -27496419.335 7 -20319336.57948  20339854.64548
  21276204.563 6 -16775533.909 6 -11988859.99348  21276196.31348
  22434447.305 6  -6264327.851 6 -10151045.51048  22434441.92648
 24 11 23  1 35  0.0000000  0  8G06G13G14G15G17G19G22G30            
  22912494.945 6  -9256977.702 6  -8439331.53248  22912492.09048
  21998870.836 6  -6056297.916 6  -3334420.41447  21998865.75447
  21363016.422 6 -19575107.788 6 -13041286.69747  21363009.57847
  23297400.258 2   -559608.169 2                
  20589814.172 7 -22829335.455 7 -16630764.39349  20589806.91849
  20334222.250 7 -27526067.458 7 -20342438.93248  20334213.23848
  21279359.359 6 -16758953.617 6 -11975940.21848  21279350.81648
  22451257.430 5  -6175989.481 5 -10082210.43248  22451253.10948
 24 11 23  1 35 30.0000000  0  8G06G13G14G15G17G19G22G30            
  22893765.797 6  -9355404.133 6  -8516027.24548  22893761.71148
  22011972.367 6  -5987452.305 6  -3280774.48847  22011966.10947
  21370135.188 6 -19537698.205 6 -13012136.34848  21370128.28548
  23305399.742 1   -517566.149 1  -6880719.51555  23305395.12955
  20598231.031 7 -22785107.888 7 -16596301.30649  20598222.89849
  20328667.359 7 -27555258.971 7 -20365185.49548  20328658.34848
  21282534.672 7 -16742267.004 7 -11962937.59048  21282526.53948
  22468127.516 6  -6087337.383 6 -10013130.89648  22468124.25048
 24 11 23  1 36  0.0000000  0  8G06G13G14G15G17G19G22G30            
  22875068.602 6  -9453648.317 6  -8592580.97948  22875066.09848
  22025144.070 6  -5918232.243 6  -3226836.80447  22025139.28147
  21377284.367 6 -19500131.453 6 -12982863.51448  21377277.69948
  23313484.070 2   -475097.263 2  -6847626.96046  23313477.81346
  20606714.570 7 -22740524.574 7 -16561561.02249  20606706.78949
  20323199.094 7 -27583994.176 7 -20387576.49548  20323190.31648
  21285729.469 6 -16725474.511 6 -11949852.48848  21285722.33248
  22485056.539 6  -5998373.743 6  -9943808.59348  22485054.32848
 24 11 23  1 36 30.0000000  0  8G06G13G14G15G17G19G22G30            
  22856408.094 5  -9551704.853 5  -8668988.49648  22856405.76648
  22038387.438 6  -5848638.652 6  -3172608.04347  22038382.64847
  21384462.352 6 -19462405.074 6 -12953466.31447  21384456.27047
  23321644.195 2   -432202.205 2  -6814202.29346  23321641.39846
  20615266.766 7 -22695585.304 7 -16526543.35749  20615258.16449
  20317818.188 7 -27612271.019 7 -20409610.32048  20317808.94148
  21288945.828 7 -16708573.984 7 -11936683.20748  21288937.98848
  22502044.914 6  -5909097.994 6  -9874243.09248  22502043.34848
 24 11 23  1 37  0.0000000  0  8G06G13G14G15G17G19G22G30            
  22837784.531 5  -9649568.466 5  -8745245.65548  22837783.25848
  22051701.352 6  -5778672.357 6  -3118088.87347  22051696.44547
  21391672.172 6 -19424516.782 6 -12923942.91347  21391666.14847
  23329886.953 1   -388881.369 1  -6780445.82346  23329884.85946
  20623885.438 6 -22650289.748 6 -16491248.07349  20623877.65649
  20312525.086 7 -27640087.619 7 -20431285.53548  20312515.89848
  21292183.258 6 -16691563.725 6 -11923428.40948  21292174.42248
  22519093.305 6  -5819509.787 6  -9804434.11348  22519090.62548
 24 11 23  1 37 30.0000000  0  8G06G13G14G15G17G19G22G30            
  22819198.398 5  -9747240.091 5  -8821353.26248  22819196.36348
  22065085.039 6  -5708340.675 6  -3063284.96247  22065080.01647
  21398912.156 6 -19386470.550 6 -12894296.45647  21398906.25047
  23338211.727 3   -345141.351 3  -6746362.79146  23338209.57446
  20632571.148 7 -22604644.861 7 -16455680.58149  20632563.95349
  20307318.047 7 -27667448.228 7 -20452605.44148  20307309.38748
  21295439.984 7 -16674447.685 7 -11910091.16448  21295431.38348
  22536199.125 6  -5729615.034 6  -9734386.27448  22536196.09448
 24 11 23  1 38  0.0000000  0  8G06G13G14G15G17G19G22G30            
  22800650.406 6  -9844715.148 6  -8897307.68748  22800647.43448
  22078537.789 6  -5637645.027 6  -3008197.45747  22078532.17647
  21406182.211 6 -19348264.749 6 -12864525.66847  21406175.95347
  23346612.977 2   -300983.238 2  -6711953.92046  23346610.88346
  20641323.750 7 -22558651.496 7 -16419841.54849  20641315.73449
  20302198.430 7 -27694351.604 7 -20473569.07048  20302189.18448
  21298717.109 7 -16657224.499 7 -11896670.44448  21298709.21148
  22553364.469 6  -5639414.045 6  -9664099.81548  22553360.20748
 24 11 23  1 38 30.0000000  0  8G06G13G14G15G17G19G22G30            
  22782140.133 6  -9941989.314 6  -8973105.58448  22782136.86748
  22092060.523 6  -5566587.348 6  -2952827.85947  22092053.91447
  21413483.719 6 -19309898.072 6 -12834629.51347  21413477.40247
  23355095.719 1   -256408.566 1  -6677220.36946  23355092.86346
  20650141.891 7 -22512310.224 7 -16383731.42849  20650134.40249
  20297166.586 7 -27720796.774 7 -20494175.64448  20297157.28148
  21302015.555 7 -16639893.042 7 -11883165.36348  21302007.65648
  22570586.898 6  -5548907.524 6  -9593575.29248  22570582.87148
 24 11 23  1 39  0.0000000  0  9G06G13G14G15G17G19G22G24G30         
  22763667.063 6 -10039063.905 6  -9048747.95148  22763663.32848
  22105648.805 6  -5495174.888 6  -2897181.83947  22105642.84047
  21420813.930 6 -19271374.763 6 -12804611.34647  21420807.96547
  23363657.203 1   -211424.468 1  -6642167.93245  23363654.05545
  20659025.711 7 -22465628.081 7 -16347355.68849  20659017.40249
  20292219.773 7 -27746788.479 7 -20514428.86548  20292210.70348
  21305332.797 7 -16622457.971 7 -11869579.56048  21305325.54348
  23347815.09411   -298910.40911                
  22587865.781 6  -5458101.656 6  -9522817.52148  22587862.51648
 24 11 23  1 39 30.0000000  0  9G06G13G14G15G17G19G22G24G30         
  22745232.977 6 -10135930.796 6  -9124228.46948  22745229.94548
  22119306.070 6  -5423405.821 6  -2841257.88947  22119301.34047
  21428176.367 6 -19232689.734 6 -12774467.11248  21428169.75848
  23372295.18811                                
  20667974.438 7 -22418602.090 7 -16310712.01049  20667966.07049
  20287360.852 7 -27772322.117 7 -20534325.16248  20287352.13348
  21308671.375 7 -16604914.095 7 -11855908.94848  21308663.35948
  23329894.406 1   -393079.782 1   -221893.63755  23329892.78155
  22605203.641 6  -5366993.345 6  -9451824.07048  22605200.55148
 24 11 23  1 40  0.0000000  0  9G06G13G14G15G17G19G22G24G30         
  22726840.008 6 -10232587.611 6  -9199545.30948  22726837.50448
  22133030.594 6  -5351284.362 6  -2785059.35247  22133025.62947
  21435568.727 6 -19193843.624 6 -12744197.38348  21435561.59048
  23381015.51611                                
  20676987.438 7 -22371235.761 7 -16273803.14649  20676979.59849
  20282589.281 7 -27797398.636 7 -20553865.25548  20282580.03548
  21312030.758 7 -16587262.369 7 -11842154.30648  21312022.33248
  23312021.844 1   -486999.373 1   -295077.47145  23312020.98045
  22622598.703 6  -5275585.118 6  -9380596.91348  22622595.20348
 24 11 23  1 40 30.0000000  0  8G06G13G14G17G19G22G24G30            
  22708487.086 6 -10329031.263 6  -9274696.04248  22708484.69948
  22146821.813 6  -5278813.104 6  -2728588.23547  22146817.14147
  21442991.063 6 -19154836.196 6 -12713801.93948  21442984.51248
  20686065.313 7 -22323531.039 7 -16236630.58749  20686057.12149
  20277904.180 7 -27822018.275 7 -20573049.34048  20277894.69948
  21315410.172 7 -16569502.644 7 -11828315.47648  21315401.45348
  23294197.852 1   -580666.504 1   -368064.55446  23294196.63746
  22640050.961 6  -5183878.886 6  -9309137.52548  22640046.11348
 24 11 23  1 41  0.0000000  0  8G06G13G14G17G19G22G24G30            
  22690175.109 6 -10425259.557 6  -9349678.99048  22690173.71948
  22160678.703 6  -5205996.234 6  -2671847.83747  22160673.68047
  21450444.117 6 -19115668.397 6 -12683281.52547  21450437.91847
  20695206.984 7 -22275491.315 7 -16199196.98349  20695199.20349
  20273306.133 7 -27846182.536 7 -20591878.56548  20273296.00848
  21318810.617 7 -16551636.174 7 -11814393.51248  21318801.60548
  23276421.727 1   -674079.820 1   -440853.90646  23276420.74646
  22657557.344 6  -5091877.541 6  -9237448.17948  22657554.13748
 24 11 23  1 41 30.0000000  0  9G06G13G14G15G17G19G22G24G30         
  22671904.453 6 -10521274.183 6  -9424495.47748  22671902.94548
  22174599.047 6  -5132841.892 6  -2614844.49047  22174593.84447
  21457927.383 6 -19076344.716 6 -12652639.65347  21457920.01247
  23407622.62511      7800.81111                
  20704411.539 7 -22227123.525 7 -16161507.75149  20704403.28949
  20268792.883 7 -27869896.192 7 -20610356.68848  20268783.87148
  21322229.234 7 -16533667.809 7 -11800392.15748  21322220.80948
  23258694.570 2   -767241.465 2   -513447.14546  23258692.18446
  22675118.844 5  -4999587.681 5  -9165534.03748  22675115.93048
 24 11 23  1 42  0.0000000  0 10G06G11G13G14G15G17G19G22G24G30      
  22653677.211 6 -10617060.329 6  -9499133.88648  22653675.29348
  25574319.27311    -71870.01611                
  22188586.219 6  -5059341.233 6  -2557571.26447  22188580.54747
  21465442.148 6 -19036853.437 6 -12621867.17748  21465435.24648
  23416643.36711     55209.86111                
  20713680.039 7 -22178418.023 7 -16123555.37149  20713671.32049
  20264368.500 7 -27893148.208 7 -20628475.09048  20264359.31348
  21325670.438 7 -16515585.733 7 -11786302.17748  21325662.07048
  23241017.133 1   -860137.449 1   -585833.36046  23241014.39546
  22692737.477 5  -4906999.614 5  -9093387.48448  22692735.14848
 24 11 23  1 42 30.0000000  0 10G06G11G13G14G15G17G19G22G24G30      
  22635491.445 6 -10712628.840 6  -9573602.70648  22635488.94148
  25554363.531 1   -176725.678 1                
  22202635.648 6  -4985511.409 6  -2500041.53947  22202629.91847
  21472986.234 6 -18997208.323 6 -12590974.84648  21472979.39148
  23425737.03111    103005.48211                
  20723009.047 7 -22129391.672 7 -16085352.97749  20723001.14849
  20260028.883 7 -27915952.870 7 -20646244.89548  20260019.22748
  21329130.336 7 -16497404.042 7 -11772134.57048  21329122.55548
  23223388.383 2   -952779.079 2   -658021.38246  23223385.11746
  22710409.539 5  -4814129.064 5  -9021020.84848  22710407.85548
 24 11 23  1 43  0.0000000  0 10G06G11G13G14G15G17G19G22G24G30      
  22617350.336 6 -10807958.759 6  -9647885.58948  22617346.54348
  25534388.188 1   -281706.669 1                
  22216749.453 6  -4911337.579 6  -2442243.78047  22216744.37147
  21480563.523 6 -18957391.333 6 -12559948.55848  21480556.15248
  23434910.39811    151202.60111                
  20732402.313 7 -22080028.480 7 -16046888.11449  20732394.18049
  20255777.602 7 -27938292.864 7 -20663652.62649  20255768.23849
  21332611.719 6 -16479104.860 6 -11757875.43948  21332603.93848
  23205807.953 1  -1045146.040 1   -729995.39246  23205808.32046
  22728139.766 6  -4720960.216 6  -8948421.75348  22728137.32048
 24 11 23  1 43 30.0000000  0 10G06G11G13G14G15G17G19G22G24G30      
  22599255.000 6 -10903045.545 6  -9721979.04648  22599250.97348
  25514384.81311                                
  22230929.875 6  -4836821.979 6  -2384179.70447  22230924.32047
  21488173.523 6 -18917400.889 6 -12528787.15348  21488166.68048
  23444153.21111                                
  20741859.547 7 -22030329.686 7 -16008161.72849  20741851.47349
  20251615.539 7 -27960166.967 7 -20680697.31548  20251605.41448
  21336116.672 7 -16460686.756 7 -11743523.61948  21336108.01248
  23188285.945 1  -1137234.364 1   -801752.27346  23188284.32046
  22745927.148 6  -4627493.470 6  -8875590.55848  22745923.59048
 24 11 23  1 44  0.0000000  0 10G06G11G13G14G15G17G19G22G24G30      
  22581200.930 6 -10997918.919 6  -9795906.20648  22581197.54748
  25494355.84411   -492063.79311                
  22245168.477 6  -4762000.300 6  -2325877.12447  22245161.63347
  21495810.422 6 -18877269.709 6 -12497516.06048  21495803.16848
  23453475.00811    248762.13011                
  20751374.508 6 -21980330.145 6 -15969201.02549  20751366.14149
  20247535.383 7 -27981608.455 7 -20697404.90349  20247525.19949
  21339638.398 7 -16442182.865 7 -11729104.94948  21339629.97348
  23170808.344 2  -1229074.476 2   -873315.74847  23170807.77347
  22763763.734 6  -4533763.643 6  -8802554.37848  22763760.41048
 24 11 23  1 44 30.0000000  0 10G06G11G13G14G15G17G19G22G24G30      
  22563194.672 5 -11092544.370 5  -9869640.17048  22563191.23048
  25474305.07011   -597437.00611                
  22259469.859 6  -4686844.077 6  -2267313.84147  22259464.18847
  21503479.828 6 -18836966.176 6 -12466110.67848  21503472.34048
  23462867.758 1    298117.559 1                
  20760951.555 7 -21930001.009 7 -15929983.47149  20760943.42249
  20243543.305 7 -28002586.415 7 -20713751.28349  20243533.12149
  21343181.102 6 -16423561.613 6 -11714594.84448  21343173.43848
  23153387.047 4  -1320632.418 4   -944659.36347  23153384.66047
  22781655.055 6  -4439741.242 6  -8729290.19448  22781651.14548
 24 11 23  1 45  0.0000000  0 10G06G11G13G14G15G17G19G22G24G30      
  22545233.391 5 -11186928.869 5  -9943186.36848  22545230.77048
  25454229.781 1   -702936.719 1                
  22273832.602 6  -4611366.370 6  -2208500.06147  22273827.22347
  21511180.242 6 -18796500.101 6 -12434578.65348  21511172.93048
  23472331.141 1    347853.219 1                
  20770589.250 6 -21879354.560 6 -15890518.66149  20770581.46949
  20239637.680 7 -28023111.278 7 -20729744.61548  20239627.67248
  21346745.727 6 -16404832.936 6 -11700001.01548  21346737.24248
  23136015.961 4  -1411915.709 4  -1015788.93847  23136013.86747
  22799600.477 6  -4345438.289 6  -8655807.44348  22799596.91848
 24 11 23  1 45 30.0000000  0 10G06G11G13G14G15G17G19G22G24G30      
  22527320.039 5 -11281066.500 5 -10016540.24848  22527317.59448
  25434129.547 1   -808557.615 1                
  22288256.688 6  -4535568.284 6  -2149436.62847  22288250.60547
  21518911.727 6 -18755868.728 6 -12402917.80848  21518904.35548
  23481868.15611                                
  20780287.555 7 -21828389.709 7 -15850805.76549  20780279.65649
  20235818.070 7 -28043180.989 7 -20745383.27949  20235808.59049
  21350330.805 7 -16385994.062 7 -11685321.33748  21350322.43848
  23118697.969 4  -1502919.027 4  -1086700.35247  23118696.46147
  22817598.898 6  -4250854.005 6  -8582105.41348  22817595.45748
 24 11 23  1 46  0.0000000  0  9G06G11G13G14G17G19G22G24G30         
  22509453.133 6 -11374953.791 6 -10089699.04048  22509452.21148
  25414005.297 1   -914297.318 1                
  22302741.281 6  -4459451.877 6  -2090125.18047  22302734.61347
  21526675.781 6 -18715071.319 6 -12371127.61248  21526668.11748
  20790046.055 6 -21777109.104 6 -15810846.82449  20790038.15649
  20232085.172 7 -28062795.313 7 -20760667.09448  20232075.69148
  21353936.266 6 -16367044.485 6 -11670555.39648  21353927.84048
  23101433.977 4  -1593639.578 4  -1157391.46346  23101432.23446
  22835649.852 5  -4155989.873 5  -8508185.31547  22835646.58647
 24 11 23  1 46 30.0000000  0  9G06G11G13G14G17G19G22G24G30         
  22491635.008 6 -11468592.541 6 -10162664.19848  22491633.20748
  25393859.148 1  -1020158.328 1                
  22317285.109 6  -4383025.688 6  -2030572.34847  22317277.79747
  21534469.203 6 -18674112.745 6 -12339211.81748  21534462.24248
  20799862.914 6 -21725519.959 6 -15770647.46249  20799854.95749
  20228438.422 7 -28081959.883 7 -20775600.46148  20228428.53148
  21357563.086 7 -16347989.422 7 -11655707.24148  21357553.43048
  23084223.031 4  -1684079.762 4  -1227864.09547  23084221.52347
  22853754.219 5  -4060852.880 5  -8434052.60548  22853750.54348
 24 11 23  1 47  0.0000000  0  9G06G11G13G14G17G19G22G24G30         
  22473865.344 6 -11561973.575 6 -10235428.54448  22473861.96148
  25373695.047 1  -1126132.234 1                
  22331888.086 6  -4306286.719 6  -1970775.80747  22331881.35947
  21542295.602 6 -18632986.693 6 -12307165.50748  21542288.75848
  20809739.547 6 -21673618.418 6 -15730204.67749  20809731.82449
  20224878.422 7 -28100669.186 7 -20790179.06149  20224868.23849
  21361210.305 7 -16328822.443 7 -11640771.88448  21361201.70348
  23067067.883 4  -1774230.986 4  -1298111.59347  23067065.90647
  22871910.961 6  -3965438.870 6  -8359704.06548  22871906.99248
 24 11 23  1 47 30.0000000  0 10G06G11G13G14G15G17G19G22G24G30      
  22456144.406 6 -11655098.949 6 -10307993.63548  22456139.20348
  25353505.031 1  -1232221.911 1                
  22346548.273 6  -4229243.235 6  -1910741.94047  22346542.66047
  21550152.711 6 -18591698.085 6 -12274992.55948  21550145.69148
  23520724.18812    526975.93912                
  20819674.750 6 -21621411.645 6 -15689524.04749  20819666.20749
  20221403.086 7 -28118928.777 7 -20804407.24549  20221394.13349
  21364877.000 7 -16309548.807 7 -11625753.43248  21364868.75048
  23049966.727 4  -1864095.820 4  -1368135.87847  23049964.80947
  22890119.367 6  -3869754.980 6  -8285145.21548  22890115.51648
 24 11 23  1 48  0.0000000  0 10G06G11G13G14G15G17G19G22G24G30      
  22438472.375 6 -11747963.770 6 -10380355.69448  22438467.58648
  25333294.633 2  -1338423.385 2                
  22361266.516 6  -4151896.758 6  -1850471.98247  22361261.55147
  21558040.766 6 -18550245.003 6 -12242691.42247  21558033.27747
  23530614.219 3    578942.189 3  -6040291.37156  23530611.83256
  20829666.805 6 -21568900.458 6 -15648606.20049  20829658.61349
  20218013.953 7 -28136737.426 7 -20818284.04649  20218004.64849
  21368565.711 7 -16290166.837 7 -11610650.56448  21368557.40248
  23032922.133 4  -1953670.071 4  -1437933.75147  23032918.34047
  22908378.719 6  -3773801.468 6  -8210376.27348  22908374.92648
 24 11 23  1 48 30.0000000  0 10G06G11G13G14G15G17G19G22G24G30      
  22420849.977 5 -11840564.230 5 -10452511.76248  22420846.71148
  25313066.305 3  -1444733.429 3    420938.79755  25313064.09455
  22376041.617 6  -4074249.668 6  -1789967.76747  22376038.00047
  21565960.375 6 -18508626.434 6 -12210261.36548  21565953.47348
  23540570.078 3    631270.305 3  -5999516.20646  23540568.45346
  20839716.422 6 -21516086.240 6 -15607452.23049  20839709.10949
  20214711.453 7 -28154095.120 7 -20831809.45349  20214701.85549
  21372274.383 7 -16270675.337 7 -11595462.36548  21372266.30948
  23015932.469 5  -2042950.350 5  -1507502.55247  23015929.02747
  22926688.805 6  -3677579.437 6  -8135398.09848  22926685.77348
 24 11 23  1 49  0.0000000  0 10G06G11G13G14G15G17G19G22G24G30      
  22403280.664 6 -11932895.992 6 -10524458.48048  22403276.63748
  25292815.391 3  -1551148.630 3    338018.47545  25292814.82045
  22390874.891 6  -3996303.857 6  -1729230.82147  22390870.21947
  21573911.188 6 -18466841.065 6 -12177701.32547  21573904.28547
  23550597.016 3    683958.676 3  -5958460.31646  23550594.04346
  20849824.391 7 -21462970.357 7 -15566063.19249  20849816.49249
  20211494.500 7 -28171001.202 7 -20844982.95749  20211484.02349
  21376005.164 7 -16251073.429 7 -11580188.09148  21375995.91848
  22998998.828 4  -2131933.072 4  -1576839.48547  22998996.38347
  22945050.289 5  -3581089.866 5  -8060211.45048  22945046.84848
 24 11 23  1 49 30.0000000  0 10G06G11G13G14G15G17G19G22G24G30      
  22385763.039 6 -12024956.585 6 -10596193.88548  22385758.48448
  25272544.219 3  -1657667.292 3    255017.49146  25272544.00046
  22405763.320 6  -3918063.198 6  -1668264.11947  22405758.00047
  21581895.203 6 -18424889.298 6 -12145011.60048  21581887.53948
  23560690.805 4    737003.997 4  -5917126.28546  23560688.77046
  20859988.508 6 -21409555.676 6 -15524441.32449  20859980.84449
  20208362.844 7 -28187456.687 7 -20857805.33949  20208352.77749
  21379755.555 6 -16231361.449 6 -11564828.05348  21379747.65648
  22982122.422 4  -2220616.302 4  -1645943.08847  22982120.79747
  22963461.445 5  -3484335.384 5  -7984818.33148  22963460.34848
 24 11 23  1 50  0.0000000  0 10G06G11G13G14G15G17G19G22G24G30      
  22368297.016 6 -12116743.246 6 -10667715.87448  22368291.93448
  25252255.188 4  -1764287.422 4    171937.38046  25252254.96946
  22420707.992 6  -3839531.228 6  -1607070.39647  22420701.85247
  21589909.500 6 -18382771.242 6 -12112192.30348  21589903.00848
  23570851.117 3    790402.794 3  -5875516.81447  23570850.31347
  20870209.656 7 -21355844.456 7 -15482588.40049  20870201.64149
  20205317.031 7 -28203462.469 7 -20870277.30149  20205306.90649
  21383527.586 7 -16211539.817 7 -11549382.57948  21383519.45348
  22965303.750 3  -2308997.861 3  -1714811.62647  22965302.18447
  22981923.617 5  -3387318.269 5  -7909220.57048  22981921.34848
 24 11 23  1 50 30.0000000  0 10G06G11G13G14G15G17G19G22G24G30      
  22350881.672 6 -12208252.588 6 -10739021.74448  22350877.29348
  25231947.109 4  -1871006.303 4     88780.31046  25231946.42246
  22435707.000 6  -3760710.860 6  -1545651.99147  22435701.03547
  21597955.922 6 -18340486.308 6 -12079242.96548  21597949.31348
  23581080.305 3    844152.660 3  -5833633.85047  23581078.50447
  20880486.188 6 -21301839.008 6 -15440506.19349  20880478.40649
  20202356.617 7 -28219018.984 7 -20882399.18849  20202346.60949
  21387320.609 7 -16191607.691 7 -11533851.01848  21387312.35948
  22948543.367 4  -2397074.793 4  -1783442.80047  22948541.44947
  23000434.484 5  -3290040.168 5  -7833419.46347  23000431.68847
 24 11 23  1 51  0.0000000  0 10G06G11G13G14G15G17G19G22G24G30      
  22333520.820 6 -12299482.177 6 -10810109.64748  22333517.20348
  25211620.539 4  -1977822.292 4      5547.54946  25211620.08646
  22450760.328 6  -3681605.975 6  -1484011.85447  22450754.94947
  21606034.336 7 -18298035.070 7 -12046164.03648  21606027.43448
  23591372.945 3    898249.562 3  -5791480.40847  23591372.37547
  20890818.922 7 -21247542.092 7 -15398196.85949  20890810.90649
  20199481.359 7 -28234127.667 7 -20894172.11248  20199471.70348
  21391134.297 7 -16171566.046 7 -11518234.09648  21391125.75448
  22931840.992 4  -2484845.347 4  -1851835.25547  22931839.30947
  23018996.063 6  -3192503.881 6  -7757417.18948  23018992.27048
 24 11 23  1 51 30.0000000  0 10G06G11G13G14G15G17G19G22G24G30      
  22316213.242 5 -12390429.107 5 -10880977.27048  22316210.97348
  25191276.477 4  -2084733.229 4    -77759.22146  25191274.79346
  22465867.195 6  -3602220.024 6  -1422152.68447  22465862.64147
  21614143.680 6 -18255417.458 6 -12012955.45447  21614137.48047
  23601734.594 3    952690.646 3  -5749058.84047  23601732.26647
  20901205.969 7 -21192956.618 7 -15355662.68249  20901198.01249
  20196691.734 7 -28248789.073 7 -20905596.51449  20196681.55149
  21394968.992 7 -16151414.903 7 -11502531.85148  21394960.80148
  22915198.219 5  -2572307.218 5  -1919987.18648  22915195.36348
  23037605.922 5  -3094711.602 5  -7681215.44948  23037601.95348
 24 11 23  1 52  0.0000000  0 10G06G11G13G14G15G17G19G22G24G30      
  22298961.500 5 -12481089.814 5 -10951621.88748  22298959.17248
  25170912.922 4  -2191736.243 4   -161137.78346  25170913.40646
  22481026.891 6  -3522555.545 6  -1360076.49447  22481021.62947
  21622284.930 6 -18212632.783 6 -11979616.71647  21622279.60947
  23612160.141 4   1007473.422 4  -5706370.95646  23612156.17246
  20911648.352 7 -21138083.702 7 -15312904.51049  20911639.75049
  20193986.656 7 -28263003.569 7 -20916672.68249  20193976.35549
  21398824.547 7 -16131153.685 7 -11486743.84048  21398816.35548
  22898613.867 5  -2659457.396 5  -1987896.23848  22898610.95348
  23056264.078 6  -2996664.886 6  -7604815.48048  23056260.40248
 24 11 23  1 52 30.0000000  0 10G06G11G13G14G15G17G19G22G24G30      
  22281764.461 6 -12571460.395 6 -11022040.39948  22281761.84048
  25150535.141 4  -2298828.002 4   -244585.52646  25150534.04346
  22496238.430 6  -3442615.073 6  -1297785.25947  22496233.05147
  21630458.539 6 -18169679.943 6 -11946146.92147  21630452.28147
  23622649.391 4   1062595.711 4  -5663418.55546  23622645.94946
  20922143.969 7 -21082925.410 7 -15269923.97649  20922135.95349
  20191366.750 7 -28276771.034 7 -20927400.51249  20191356.21549
  21402701.219 6 -16110781.447 6 -11470869.31148  21402692.20748
  22882089.008 5  -2746292.468 5  -2055559.76048  22882086.27048
  23074968.828 5  -2898364.978 5  -7528218.19148  23074965.79748
 24 11 23  1 53  0.0000000  0 10G06G11G13G14G15G17G19G22G24G30      
  22264624.266 6 -12661538.536 6 -11092231.02548  22264621.29348
  25130139.492 4  -2406006.855 4   -328101.10146  25130137.80946
  22511502.609 6  -3362402.739 6  -1235282.16547  22511498.28947
  21638664.719 6 -18126559.491 6 -11912546.53347  21638658.63747
  23633203.914 4   1118053.720 4  -5620204.46646  23633199.30146
  20932694.492 6 -21027484.562 6 -15226723.27549  20932686.18449
  20188831.453 7 -28290092.691 7 -20937780.96049  20188821.32849
  21406599.055 7 -16090298.616 7 -11454908.60748  21406590.27748
  22865625.078 5  -2832810.702 5  -2122976.40048  22865622.75048
  23093722.266 5  -2799814.660 5  -7451425.77448  23093718.59048
 24 11 23  1 53 30.0000000  0 10G06G11G13G14G15G17G19G22G24G30      
  22247539.547 6 -12751319.170 6 -11162189.83048  22247536.16448
  25109727.641 4  -2513268.396 4   -411681.03745  25109724.60945
  22526818.641 6  -3281919.624 6  -1172568.11347  22526813.73447
  21646902.758 6 -18083269.246 6 -11878813.82747  21646895.62147
  23643820.188 4   1173846.666 4  -5576729.48246  23643815.51646
  20943297.414 6 -20971761.843 6 -15183302.93249  20943290.04349
  20186381.953 7 -28302967.326 7 -20947813.07149  20186371.47749
  21410518.578 7 -16069702.902 7 -11438859.95248  21410509.91848
  22849222.313 4  -2919007.515 4  -2190142.58248  22849219.45748
  23112523.484 5  -2701014.019 5  -7374438.29447  23112519.63347
 24 11 23  1 54  0.0000000  0 10G06G11G13G14G15G17G19G22G24G30      
  22230510.438 6 -12840802.902 6 -11231917.28848  22230507.99248
  25089299.695 4  -2620614.002 4   -495326.45545  25089296.07845
  22542182.336 5  -3201172.224 5  -1109648.10546  22542178.71946
  21655172.445 7 -18039812.677 7 -11844951.50047  21655164.84047
  23654498.508 3   1229967.675 3  -5532998.77246  23654494.59846
  20953954.180 6 -20915762.748 6 -15139667.22349  20953946.04749
  20184015.945 7 -28315399.383 7 -20957500.32049  20184005.23449
  21414457.727 6 -16048998.333 6 -11422726.45748  21414449.24248
  22832880.164 5  -3004884.214 5  -2257059.32048  22832877.66048
  23131371.375 5  -2601968.843 5  -7297260.23647  23131366.29347
 24 11 23  1 54 30.0000000  0 10G06G11G13G14G15G17G19G22G24G30      
  22213539.727 5 -12929980.924 5 -11301406.55448  22213537.16448
  25068855.758 4  -2728035.410 4   -579030.89145  25068852.72745
  22557600.078 6  -3120158.814 6  -1046520.79647  22557594.34847
  21663474.516 7 -17996183.836 7 -11810954.93947  21663467.32047
  23665241.469 3   1286419.467 3  -5489010.37146  23665237.96946
  20964663.195 6 -20859484.183 6 -15095813.76349  20964655.35549
  20181735.125 7 -28327384.017 7 -20966838.92548  20181724.64848
  21418419.742 7 -16028179.183 7 -11406503.68948  21418411.02348
  22816601.227 5  -3090432.474 5  -2323720.13648  22816597.84448
  23150265.609 5  -2502675.431 5  -7219888.76947  23150261.93447
 24 11 23  1 55  0.0000000  0 10G06G11G13G14G15G17G19G22G24G30      
  22196627.555 5 -13018856.439 5 -11370660.07248  22196624.81648
  25048398.406 4  -2835536.420 4   -662797.29045  25048396.13745
  22573066.594 6  -3038888.374 6   -983193.21147  22573061.03947
  21671808.516 6 -17952388.632 6 -11776828.74348  21671801.43848
  23676045.953 4   1343193.345 4  -5444771.01946  23676042.45346
  20975424.227 6 -20802934.322 6 -15051748.88449  20975416.21149
  20179538.688 7 -28338927.760 7 -20975833.97349  20179527.80149
  21422401.805 7 -16007251.064 7 -11390196.02448  21422393.37948
  22800383.898 5  -3175656.023 5  -2390127.92647  22800379.87147
  23169206.477 5  -2403142.108 5  -7142330.37648  23169203.21148
 24 11 23  1 55 30.0000000  0 11G06G11G12G13G14G15G17G19G22G24G30   
  22179773.625 6 -13107420.797 6 -11439671.11648  22179771.00448
  25027927.641 4  -2943109.112 4   -746619.53445  25027925.95745
  25116598.20311   -574286.08411                
  22588580.797 6  -2957358.721 6   -919663.63247  22588575.65647
  21680175.063 6 -17908421.360 6 -11742568.48248  21680168.04348
  23686910.836 4   1400291.211 4  -5400279.16546  23686907.21946
  20986237.563 6 -20746109.901 6 -15007470.07749  20986229.66449
  20177426.430 7 -28350025.671 7 -20984481.63249  20177416.24649
  21426406.625 7 -15986208.116 7 -11373798.87648  21426397.67248
  22784229.352 5  -3260546.787 5  -2456276.41747  22784225.26647
  23188193.375 5  -2303365.390 5  -7064582.33047  23188189.81647
 24 11 23  1 56  0.0000000  0 11G06G11G12G13G14G15G17G19G22G24G30   
  22162979.727 6 -13195677.422 6 -11508442.39348  22162976.28548
  25007441.516 4  -3050757.391 4   -830500.72945  25007441.18045
  25101374.070 1   -654284.181 1                
  22604142.906 6  -2875579.445 6   -855939.54947  22604138.46947
  21688572.539 6 -17864288.204 6 -11708178.98248  21688566.92648
  23697835.563 3   1457704.251 3  -5355541.74346  23697832.64846
  20997101.516 6 -20689019.935 6 -14962984.34749  20997093.44149
  20175397.680 7 -28360685.127 7 -20992787.63949  20175387.55549
  21430431.805 7 -15965056.650 7 -11357317.16948  21430422.50048
  22768136.984 5  -3345108.611 5  -2522168.58748  22768133.13348
  23207225.859 5  -2203353.768 5  -6986651.22447  23207221.89147
 24 11 23  1 56 30.0000000  0 11G06G11G12G13G14G15G17G19G22G24G30   
  22146246.680 6 -13283612.795 6 -11576963.33548  22146242.77048
  24986944.828 4  -3158468.486 4   -914430.80745  24986944.49245
  25086146.03111   -734289.87911                
  22619753.930 6  -2793543.303 6   -792015.34447  22619748.66847
  21697004.563 6 -17819978.400 6 -11673651.82947  21696997.89547
  23708824.953 3   1515439.255 3  -5310553.46346  23708819.87146
  21008017.648 6 -20631655.911 6 -14918285.08249  21008009.80949
  20173454.117 7 -28370896.811 7 -21000744.75149  20173444.22749
  21434479.164 7 -15943786.271 7 -11340742.80548  21434471.09048
  22752111.289 5  -3429328.600 5  -2587794.36748  22752106.44148
  23226302.664 5  -2103098.896 5  -6908530.58747  23226299.98447
 24 11 23  1 57  0.0000000  0 10G06G11G13G14G15G17G19G22G24G30      
  22129572.563 6 -13371234.478 6 -11645239.81948  22129568.53548
  24966433.461 4  -3266250.579 4   -998416.20145  24966433.59445
  22635411.234 6  -2711264.019 6   -727901.66747  22635405.27047
  21705469.141 6 -17775502.402 6 -11638995.16147  21705461.88747
  23719867.617 1   1573483.035 1  -5265324.55846  23719865.05546
  21018983.477 6 -20574030.714 6 -14873382.30249  21018975.34449
  20171594.555 7 -28380671.923 7 -21008361.64249  20171584.19549
  21438546.852 6 -15922407.389 6 -11324083.90348  21438538.83648
  22736148.406 5  -3513214.864 5  -2653160.11248  22736143.50048
  23245424.852 5  -2002613.531 5  -6830230.32247  23245421.76247
 24 11 23  1 57 30.0000000  0 10G06G11G13G14G15G17G19G22G24G30      
  22112959.250 6 -13458532.604 6 -11713264.17949  22112956.39549
  24945911.039 4  -3374094.189 4  -1082449.55245  24945911.46545
  22651114.766 6  -2628738.236 6   -663595.90446  22651109.15246
  21713964.711 6 -17730853.022 6 -11604203.40347  21713958.16047
  23730973.18811                                
  21030000.164 6 -20516140.314 6 -14828272.87749  21029991.32849
  20169818.289 7 -28390004.431 7 -21015633.65749  20169808.34049
  21442637.133 6 -15900912.923 6 -11307334.93748  21442629.70348
  22720249.172 5  -3596757.962 5  -2718258.46748  22720246.31648
  23264590.055 5  -1901892.873 5  -6751746.68547  23264588.72347
 24 11 23  1 58  0.0000000  0 10G06G11G13G14G15G17G19G22G24G30      
  22096408.859 6 -13545507.403 6 -11781036.58148  22096405.06648
  24925376.242 4  -3482000.416 4  -1166531.70345  24925377.02045
  22666864.164 6  -2545972.610 6   -599103.23946  22666858.78546
  21722493.609 6 -17686033.503 6 -11569279.07147  21722486.70747
  23742136.09411    115081.46511                
  21041064.953 6 -20457989.948 6 -14782960.87349  21041056.93849
  20168125.836 7 -28398898.468 7 -21022564.00549  20168116.06349
  21446748.523 6 -15879306.051 6 -11290498.37848  21446740.85948
  22704417.344 5  -3679958.823 5  -2783090.15748  22704413.66848
  23283800.813 5  -1800942.443 5  -6673084.03247  23283799.59847
 24 11 23  1 58 30.0000000  0 10G06G11G13G14G15G17G19G22G24G30      
  22079919.859 6 -13632155.549 6 -11848554.47148  22079915.59848
  24904832.789 3  -3589966.294 3  -1250660.22745  24904833.15645
  22682659.219 6  -2462969.671 6   -534425.61547  22682653.84047
  21731055.508 6 -17641043.065 6 -11534221.55748  21731047.72748
  23753355.98411                  -6375765.05555  23753353.07055
  21052180.320 6 -20399581.471 6 -14737447.74449  21052171.77749
  20166517.438 7 -28407354.586 7 -21029153.12949  20166506.66849
  21450881.398 7 -15857586.092 7 -11273573.68848  21450873.14848
  22688651.336 5  -3762814.488 5  -2847652.83948  22688646.66448
  23303055.070 5  -1699763.951 5  -6594243.65148  23303053.15248
 24 11 23  1 59  0.0000000  0 10G06G11G13G14G15G17G19G22G24G30      
  22063494.547 6 -13718473.612 6 -11915815.15648  22063490.16848
  24884274.953 3  -3697988.994 3  -1334833.10445  24884276.90245
  22698499.836 6  -2379732.601 6   -469565.57147  22698493.81347
  21739649.203 6 -17595881.169 6 -11499030.43248  21739642.53548
  23764632.88311                  -6329583.37055  23764631.49255
  21063343.227 6 -20340916.965 6 -14691735.10549  21063335.44549
  20164990.602 7 -28415373.118 7 -21035401.26748  20164980.24248
  21455037.070 7 -15835752.624 7 -11256560.55048  21455028.64548
  22672949.570 5  -3845322.023 5  -2911944.26048  22672945.77748
  23322351.789 6  -1598359.065 6  -6515226.87848  23322349.63748
 24 11 23  1 59 30.0000000  0 10G06G11G13G14G15G17G19G22G24G30      
  22047131.656 6 -13804457.454 6 -11982815.40548  22047127.27748
  24863707.852 3  -3806064.805 3  -1419047.41245  24863709.91845
  22714382.906 6  -2296263.408 6   -404524.67446  22714377.52746
  21748276.359 6 -17550546.391 6 -11463704.59848  21748269.22348
  23775968.02311                  -6283168.82355  23775967.57055
  21074555.695 7 -20281997.277 7 -14645823.63249  21074547.32849
  20163547.977 7 -28422953.370 7 -21041307.88348  20163537.44148
  21459213.211 6 -15813804.134 6 -11239457.79748  21459205.07848
  22657314.766 5  -3927477.857 5  -2975961.65348  22657311.61748
  23341692.531 5  -1496728.822 5  -6436034.48647  23341688.56347
 24 11 23  2  0  0.0000000  0 10G06G11G13G14G15G17G19G22G24G30      
  22030833.313 6 -13890105.283 6 -12049553.84348  22030829.40248
  24843132.016 5  -3914192.595 5  -1503302.28445  24843131.50445
  22730309.016 6  -2212566.430 6   -339306.26947  22730304.87147
  21756935.914 6 -17505039.721 6 -11428244.79247  21756928.48447
  23787361.09412                  -6236524.73755  23787357.94555
  21085815.602 6 -20222825.948 6 -14599716.06949  21085806.70749
  20162188.195 7 -28430098.017 7 -21046875.09148  20162177.83648
  21463411.883 6 -15791741.943 6 -11222266.44048  21463403.28148
  22641749.680 5  -4009280.803 5  -3039704.03848  22641745.00848
  23361074.297 5  -1394876.594 5  -6356669.09847  23361070.38747
 24 11 23  2  0 30.0000000  0 10G06G11G13G14G15G17G19G22G24G30      
  22014599.688 6 -13975413.708 6 -12116027.81949  22014596.42249
  24822545.547 5  -4022369.456 5  -1587595.40445  24822545.38745
  22746279.406 6  -2128644.358 6   -273912.46547  22746274.55947
  21765628.430 6 -17459360.502 6 -11392650.56647  21765620.82447
  23798808.375 2    412890.652 2  -6189653.35045  23798804.05545
  21097122.781 6 -20163405.003 6 -14553413.97549  21097113.82849
  20160911.664 7 -28436807.321 7 -21052103.06049  20160901.53949
  21467631.727 6 -15769564.840 6 -11204985.54248  21467623.41848
  22626249.594 5  -4090727.880 5  -3103169.12648  22626246.09448
  23380497.469 5  -1292804.199 5  -6277132.17447  23380493.96947
 24 11 23  2  1  0.0000000  0 10G06G11G13G14G15G17G19G22G24G30      
  21998432.016 6 -14060377.911 6 -12182233.57049  21998428.92649
  24801950.805 5  -4130590.919 5  -1671923.24045  24801951.11345
  22762292.570 6  -2044498.858 6   -208344.53446  22762286.72346
  21774353.906 6 -17413506.628 6 -11356920.24147  21774347.06347
  23810308.156 2    473333.056 2  -6142555.41545  23810305.41845
  21108478.047 7 -20103734.700 7 -14506917.58549  21108469.09449
  20159717.984 7 -28443080.458 7 -21056991.16349  20159707.62549
  21471875.211 7 -15747270.999 7 -11187613.66948  21471865.96548
  22610819.680 5  -4171814.665 5  -3166353.49048  22610815.82848
  23399962.594 5  -1190511.763 5  -6197423.87747  23399957.15647
 24 11 23  2  1 30.0000000  0 10G06G11G13G14G15G17G19G22G24G30      
  21982329.398 6 -14144995.638 6 -12248169.34149  21982325.84049
  24781349.133 5  -4238855.323 5  -1756284.59546  24781348.85546
  22778346.445 6  -1960134.038 6   -142605.74447  22778340.71547
  21783113.148 6 -17367478.628 6 -11321054.23347  21783105.71947
  23821865.586 1    534062.210 1  -6095234.02645  23821862.32045
  21119879.172 6 -20043817.764 6 -14460229.01649  21119871.15649
  20158607.398 7 -28448918.553 7 -21061540.27149  20158597.15649
  21476138.063 6 -15724860.970 6 -11170151.27248  21476129.52048
  22595457.680 5  -4252539.626 5  -3229255.90048  22595453.82848
  23419469.578 5  -1088002.341 5  -6117546.45947  23419463.49647
 24 11 23  2  2  0.0000000  0 10G06G11G13G14G15G17G19G22G24G30      
  21966293.563 6 -14229262.557 6 -12313831.74549  21966289.88749
  24760739.344 6  -4347158.762 6  -1840676.34546  24760738.36346
  22794441.742 6  -1875551.522 6    -76697.31347  22794436.24647
  21791904.227 6 -17321274.843 6 -11285051.27547  21791898.14547
  23833472.67211                  -6047690.24655  23833473.97755
  21131327.586 6 -19983655.886 6 -14413349.58449  21131319.98049
  20157579.141 7 -28454321.468 7 -21065750.27349  20157569.13349
  21480425.672 6 -15702332.995 6 -11152596.95448  21480416.36748
  22580165.258 5  -4332898.762 5  -3291873.24848  22580161.75848
  23439017.289 5   -985276.732 5  -6037500.52847  23439012.44147
 24 11 23  2  2 30.0000000  0 10G06G11G13G14G15G17G19G22G24G30      
  21950323.945 6 -14313181.005 6 -12379222.61848  21950320.03548
  24740121.438 6  -4455504.046 6  -1925100.68846  24740118.81646
  22810576.281 5  -1790759.712 5    -10625.76947  22810572.84047
  21800730.016 6 -17274900.404 6 -11248915.32847  21800722.58647
  23845138.40611    656368.09811  -5999930.72955  23845136.72355
  21142821.281 6 -19923256.218 6 -14366284.86649  21142813.14849
  20156632.344 7 -28459295.797 7 -21069626.33149  20156622.16049
  21484734.477 6 -15679692.203 6 -11134954.73348  21484724.64548
  22564941.992 5  -4412895.031 5  -3354207.86348  22564938.49248
  23458605.672 6   -882342.352 6  -5957291.92347  23458601.64547
 24 11 23  2  3  0.0000000  0 10G06G11G13G14G15G17G19G22G24G30      
  21934422.641 6 -14396744.391 6 -12444336.83349  21934418.14549
  24719496.500 6  -4563885.005 6  -2009552.81746  24719493.52746
  22826751.539 5  -1705758.775 5     55608.74746  22826747.68846
  21809587.766 6 -17228351.375 6 -11212643.33747  21809580.57047
  23856858.055 3    717936.469 3  -5951955.31546  23856852.67646
  21154360.313 6 -19862617.049 6 -14319033.51849  21154352.59049
  20155767.891 7 -28463838.551 7 -21073166.08249  20155758.05949
  21489064.508 6 -15656934.945 6 -11117221.74448  21489056.02348
  22549789.945 5  -4492522.291 5  -3416254.93648  22549786.27048
  23478232.992 5   -779197.753 5  -5876919.51047  23478230.78147
 24 11 23  2  3 30.0000000  0 10G06G11G13G14G15G17G19G22G24G30      
  21918589.063 6 -14479950.346 6 -12509172.51749  21918584.91849
  24698865.195 6  -4672299.626 6  -2094031.15346  24698861.87146
  22842966.016 5  -1620552.271 5    122003.44947  22842961.98847
  21818478.930 6 -17181628.043 6 -11176235.54547  21818471.91047
  23868622.156 2    779778.970 2  -5903766.36246  23868621.05946
  21165945.422 6 -19801741.383 6 -14271597.89649  21165936.70349
  20154985.180 7 -28467951.187 7 -21076370.67749  20154975.11349
  21493416.922 6 -15634061.466 6 -11099398.19248  21493409.25848
  22534707.938 5  -4571778.601 5  -3478012.95548  22534704.02748
  23497901.242 5   -675845.671 5  -5796385.44547  23497897.85947
 24 11 23  2  4  0.0000000  0 10G06G11G13G14G15G17G19G22G24G30      
  21902824.750 6 -14562794.154 6 -12573726.02549  21902820.72349
  24678226.625 4  -4780743.600 4  -2178532.39546  24678225.17646
  22859219.016 5  -1535141.788 5    188557.05146  22859214.75446
  21827403.086 6 -17134728.428 6 -11139690.33747  21827395.94947
  23880443.984 4    841893.384 4  -5855365.56046  23880440.77746
  21177573.477 6 -19740630.015 6 -14223978.60949  21177565.63749
  20154284.352 7 -28471632.906 7 -21079239.49849  20154274.22749
  21497792.711 7 -15611069.430 7 -11081482.27348  21497783.81648
  22519697.633 6  -4650659.765 6  -3539478.65248  22519693.31348
  23517607.922 6   -572286.525 6  -5715690.01247  23517604.07047
 24 11 23  2  4 30.0000000  0 10G06G11G13G14G15G17G19G22G24G30      
  21887129.359 6 -14645273.889 6 -12637995.84349  21887125.33249
  24657584.563 4  -4889215.434 4  -2263055.32546  24657583.81646
  22875509.766 5  -1449531.444 5    255266.40146  22875504.32846
  21836361.703 6 -17087653.298 6 -11103008.37047  21836353.74647
  23892313.578 3    904276.069 3  -5806755.66346  23892310.89846
  21189247.320 6 -19679286.098 6 -14176178.10949  21189238.60249
  20153665.141 7 -28474885.725 7 -21081774.09949  20153655.42649
  21502189.570 6 -15587959.681 6 -11063474.63648  21502181.20348
  22504758.961 5  -4729164.371 5  -3600650.93448  22504754.58248
  23537353.258 6   -468523.521 6  -5634835.76947  23537349.05547
 24 11 23  2  5  0.0000000  0 10G06G11G13G14G15G17G19G22G24G30      
  21871503.445 6 -14727387.387 6 -12701980.27049  21871499.18449
  24636938.289 5  -4997713.307 5  -2347598.57146  24636936.84046
  22891839.945 5  -1363725.208 5    322128.38146  22891832.22346
  21845353.945 6 -17040403.168 6 -11066190.04747  21845345.40247
  23904236.859 2    966923.165 2  -5757939.73046  23904233.65246
  21200964.297 6 -19617712.024 6 -14128198.28949  21200955.98849
  20153127.258 7 -28477711.752 7 -21083976.13349  20153116.89849
  21506609.844 7 -15564732.802 7 -11045375.72148  21506601.35948
  22489891.469 5  -4807290.630 5  -3661528.40348  22489887.44148
  23557135.969 5   -364559.665 5  -5553825.02147  23557133.40647
 24 11 23  2  5 30.0000000  0 10G06G11G13G14G15G17G19G22G24G30      
  21855948.539 6 -14809129.809 6 -12765675.55849  21855943.39849
  24616287.531 4  -5106232.795 4  -2432158.70846  24616285.90646
  22908204.070 5  -1277724.209 5    389142.07446  22908197.98846
  21854377.820 6 -16992975.826 6 -11029233.63947  21854371.09447
  23916205.375 1   1029833.320 1  -5708918.89646  23916205.56646
  21212725.602 6 -19555908.430 6 -14080039.61449  21212716.41449
  20152670.734 6 -28480109.520 6 -21085844.45049  20152660.49249
  21511052.844 7 -15541386.555 7 -11027183.78848  21511043.77348
  22475097.766 6  -4885034.295 6  -3722107.74548  22475093.56348
  23576957.422 5   -260395.159 5  -5472657.89147  23576955.27047
 24 11 23  2  6  0.0000000  0 10G06G11G13G14G15G17G19G22G24G30      
  21840463.203 6 -14890499.799 6 -12829080.60848  21840459.00048
  24595633.148 5  -5214772.854 5  -2516734.87746  24595630.76246
  22924604.750 5  -1191533.832 5    456303.41946  22924600.25446
  21863437.148 6 -16945372.551 6 -10992140.16947  21863429.71947
  23928227.46111   1093001.59311  -5659696.82456  23928225.01656
  21224528.906 6 -19493879.715 6 -14031705.52149  21224520.07049
  20152295.789 7 -28482081.718 7 -21087381.16149  20152285.48849
  21515517.883 7 -15517922.484 7 -11008900.05948  21515508.87148
  22460376.406 6  -4962394.464 6  -3782388.24848  22460371.79348
  23596817.359 5   -156033.849 5  -5391337.43747  23596814.62147
 24 11 23  2  6 30.0000000  0 10G06G11G13G14G15G17G19G22G24G30      
  21825050.203 6 -14971493.684 6 -12892192.60048  21825046.11748
  24574976.289 5  -5323330.144 5  -2601324.43646  24574971.73446
  22941041.688 4  -1105156.393 4    523610.50746  22941038.89146
  21872528.773 6 -16897592.354 6 -10954908.80447  21872522.10547
  23940294.328 1   1156426.181 1  -5610275.01446  23940294.63746
  21236375.148 6 -19431626.649 6 -13983196.61649  21236366.95749
  20152000.844 7 -28483628.742 7 -21088586.56949  20151991.71549
  21520005.531 7 -15494339.074 7 -10990523.32148  21519996.52048
  22445728.102 5  -5039367.861 5  -3842367.36448  22445723.72348
  23616712.727 5    -51477.056 5  -5309864.60447  23616710.63347
 24 11 23  2  7  0.0000000  0 10G06G11G13G14G15G17G19G22G24G30      
  21809710.375 6 -15052108.209 6 -12955008.98549  21809705.99649
  24554316.398 5  -5431901.799 5  -2685925.21646  24554310.49246
  22957512.891 3  -1018594.554 3    591061.30447  22957510.91447
  21881654.695 6 -16849634.641 6 -10917539.14147  21881648.26247
  23952413.313 2   1220104.133 2  -5560655.92146  23952411.92246
  21248264.281 6 -19369151.364 6 -13934514.54949  21248255.32849
  20151787.711 7 -28484751.261 7 -21089461.20249  20151777.99649
  21524515.594 7 -15470635.756 7 -10972053.15548  21524507.22748
  22431154.703 6  -5115951.780 6  -3902043.00548  22431150.32448
  23636646.344 5     53273.314 5  -5228240.95047  23636644.54347
 24 11 23  2  7 30.0000000  0 10G06G11G13G14G15G17G19G22G24G30      
  21794443.172 6 -15132341.622 6 -13017528.39949  21794438.09049
  24533654.273 6  -5540486.259 6  -2770536.00846  24533646.84446
  22974020.078 4   -931852.700 4    658652.37646  22974017.10546
  21890814.734 6 -16801500.236 6 -10880031.80347  21890807.65647
  23964579.836 3   1284031.358 3  -5510842.50146  23964577.50846
  21260193.898 6 -19306457.125 6 -13885661.87049  21260185.76649
  20151654.914 7 -28485451.429 7 -21090006.71949  20151644.37949
  21529048.484 7 -15446813.427 7 -10953490.25348  21529040.76248
  22416655.656 6  -5192144.829 6  -3961414.07148  22416650.33648
  23656616.633 5    158213.928 5  -5146469.03847  23656614.94947
 24 11 23  2  8  0.0000000  0 10G06G11G13G14G15G17G19G22G24G30      
  21779248.008 6 -15212190.613 6 -13079748.27349  21779243.27749
  24512990.258 6  -5649080.586 6  -2855154.49446  24512982.65246
  22990561.656 5   -844933.698 5    726381.46746  22990556.86746
  21900008.828 6 -16753188.469 6 -10842386.22847  21900001.39847
  23976791.563 1   1348204.946 1  -5460837.20846  23976789.23446
  21272165.891 6 -19243545.524 6 -13836639.82249  21272157.87549
  20151601.398 6 -28485729.688 6 -21090223.48049  20151591.62549
  21533605.328 7 -15422871.441 7 -10934834.12248  21533596.72748
  22402231.430 6  -5267944.230 6  -4020478.41248  22402226.46548
  23676622.602 5    263343.031 5  -5064550.28547  23676619.57047
 24 11 23  2  8 30.0000000  0 10G06G11G13G14G15G17G19G22G24G30      
  21764127.141 6 -15291652.569 6 -13141666.56249  21764122.87949
  24492322.773 6  -5757682.432 6  -2939778.87146  24492315.75446
  23007136.180 5   -757841.093 5    794245.79046  23007129.98046
  21909235.773 6 -16704699.306 6 -10804602.46847  21909227.87547
  23989049.461 3   1412621.269 3  -5410642.62746  23989045.90246
  21284178.461 6 -19180419.328 6 -13787450.54949  21284170.15249
  20151628.711 6 -28485587.165 6 -21090112.36049  20151618.23449
  21538183.828 7 -15398809.685 7 -10916084.66848  21538175.28548
  22387883.125 6  -5343347.830 6  -4079234.30548  22387877.80548
  23696664.055 5    368658.123 5  -4982486.64747  23696659.91047
 24 11 23  2  9  0.0000000  0 10G06G11G13G14G15G17G19G22G24G30      
  21749078.516 6 -15370724.118 6 -13203280.62249  21749076.36349
  24471655.313 6  -5866288.639 6  -3024406.67646  24471647.53146
  23023740.875 5   -670577.675 5    862243.24846  23023735.02746
  21918496.313 6 -16656032.057 6 -10766679.92046  21918488.29746
  24001353.313 2   1477278.179 2  -5360260.69346  24001349.87146
  21296231.609 6 -19117079.858 6 -13738095.08249  21296223.47749
  20151735.398 7 -28485025.301 7 -21089674.47749  20151724.92249
  21542784.977 7 -15374627.135 7 -10897241.07948  21542776.60948
  22373609.875 6  -5418352.653 6  -4137679.47848  22373604.79348
  23716740.477 5    474157.529 5  -4900279.37747  23716735.68847
 24 11 23  2  9 30.0000000  0 10G06G11G13G14G15G17G19G22G24G30      
  21734106.445 6 -15449399.993 6 -13264586.38049  21734104.00049
  24450988.547 6  -5974894.196 6  -3109033.99546  24450980.94146
  23040378.641 5   -583143.933 5    930373.41546  23040373.85246
  21927791.766 6 -16607183.929 6 -10728616.33446  21927782.69546
  24013702.578 2   1542174.980 2  -5309691.81846  24013699.72346
  21308325.508 6 -19053527.097 6 -13688573.43349  21308317.08249
  20151922.586 7 -28484042.304 7 -21088908.44149  20151912.46149
  21547410.828 7 -15350320.979 7 -10878301.17948  21547402.40248
  22359413.656 6  -5492953.959 6  -4195810.21548  22359409.33648
  23736850.188 5    579841.406 5  -4817928.35847  23736847.03947
 24 11 23  2 10  0.0000000  0 10G06G11G13G14G15G17G19G22G24G30      
  21719210.914 6 -15527681.817 6 -13325585.07949  21719207.12149
  24430320.969 5  -6083500.956 5  -3193662.26346  24430314.71146
  23057048.273 5   -495548.077 5    998629.88646  23057042.25046
  21937120.617 6 -16558159.112 6 -10690415.14846  21937112.89546
  24026096.125 2   1607303.580 2  -5258942.23746  24026093.15246
  21320457.805 6 -18989767.621 6 -13638890.70249  21320450.08249
  20152188.117 7 -28482643.519 7 -21087818.42149  20152178.34449
  21552059.008 7 -15325895.458 7 -10859268.28148  21552050.46548
  22345292.930 6  -5567153.727 6  -4253628.08148  22345289.13748
  23756994.461 4    685703.121 4  -4735438.72447  23756992.95347
 24 11 23  2 10 30.0000000  0 11G06G11G12G13G14G15G17G19G22G24G30   
  21704390.906 6 -15605566.114 6 -13386273.99749  21704385.82449
  24409653.984 5  -6192105.625 5  -3278288.93446  24409648.90246
  24658822.81311   -816028.58211                
  23073747.219 5   -407792.178 5   1067011.08846  23073741.84046
  21946483.797 6 -16508956.741 6 -10652075.60746  21946476.54346
  24038533.484 2   1672661.785 2  -5208013.78846  24038531.39146
  21332630.570 7 -18925803.001 7 -13589048.10949  21332621.91049
  20152533.227 7 -28480829.555 7 -21086404.88749  20152523.21949
  21556729.539 7 -15301349.332 7 -10840141.40748  21556720.46948
  22331249.820 6  -5640948.898 6  -4311130.68248  22331246.55548
  23777172.094 4    791741.019 4  -4652811.82047  23777170.93847
 24 11 23  2 11  0.0000000  0 11G06G11G12G13G14G15G17G19G22G24G30   
  21689647.203 6 -15683044.251 6 -13446646.45549  21689642.47349
  24388986.984 5  -6300699.767 5  -3362907.42546  24388983.89546
  24643524.211 1   -896403.086 1                
  23090477.789 5   -319873.886 5   1135518.82346  23090472.70746
  21955881.883 6 -16459570.820 6 -10613593.03546  21955873.86746
  24051015.984 3   1738252.384 3  -5156904.28646  24051012.25046
  21344842.234 6 -18861629.667 6 -13539042.87949  21344833.57449
  20152958.328 6 -28478595.709 6 -21084664.17549  20152948.32049
  21561424.930 7 -15276677.174 7 -10820916.31548  21561415.91848
  22317285.891 6  -5714331.379 6  -4368311.70948  22317281.80548
  23797385.766 5    897958.717 5  -4570044.77347  23797383.26247
 24 11 23  2 11 30.0000000  0 11G06G11G12G13G14G15G17G19G22G24G30   
  21674982.781 6 -15760102.041 6 -13506691.35449  21674978.16849
  24368325.391 4  -6409269.414 4  -3447506.80646  24368322.18446
  24628230.484 1   -976773.429 1   -490860.06455  24628228.33255
  23107239.477 5   -231785.355 5   1204159.20946  23107234.51246
  21965315.625 6 -16409989.630 6 -10574958.30646  21965308.48846
  24063542.516 3   1804083.493 3  -5105607.39247  24063540.77347
  21357095.117 6 -18797238.330 6 -13488867.77849  21357086.69149
  20153465.766 7 -28475931.556 7 -21082588.16449  20153455.23049
  21566145.875 6 -15251866.841 6 -10801583.55448  21566137.09848
  22303402.852 6  -5787287.419 6  -4425160.44348  22303398.35548
  23817635.133 5   1004365.348 5  -4487130.52547  23817632.80547
 24 11 23  2 12  0.0000000  0 11G06G11G12G13G14G15G17G19G22G24G30   
  21660393.453 6 -15836766.758 6 -13566429.94749  21660389.89549
  24347665.141 4  -6517841.931 4  -3532108.43646  24347661.40646
  24612932.789 1  -1057169.125 1   -553505.76545  24612929.46545
  23124028.234 5   -143559.329 5   1272906.73246  23124022.79746
  21974782.469 5 -16360242.959 5 -10536194.66646  21974775.68446
  24076110.641 3   1870121.869 3  -5054148.93547  24076107.37547
  21369384.180 6 -18732661.305 6 -13438547.98449  21369375.81349
  20154048.508 7 -28472868.442 7 -21080201.27849  20154038.20749
  21570888.047 6 -15226947.832 6 -10782166.10848  21570879.27048
  22289595.633 6  -5859844.581 6  -4481698.37548  22289591.02048
  23837913.750 5   1110928.651 5  -4404094.20647  23837910.71947
 24 11 23  2 12 30.0000000  0 11G06G11G12G13G14G15G17G19G22G24G30   
  21645882.977 6 -15913019.363 6 -13625847.42649  21645878.94949
  24327008.273 5  -6626398.394 5  -3616697.61446  24327004.42246
  24597629.96911                   -616158.63055  24597627.87555
  23140845.219 5    -55182.866 5   1341771.51146  23140840.78146
  21984283.813 5 -16310314.215 5 -10497289.08646  21984275.62146
  24088719.383 2   1936380.887 2  -5002518.57847  24088716.05947
  21381710.664 6 -18667884.129 6 -13388072.22749  21381701.77049
  20154709.977 7 -28469391.052 7 -21077491.57849  20154699.91049
  21575652.773 6 -15201903.418 6 -10762650.93748  21575644.75848
  22275867.289 6  -5931984.366 6  -4537911.06748  22275862.79348
  23858224.930 4   1217662.610 4  -4320924.87047  23858222.36747
 24 11 23  2 13  0.0000000  0 11G06G11G12G13G14G15G17G19G22G24G30   
  21631451.547 6 -15988860.662 6 -13684944.41749  21631447.10949
  24306352.758 4  -6734939.867 4  -3701275.14846  24306349.37546
  24582326.578 1  -1217991.584 1   -678821.41545  24582325.53945
  23157691.453 5     33336.857 5   1410747.91846  23157686.25046
  21993818.961 5 -16260206.906 5 -10458244.39846  21993811.18046
  24101368.898 4   2002853.307 4  -4950721.90047  24101365.34047
  21394073.648 7 -18602912.997 7 -13337445.34249  21394065.34049
  20155449.750 7 -28465504.418 7 -21074462.98149  20155439.44949
  21580442.500 6 -15176737.146 6 -10743040.83748  21580433.78148
  22262218.539 6  -6003707.961 6  -4593799.46748  22262214.27748
  23878566.766 4   1324561.387 4  -4237627.17447  23878562.62147
 24 11 23  2 13 30.0000000  0 11G06G11G12G13G14G15G17G19G22G24G30   
  21617098.859 6 -16064284.148 6 -13743715.86449  21617094.01249
  24285703.133 4  -6843459.807 4  -3785835.86846  24285697.52046
  24567023.922 1  -1298417.706 1   -741490.85045  24567020.53945
  23174563.289 5    122000.506 5   1479836.50646  23174558.20746
  22003389.664 5 -16209916.871 5 -10419057.31046  22003380.77046
  24114054.922 1   2069540.156 1  -4898758.15646  24114055.28946
  21406475.266 7 -18537746.124 7 -13286665.93649  21406466.72349
  20156267.609 7 -28461205.964 7 -21071113.49649  20156257.54349
  21585255.516 6 -15151444.827 6 -10723332.50648  21585246.62148
  22248650.781 6  -6075009.322 6  -4649358.87148  22248646.05148
  23898938.258 2   1431626.453 2  -4154199.91946  23898934.75846
 24 11 23  2 14  0.0000000  0 11G06G11G12G13G14G15G17G19G22G24G30   
  21602825.242 6 -16139288.388 6 -13802160.61249  21602821.21549
  24265057.898 4  -6951956.942 4  -3870378.84446  24265049.53146
  24551716.898 1  -1378853.727 1   -804167.91745  24551713.80945
  23191462.805 5    210803.601 5   1549033.69746  23191456.60546
  22012993.141 5 -16159445.218 5 -10379728.65146  22012985.53546
  24126786.391 1   2136437.013 1  -4846630.76946  24126785.46946
  21418912.680 6 -18472386.839 6 -13235736.58849  21418903.55149
  20157163.977 7 -28456497.905 7 -21067444.83049  20157153.55949
  21590091.789 6 -15126027.437 6 -10703526.72748  21590083.30548
  22235162.477 6  -6145887.366 6  -4704588.39448  22235157.92248
  23919342.719 1   1538854.317 1  -4070645.79246  23919338.51646
 24 11 23  2 14 30.0000000  0 11G06G11G12G13G14G15G17G19G22G24G30   
  21588633.891 6 -16213868.602 6 -13860274.96349  21588629.16049
  24244412.906 4  -7060426.590 4  -3954900.46646  24244407.29346
  24536407.82011  -1459297.27111   -866851.04455  24536405.31655
  23208388.156 5    299745.183 5   1618338.79646  23208381.02046
  22022633.008 5 -16108789.668 5 -10340256.77146  22022626.04746
  24139553.719 1   2203542.693 1  -4794340.68646  24139554.90646
  21431386.219 6 -18406835.318 6 -13184657.42949  21431378.02749
  20158137.859 7 -28451379.621 7 -21063456.50749  20158127.67649
  21594953.031 7 -15100482.217 7 -10683621.31848  21594944.37148
  22221755.742 6  -6216337.772 6  -4759484.70948  22221751.12948
  23939778.672 2   1646244.683 2  -3986965.01846  23939774.87946
 24 11 23  2 15  0.0000000  0 11G06G11G12G13G14G15G17G19G22G24G30   
  21574521.930 6 -16288025.628 6 -13918059.53349  21574517.84449
  24223777.133 5  -7168869.459 5  -4039401.23046  24223770.17246
  24521101.42211  -1539751.97811   -929542.80355  24521095.34055
  23225337.594 5    388818.118 5   1687746.25146  23225331.04346
  22032306.586 5 -16057953.366 5 -10300644.13346  22032299.56646
  24152365.938 4   2270850.352 4  -4741893.21646  24152363.02346
  21443895.750 6 -18341097.209 6 -13133432.90749  21443887.50049
  20159188.719 7 -28445855.679 7 -21059152.09049  20159178.35949
  21599838.336 7 -15074812.588 7 -10663618.96448  21599829.67648
  22208431.297 6  -6286361.754 6  -4814048.72048  22208426.03548
  23960243.352 2   1753791.770 2  -3903162.11947  23960241.55147
 24 11 23  2 15 30.0000000  0 11G06G11G12G13G14G15G17G19G22G24G30   
  21560492.445 6 -16361755.519 6 -13975511.28549  21560487.42249
  24203147.156 5  -7277281.833 5  -4123878.23746  24203140.43046
  24505789.03911  -1620216.35311                
  23242312.148 5    478020.912 5   1757254.86846  23242307.06646
  22042016.055 4 -16006935.007 4 -10260889.56246  22042007.68846
  24165211.750 2   2338358.118 2  -4689289.86046  24165208.95346
  21456440.680 6 -18275173.465 6 -13082063.73049  21456432.19549
  20160316.992 7 -28439926.055 7 -21054531.54949  20160306.34049
  21604747.109 7 -15049016.991 7 -10643518.47848  21604738.39148
  22195188.102 6  -6355955.820 6  -4868277.74848  22195182.19548
  23980738.625 2   1861494.485 2  -3819237.92447  23980737.41047
 24 11 23  2 16  0.0000000  0 11G06G11G12G13G14G15G17G19G22G24G30   
  21546543.602 6 -16435052.881 6 -14032626.01549  21546538.93049
  24182525.336 5  -7385658.385 5  -4208327.31946  24182517.02746
  24490471.00011                                
  23259311.383 5    567352.589 5   1826863.96946  23259305.35946
  22051758.648 4 -15955731.541 4 -10220990.75946  22051751.68846
  24178096.258 1   2406065.483 1  -4636530.90846  24178093.10946
  21469020.789 6 -18209063.540 6 -13030549.49249  21469012.42249
  20161522.844 7 -28433589.529 7 -21049593.95649  20161512.19149
  21609679.820 6 -15023092.319 6 -10623317.40348  21609671.21948
  22182026.930 6  -6425114.866 6  -4922167.80948  22182021.49248
  24001264.531 3   1969353.306 3  -3735192.10747  24001262.67247
 24 11 23  2 16 30.0000000  0 11G06G11G12G13G14G15G17G19G22G24G30   
  21532678.055 6 -16507915.537 6 -14089401.99749  21532673.32449
  24161908.086 5  -7493996.858 5  -4292746.74646  24161900.53946
  24475157.21911                                
  23276335.141 5    656809.555 5   1896570.64646  23276329.05946
  22061536.602 3 -15904343.294 3 -10180947.95046  22061529.52346
  24191016.79711                  -5811219.18456  24191015.34856
  21481636.367 6 -18142769.954 6 -12978892.13849  21481627.59049
  20162806.063 7 -28426847.752 7 -21044340.58449  20162794.88349
  21614637.453 6 -14997038.523 6 -10603015.72548  21614629.37948
  22168948.969 6  -6493837.218 6  -4975717.58648  22168944.41448
  24021819.313 5   2077365.588 5  -3651026.74747  24021817.10247
 24 11 23  2 17  0.0000000  0 11G06G11G12G13G14G15G17G19G22G24G30   
  21518894.656 6 -16580351.385 6 -14145845.39849  21518888.98449
  24141295.750 5  -7602305.101 5  -4377142.62446  24141290.13746
  24459839.79711  -1861660.95811                
  23293378.531 5    746378.054 5   1966364.27946  23293373.97746
  22071350.203 5 -15852780.417 5 -10140769.12346  22071341.36746
  24203972.438 1    966634.511 1  -5758165.53346  24203971.80946
  21494283.992 6 -18076305.619 6 -12927101.72849  21494275.33249
  20164163.438 7 -28419712.491 7 -21038780.58848  20164152.72748
  21619618.742 7 -14970865.905 7 -10582621.46248  21619608.96948
  22155953.391 6  -6562131.073 6  -5028933.47548  22155948.36748
  24042400.602 5   2185518.300 5  -3566751.95547  24042397.62947
 24 11 23  2 17 30.0000000  0 11G06G11G12G13G14G15G17G19G22G24G30   
  21505194.477 7 -16652342.936 7 -14201942.59549  21505189.03949
  24120693.047 5  -7710565.640 5  -4461501.34246  24120688.31646
  24444524.22711  -1942158.81911   -858236.91655  24444516.38755
  23310445.680 5    836069.904 5   2036254.03946  23310441.71146
  22081198.320 5 -15801028.018 5 -10100442.55146  22081190.12946
  24216965.42211                  -5704960.72256  24216964.32456
  21506966.906 6 -18009657.514 6 -12875168.11549  21506957.89549
  20165598.813 7 -28412170.239 7 -21032903.46549  20165587.98449
  21624624.648 6 -14944559.060 6 -10562122.57948  21624615.75448
  22143043.016 6  -6629979.393 6  -5081802.21448  22143037.52048
  24063011.109 5   2293824.040 5  -3482357.88747  24063008.48847
 24 11 23  2 18  0.0000000  0 11G06G11G12G13G14G15G17G19G22G24G30   
  21491577.938 6 -16723897.118 6 -14257698.98449  21491572.73449
  24100100.797 4  -7818785.298 4  -4545828.24546  24100095.00846
  24429201.664 1  -2022668.627 1   -920971.49445  24429196.05145
  23327534.633 5    925871.850 5   2106229.58446  23327530.72346
  22091079.781 4 -15749095.350 4 -10059975.53046  22091072.46946
  24229995.56311   1103374.99811  -5655687.49456  24229993.05956
  21519681.859 6 -17942837.383 6 -12823100.47249  21519673.49249
  20167109.188 7 -28404231.532 7 -21026717.42149  20167098.88749
  21629654.250 7 -14918127.151 7 -10541526.27148  21629645.29748
  22130215.398 6  -6697389.490 6  -5134329.47348  22130209.55148
  24083647.406 5   2402271.016 5  -3397853.77047  24083645.84047
 24 11 23  2 18 30.0000000  0 11G06G11G12G13G14G15G17G19G22G24G30   
  21478046.266 6 -16795000.852 6 -14313104.37649  21478042.29749
  24079517.992 5  -7926951.014 5  -4630113.06946  24079512.37946
  24413876.40611                   -983707.11555  24413875.13355
  23344644.711 4   1015791.695 4   2176296.95446  23344642.26646
  22100999.648 4 -15696971.577 4 -10019359.63746  22100992.21946
  24243056.40611   1172024.31511  -5602194.57856  24243056.12956
  21532431.695 6 -17875836.857 6 -12770892.23849  21532423.38749
  20168697.000 7 -28395887.477 7 -21020215.51049  20168686.87549
  21634710.383 7 -14891559.402 7 -10520824.09248  21634701.25448
  22117473.703 6  -6764348.719 6  -5186505.38448  22117467.73848
  24104313.477 5   2510867.340 5  -3313233.28047  24104309.80147
 24 11 23  2 19  0.0000000  0 10G06G11G13G14G15G17G19G22G24G30      
  21464599.938 6 -16865662.517 6 -14368165.31949  21464596.08649
  24058943.563 5  -8035071.000 5  -4714362.25546  24058938.42246
  23361775.734 5   1105814.948 5   2246444.93446  23361772.93846
  22110952.664 5 -15644667.652 5  -9978603.31146  22110944.47346
  24256154.727 1   1240848.115 1  -5548565.70946  24256153.04346
  21545213.656 6 -17808668.927 6 -12718553.56349  21545205.28949
  20170359.711 7 -28387150.233 7 -21013407.22749  20170349.64549
  21639789.711 7 -14864866.431 7 -10500024.33348  21639780.11348
  22104815.258 5  -6830865.716 5  -5238336.71348  22104809.64548
  24125004.391 6   2619599.784 6  -3228506.75147  24125000.59847
 24 11 23  2 19 30.0000000  0 10G06G11G13G14G15G17G19G22G24G30      
  21451239.398 6 -16935874.292 6 -14422875.72149  21451235.19549
  24038379.063 5  -8143137.401 5  -4798569.62646  24038375.32846
  23378928.289 5   1195943.593 5   2316674.99146  23378922.20746
  22120941.859 5 -15592177.974 5  -9937702.25946  22120933.19946
  24269287.227 2   1309848.516 2  -5494799.27346  24269284.02046
  21558027.391 6 -17741330.571 6 -12666082.08749  21558019.14149
  20172097.727 7 -28378015.836 7 -21006289.47349  20172087.42649
  21644893.281 6 -14838042.281 6 -10479122.36048  21644884.56348
  22092242.555 6  -6896933.123 6  -5289817.71948  22092237.59048
  24145721.047 5   2728471.177 5  -3143671.92147  24145718.66047
 24 11 23  2 20  0.0000000  0 10G06G11G13G14G15G17G19G22G24G30      
  21437964.852 6 -17005633.712 6 -14477233.62649  21437960.59049
  24017824.539 5  -8251147.517 5  -4882733.16046  24017822.21146
  23396098.922 5   1286174.729 5   2386984.91246  23396093.01646
  22130963.492 4 -15539502.449 4  -9896656.40146  22130956.88346
  24282451.969 3   1379022.097 3  -5440897.80646  24282446.12146
  21570873.555 6 -17673824.000 6 -12613479.52949  21570864.77749
  20173911.484 7 -28368485.636 7 -20998863.30549  20173900.94949
  21650022.805 6 -14811086.752 6 -10458118.02848  21650014.61348
  22079755.969 6  -6962548.723 6  -5340946.65448  22079751.00448
  24166464.359 5   2837479.250 5  -3058730.58047  24166462.20747
 24 11 23  2 20 30.0000000  0 10G06G11G13G14G15G17G19G22G24G30      
  21424777.164 6 -17074936.838 6 -14531235.95949  21424771.72749
  23997281.555 5  -8359097.337 5  -4966849.69946  23997279.22746
  23413287.305 5   1376506.095 5   2457372.95446  23413282.22346
  22141022.914 3 -15486639.406 3  -9855464.43946  22141016.18846
  24295643.820 1   1448367.157 1  -5386862.70046  24295642.02046
  21583751.258 6 -17606149.466 6 -12560746.09449  21583742.71549
  20175800.117 7 -28358559.516 7 -20991128.63049  20175788.93849
  21655178.195 7 -14783998.315 7 -10437010.13048  21655168.94948
  22067356.578 5  -7027709.087 5  -5391720.86548  22067351.08248
  24187234.570 5   2946623.020 5  -2973683.49747  24187230.95347
 24 11 23  2 21  0.0000000  0 10G06G11G13G14G15G17G19G22G24G30      
  21411675.609 6 -17143782.853 6 -14584882.10349  21411669.52749
  23976751.758 5  -8466985.871 5  -5050918.47946  23976748.96146
  23430495.516 5   1466932.946 5   2527835.41446  23430490.43446
  22151118.031 4 -15433590.490 4  -9814127.59046  22151111.07046
  24308872.57011   1517878.43311  -5332698.17856  24308870.06656
  21596660.578 6 -17538311.314 6 -12507885.18849  21596652.21149
  20177763.953 7 -28348240.692 7 -20983087.95049  20177753.06649
  21660357.898 7 -14756778.091 7 -10415799.53948  21660348.77048
  22055043.813 5  -7092413.672 5  -5442139.94148  22055038.19948
  24208029.203 5   3055898.479 5  -2888533.82347  24208025.64547
 24 11 23  2 21 30.0000000  0 10G06G11G13G14G15G17G19G22G24G30      
  21398662.313 6 -17212167.150 6 -14638168.46049  21398656.40649
  23956233.797 5  -8574808.419 5  -5134935.78746  23956230.18046
  23447721.648 5   1557454.247 5   2598371.44046  23447716.38746
  22161250.297 4 -15380353.219 4  -9772643.98846  22161242.04746
  24322129.06311                  -5278404.57956  24322128.37556
  21609601.383 6 -17470309.282 6 -12454896.57649  21609592.31349
  20179802.805 7 -28337528.395 7 -20974740.65949  20179791.56649
  21665563.094 7 -14729423.507 7 -10394484.22448  21665553.84848
  22042818.336 6  -7156658.234 6  -5492200.54748  22042813.25448
  24228848.836 5   3165305.318 5  -2803281.75247  24228844.98447
 24 11 23  2 22  0.0000000  0 10G06G11G13G14G15G17G19G22G24G30      
  21385736.922 6 -17280093.051 6 -14691097.63249  21385731.60249
  23935728.664 5  -8682568.024 5  -5218904.07146  23935723.52346
  23464962.938 5   1648060.925 5   2668974.00346  23464958.38346
  22171415.328 4 -15326933.391 4  -9731018.11446  22171407.60546
  24335418.91411                  -5223989.01856  24335417.11356
  21622571.281 6 -17402151.314 6 -12401786.45149  21622562.56349
  20181914.320 7 -28326429.944 7 -20966092.47248  20181903.08248
  21670792.336 6 -14701939.932 6 -10373068.40648  21670784.37948
  22030679.633 5  -7220446.506 5  -5541905.62148  22030674.72748
  24249691.516 5   3274835.432 5  -2717933.63246  24249688.30946
 24 11 23  2 22 30.0000000  0 11G06G11G12G13G14G15G17G19G22G24G30   
  21372898.672 6 -17347555.029 6 -14743665.32249  21372893.64849
  23915234.750 5  -8790259.089 5  -5302818.94246  23915229.43046
  24291260.94511   -194366.41911   -789450.34256  24291254.45356
  23482220.672 5   1738752.682 5   2739642.91946  23482216.58646
  22181615.828 5 -15273327.620 5  -9689247.31346  22181607.40246
  24348739.32012   1727377.74412  -5169451.97156  24348736.40656
  21635571.148 6 -17333836.385 6 -12348554.02849  21635562.43049
  20184100.328 7 -28314943.290 7 -20957141.78748  20184089.32448
  21676047.906 6 -14674324.150 6 -10351549.58748  21676038.83648
  22018629.125 6  -7283773.238 6  -5591251.04548  22018623.98448
  24270558.688 5   3384489.582 5  -2632488.89447  24270555.30547
 24 11 23  2 23  0.0000000  0 11G06G11G12G13G14G15G17G19G22G24G30   
  21360150.109 6 -17414548.446 6 -14795867.90649  21360145.26249
  23894756.617 5  -8897876.634 5  -5386676.50746  23894749.71546
  24275927.453 1   -274938.229 1   -852233.26246  24275922.01646
  23499495.484 5   1829528.886 5   2810377.57946  23499490.98846
  22191851.844 4 -15219533.600 4  -9647329.87446  22191845.29346
  24362088.531 3   1797522.426 3  -5114793.82446  24362082.85946
  21648600.539 6 -17265364.608 6 -12295199.37649  21648591.70349
  20186360.172 7 -28303067.800 7 -20947888.11748  20186348.99248
  21681328.617 6 -14646573.184 6 -10329925.43048  21681319.13748
  22006667.750 6  -7346634.186 6  -5640233.51448  22006661.60948
  24291448.305 5   3494267.624 5  -2546947.56846  24291445.09846
 24 11 23  2 23 30.0000000  0 11G06G11G12G13G14G15G17G19G22G24G30   
  21347491.703 6 -17481069.379 6 -14847702.32649  21347487.55949
  23874292.156 6  -9005416.551 6  -5470473.57146  23874284.25846
  24260595.406 2   -355512.193 2   -915017.83646  24260589.73446
  23516786.164 5   1920387.659 5   2881176.58346  23516781.19946
  22202123.547 3 -15165549.494 3  -9605264.36446  22202117.64146
  24375464.664 2   1867820.537 2  -5060016.28246  24375459.34446
  21661660.398 6 -17196736.441 6 -12241722.86449  21661651.15249
  20188694.008 7 -28290803.401 7 -20938331.39649  20188683.18049
  21686635.781 6 -14618685.488 6 -10308194.72648  21686626.65248
  21994794.680 6  -7409025.740 6  -5688850.23748  21994788.71548
  24312362.227 4   3604168.590 4  -2461310.43246  24312358.14146
 24 11 23  2 24  0.0000000  0 11G06G11G12G13G14G15G17G19G22G24G30   
  21334923.008 6 -17547119.577 6 -14899169.92549  21334918.33649
  23853841.820 6  -9112880.373 6  -5554211.36246  23853833.68846
  24245259.680 1   -436092.468 1   -977807.38346  24245255.59446
  23534090.344 5   2011321.722 5   2952034.25246  23534084.37946
  22212433.469 4 -15111379.492 4  -9563053.89346  22212424.92646
  24388868.813 1   1938265.083 1  -5005124.47446  24388867.07046
  21674748.750 6 -17127957.991 6 -12188129.24749  21674739.27049
  20191100.297 7 -28278155.532 7 -20928475.87849  20191090.05549
  21691967.992 6 -14590664.779 6 -10286360.37348  21691959.03948
  21983010.695 6  -7470949.997 6  -5737102.82048  21983004.96548
  24333297.375 3   3714186.058 3  -2375582.55046  24333293.58246
 24 11 23  2 24 30.0000000  0 11G06G11G12G13G14G15G17G19G22G24G30   
  21322445.117 6 -17612693.738 6 -14950266.58249  21322439.73849
  23833405.664 5  -9220262.414 5  -5637885.42746  23833399.52346
  24229924.422 1   -516676.056 1  -1040599.50546  24229919.86746
  23551408.234 5   2102330.402 5   3022950.03346  23551403.38746
  22222777.922 4 -15057020.324 4  -9520696.06846  22222769.37946
  24402302.078 2   2008855.452 2  -4950119.00046  24402300.57046
  21687864.445 6 -17059028.398 6 -12134417.85849  21687855.84449
  20193580.047 7 -28265122.848 7 -20918320.51048  20193569.92248
  21697325.781 6 -14562507.579 6 -10264419.66248  21697316.94548
  21971316.477 6  -7532401.993 6  -5784987.40948  21971311.27348
  24354255.055 3   3824320.583 3  -2289763.50946  24354250.38346
 24 11 23  2 25  0.0000000  0 11G06G11G12G13G14G15G17G19G22G24G30   
  21310057.117 6 -17677789.697 6 -15000990.63049  21310051.56349
  23812986.875 5  -9327560.261 5  -5721493.90746  23812982.14546
  24214589.906 1   -597262.827 1  -1103394.16346  24214585.23446
  23568738.891 5   2193410.515 5   3093921.52046  23568735.39146
  22233157.391 2 -15002472.110 2  -9478190.93245  22233149.84445
  24415763.617 4   2079588.211 4  -4895002.54247  24415761.58247
  21701010.391 7 -16989950.043 7 -12080590.52749  21701001.20349
  20196133.000 7 -28251707.193 7 -20907866.71749  20196123.22749
  21702710.039 6 -14534213.594 6 -10242372.35048  21702700.91048
  21959712.977 6  -7593379.862 6  -5832502.55448  21959707.83648
  24375234.797 2   3934569.558 2  -2203855.30146  24375229.47746
 24 11 23  2 25 30.0000000  0 11G06G11G12G13G14G15G17G19G22G24G30   
  21297760.180 6 -17742406.436 6 -15051341.23749  21297755.15649
  23792585.094 5  -9434772.578 5  -5805035.81746  23792580.94946
  24199252.797 1   -677853.781 1  -1166192.07546  24199248.71146
  23586085.055 5   2284557.454 5   3164945.06246  23586079.79346
  22243572.023 1 -14947736.093 1  -9435539.41646  22243566.64546
  24429250.000 4   2150459.093 4  -4839778.49547  24429246.96947
  21714183.383 7 -16920726.222 7 -12026649.86549  21714174.02049
  20198758.070 7 -28237911.090 7 -20897116.47649  20198748.53149
  21708120.195 6 -14505783.881 6 -10220219.28148  21708111.00848
  21948199.164 6  -7653882.996 6  -5879647.76948  21948194.90248
  24396236.195 2   4044929.237 2  -2117860.78946  24396230.64146
 24 11 23  2 26  0.0000000  0 11G06G11G12G13G14G15G17G19G22G24G30   
  21285555.406 6 -17806541.644 6 -15101316.63849  21285550.96949
  23772200.641 5  -9541896.692 5  -5888508.96946  23772197.25846
  24183918.367 2   -758448.765 2  -1228993.05346  24183911.81646
  23603441.953 5   2375768.077 5   3236018.21446  23603436.63346
  22254026.438 3 -14892812.028 3  -9392741.43646  22254018.36346
  24442762.406 3   2221464.777 3  -4784449.42346  24442759.02346
  21727382.977 7 -16851358.904 7 -11972597.35949  21727374.19949
  20201455.891 7 -28223735.929 7 -20886070.86449  20201445.64849
  21713555.328 6 -14477218.081 6 -10197960.19248  21713547.37148
  21936776.656 6  -7713909.383 6  -5926421.48549  21936771.86749
  24417257.891 2   4155397.183 2  -2031781.87446  24417253.92246
 24 11 23  2 26 30.0000000  0 11G06G11G12G13G14G15G17G19G22G24G30   
  21273443.641 6 -17870192.101 6 -15150914.31649  21273438.61749
  23751832.547 5  -9648929.030 5  -5971910.63646  23751829.92646
  24168578.266 1   -839046.453 1  -1291796.21546  24168574.18046
  23620810.313 4   2467040.246 4   3307139.33546  23620805.87546
  22264512.250 1 -14837698.805 1  -9349796.06945  22264506.28545
  24456297.445 2   2292602.502 2  -4729017.47746  24456295.76246
  21740610.813 7 -16781849.530 7 -11918434.18649  21740601.44949
  20204224.852 7 -28209182.372 7 -20874730.40848  20204214.78548
  21719018.148 6 -14448514.881 6 -10175594.03748  21719009.60548
  21925445.008 6  -7773456.074 6  -5972821.41349  21925440.62949
  24438300.922 2   4265972.072 2  -1945619.65446  24438295.42646
 24 11 23  2 27  0.0000000  0 11G06G11G12G13G14G15G17G19G22G24G30   
  21261425.188 6 -17933353.131 6 -15200130.62749  21261419.69149
  23731483.820 4  -9755864.538 4  -6055236.83146  23731480.61346
  24153239.12511   -919644.53511  -1354599.72356  24153236.73856
  23638191.344 5   2558373.221 5   3378307.85446  23638186.61346
  22275038.78911 -43139953.90611 -31403501.34255  22275030.94955
  24469859.656 3   2363872.009 3  -4673482.87045  24469855.86345
  21753864.656 7 -16712197.189 7 -11864159.62849  21753855.82049
  20207066.836 7 -28194249.670 7 -20863094.49548  20207055.77348
  21724507.039 6 -14419671.207 6 -10153118.43548  21724497.85248
  21914205.711 6  -7832518.740 6  -6018844.16849  21914200.50849
  24459363.453 3   4376653.833 3  -1859374.09746  24459357.89846
 24 11 23  2 27 30.0000000  0 11G06G11G12G13G14G15G17G19G22G24G30   
  21249498.250 6 -17996025.553 6 -15248966.19049  21249494.16449
  23711154.422 5  -9862703.552 5  -6138487.80747  23711150.33647
  24137904.422 1  -1000245.890 1  -1417405.69745  24137898.10545
  23655581.570 4   2649760.402 4   3449518.59646  23655576.36746
  22285595.383 1 -43084460.542 1 -31360259.69845  22285590.35945
  24483446.727 4   2435266.879 4  -4617850.53346  24483441.93846
  21767145.023 6 -16642407.553 6 -11809778.07249  21767136.77349
  20209979.453 7 -28178942.137 7 -20851166.50148  20209969.50448
  21730021.445 6 -14390689.850 6 -10130535.54248  21730012.49248
  21903058.445 6  -7891098.502 6  -6064490.62849  21903053.18449
  24480443.367 2   4487436.993 2  -1773049.59646  24480440.10246
 24 11 23  2 28  0.0000000  0 11G06G11G12G13G14G15G17G19G22G24G30   
  21237666.227 6 -18058205.204 6 -15297417.77749  21237661.02349
  23690843.070 6  -9969441.539 6  -6221660.08347  23690838.34047
  24122565.008 1  -1080848.296 1  -1480212.51546  24122560.39546
  23672980.008 3   2741200.605 3   3520770.66946  23672975.45346
  22296193.125 1 -43028776.362 1 -31316869.38045  22296186.80945
  24497057.648 4   2506785.877 4  -4562121.47147  24497052.80147
  21780452.172 6 -16572480.496 6 -11755289.44549  21780443.33649
  20212964.148 7 -28163259.410 7 -20838946.16748  20212953.49648
  21735563.227 6 -14361568.602 6 -10107843.62648  21735554.15648
  21892003.688 6  -7949191.513 6  -6109757.80349  21891998.48449
  24501542.578 1   4598321.077 1  -1686646.37945  24501541.01245
 24 11 23  2 28 30.0000000  0 11G06G11G12G13G14G15G17G19G22G24G30   
  21225927.531 6 -18119890.131 6 -15345483.87749  21225921.91849
  23670550.336 5 -10076076.123 5  -6304751.77047  23670545.60547
  24107228.406 2  -1161450.971 2  -1543019.61346  24107222.03146
  23690389.281 3   2832690.277 3   3592061.24645  23690384.90245
  22306827.664 2 -42972901.562 2 -31273330.52345  22306818.30145
  24510688.852 4   2578425.275 4  -4506298.59946  24510686.99246
  21793784.273 6 -16502418.589 6 -11700695.72748  21793775.08648
  20216019.000 7 -28147203.088 7 -20826434.70148  20216008.75848
  21741131.039 6 -14332307.381 6 -10085042.61048  21741122.32048
  21881041.766 6  -8006796.103 6  -6154644.39849  21881036.68449
  24522661.05511 -28374516.55311 -27379766.62055  24522660.48455
 24 11 23  2 29  0.0000000  0 11G06G11G12G13G14G15G17G19G22G24G30   
  21214283.031 6 -18181080.248 6 -15393164.40649  21214277.06649
  23650277.328 5 -10182606.690 5  -6387762.42747  23650273.24247
  24091888.867 2  -1242056.906 2  -1605829.24246  24091882.25846
  23707808.469 3   2924224.041 3   3663386.23945  23707802.56345
  22317495.547 3 -42916838.078 3 -31229644.80845  22317486.77045
  24524344.883 3   2650179.940 3  -4450385.95446  24524341.32446
  21807141.359 6 -16432225.813 6 -11646000.05048  21807132.28948
  20219145.164 7 -28130777.303 7 -20813635.35248  20219134.80548
  21746726.133 7 -14302907.834 7 -10062133.83448  21746716.53548
  21870172.570 6  -8063912.556 6  -6199150.63749  21870167.30949
  24543800.03911 -28263440.50211                
 24 11 23  2 29 30.0000000  0 11G06G11G12G13G14G15G17G19G22G24G30   
  21202735.102 6 -18241770.881 6 -15440455.74249  21202729.13749
  23630024.695 5 -10289028.166 5  -6470688.07346  23630020.72746
  24076551.664 3  -1322662.770 3  -1668638.74746  24076544.05946
  23725235.938 4   3015801.617 4   3734745.35846  23725229.73846
  22328200.555 4 -42860583.479 4 -31185810.03045  22328191.25045
  24538016.766 1   2722049.066 1  -4394384.04046  24538016.07846
  21820524.180 6 -16361901.431 6 -11591201.79848  21820514.87548
  20222341.125 7 -28113980.906 7 -20800547.20548  20222331.17648
  21752347.445 6 -14273366.943 6 -10039114.92947  21752337.96547
  21859397.477 6  -8120536.470 6  -6243273.07849  21859391.74649
  24564955.531 1 -28152270.681 1                
 24 11 23  2 30  0.0000000  0 11G06G11G12G13G14G15G17G19G22G24G30   
  21191280.547 6 -18301960.085 6 -15487356.33549  21191275.28549
  23609795.500 5 -10395338.050 5  -6553526.70446  23609790.00446
  24061210.750 2  -1403268.846 2  -1731448.40946  24061205.43046
  23742670.406 3   3107419.540 3   3806135.86546  23742664.61746
  22338941.609 4 -42804137.808 4 -31141826.40346  22338933.47746
  24551717.063 4   2794029.156 4  -4338295.76446  24551714.03146
  21833930.617 6 -16291447.887 6 -11536302.92048  21833921.89848
  20225607.438 7 -28096815.373 7 -20787171.41548  20225597.60548
  21757996.109 6 -14243684.600 6 -10015985.81147  21757986.27747
  21848715.805 6  -8176666.182 6  -6287010.41649  21848710.60249
  24586127.273 1 -28041009.606 1                
 24 11 23  2 30 30.0000000  0 11G06G11G12G13G14G15G17G19G22G24G30   
  21179923.070 7 -18361644.347 7 -15533863.45249  21179918.57449
  23589586.813 5 -10501532.251 5  -6636275.20247  23589582.60947
  24045871.375 2  -1483873.247 2  -1794256.82046  24045866.29346
  23760112.602 4   3199075.869 4   3877556.36246  23760107.69546
  22349718.500 3 -42747499.509 3 -31097692.66646  22349710.95346
  24565434.789 4   2866118.308 4  -4282122.47246  24565431.34846
  21847361.461 6 -16220865.847 6 -11481303.90848  21847352.80148
  20228944.617 7 -28079280.989 7 -20773508.22748  20228933.73048
  21763671.688 6 -14213859.153 6  -9992745.16947  21763661.91447
  21838129.633 6  -8232298.388 6  -6330360.07849  21838124.43049
  24607316.227 1 -27929658.416 1                
 24 11 23  2 31  0.0000000  0 11G06G11G12G13G14G15G17G19G22G24G30   
  21168662.828 7 -18420818.133 7 -15579972.83149  21168657.15649
  23569401.211 5 -10607604.797 5  -6718928.91246  23569396.42246
  24030535.477 3  -1564472.466 3  -1857061.21346  24030527.16846
  23777562.430 4   3290770.696 4   3949006.81946  23777557.05146
  22360534.203 4 -42690665.125 4 -31053406.15246  22360526.42246
  24579173.484 4   2938317.040 4  -4225863.80646  24579170.04346
  21860818.188 6 -16150153.922 6 -11426203.69748  21860809.05948
  20232352.125 7 -28061375.839 7 -20759556.11548  20232340.82848
  21769374.281 6 -14183886.695 6  -9969389.96948  21769366.20748
  21827638.844 6  -8287427.917 6  -6373318.07849  21827633.93849
  24628521.50811                                
 24 11 23  2 31 30.0000000  0 10G06G11G12G13G14G15G17G19G22G24      
  21157498.328 6 -18479488.324 6 -15625689.78949  21157492.53949
  23549239.023 5 -10713562.001 5  -6801492.80146  23549232.23846
  24015197.570 3  -1645075.112 3  -1919868.22246  24015189.61346
  23795015.047 3   3382492.049 3   4020477.90146  23795011.78146
  22371384.563 4 -42633643.599 4 -31008973.80246  22371377.54346
  24592928.906 2   3010612.837 2  -4169529.51046  24592929.03946
  21874296.773 6 -16079322.900 6 -11371010.67048  21874287.87948
  20235827.555 7 -28043110.467 7 -20745323.30748  20235816.84448
  21775104.688 6 -14153775.458 6  -9945926.67148  21775095.85248
  21817242.375 6  -8342061.990 6  -6415889.97649  21817237.23449
 24 11 23  2 32  0.0000000  0 10G06G11G12G13G14G15G17G19G22G24      
  21146430.094 6 -18537646.739 6 -15671007.97449  21146425.24649
  23529100.023 6 -10819395.092 6  -6883959.94846  23529092.53546
  23999856.266 1  -1725674.750 1  -1982672.83746  23999852.35546
  23812474.594 4   3474242.785 4   4091971.97146  23812470.91846
  22382272.477 5 -42576428.624 5 -30964390.68747  22382264.52047
  24606706.273 2   3083008.790 2  -4113117.14946  24606706.05546
  21887799.039 6 -16008368.856 6 -11315721.79248  21887790.14548
  20239372.727 7 -28024480.460 7 -20730806.36348  20239361.84048
  21780862.648 7 -14123519.537 7  -9922350.59348  21780853.05148
  21806941.336 6  -8396192.632 6  -6458069.59449  21806936.66449
 24 11 23  2 32 30.0000000  0 10G06G11G12G13G14G15G17G19G22G24      
  21135461.164 6 -18595293.258 6 -15715927.28249  21135455.72749
  23508984.781 6 -10925103.279 6  -6966329.71346  23508976.18046
  23984520.141 2  -1806272.835 2  -2045476.27346  23984513.88346
  23829939.633 4   3566017.784 4   4163484.94345  23829934.90245
  22393196.859 5 -42519022.119 5 -30919658.31946  22393189.60546
  24620502.109 4   3155499.674 4  -4056630.72247  24620500.30947
  21901323.266 6 -15937295.798 6 -11260340.18448  21901314.95748
  20242986.539 7 -28005489.412 7 -20716008.11248  20242975.77048
  21786646.992 7 -14093120.028 7  -9898662.64848  21786638.27348
  21796736.633 6  -8449820.002 6  -6499857.05349  21796731.19549
 24 11 23  2 33  0.0000000  0 10G06G11G12G13G14G15G17G19G22G24      
  21124589.664 7 -18652424.619 7 -15760445.14449  21124583.17249
  23488893.117 6 -11030682.806 6  -7048599.24346  23488885.33646
  23969183.344 3  -1886868.191 3  -2108277.61446  23969176.73446
  23847406.359 2   3657815.369 2   4235015.45145  23847403.32845
  22404157.945 5 -42461422.800 5 -30874775.70547  22404150.51647
  24634315.508 4   3228083.444 4  -4000071.98147  24634312.47747
  21914869.898 6 -15866104.253 6 -11204866.23948  21914861.41448
  20246669.219 7 -27986137.588 7 -20700928.74748  20246657.98048
  21792459.242 6 -14062575.439 6  -9874861.64348  21792449.82048
  21786627.516 6  -8502941.109 6  -6541250.03149  21786622.55149
 24 11 23  2 33 30.0000000  0 10G06G11G12G13G14G15G17G19G22G24      
  21113816.195 7 -18709038.685 7 -15804559.91849  21113810.05549
  23468826.313 5 -11136130.730 5  -7130766.26646  23468819.82046
  23953847.195 3  -1967460.067 3  -2171076.26846  23953840.41046
  23864877.805 2   3749632.128 2   4306560.90345  23864874.36345
  22415154.891 5 -42403630.314 5 -30829742.57146  22415147.16846
  24648143.914 4   3300757.210 4  -3943443.17946  24648141.35246
  21928440.297 6 -15794796.088 6 -11149301.40548  21928430.93448
  20250419.875 7 -27966426.278 7 -20685569.24648  20250408.98848
  21798299.461 6 -14031885.097 6  -9850947.04647  21798290.09847
  21776616.070 6  -8555554.073 6  -6582247.04249  21776611.10549
 24 11 23  2 34  0.0000000  0 10G06G11G12G13G14G15G17G19G22G24      
  21103141.969 7 -18765132.930 7 -15848269.63049  21103136.29749
  23448785.344 5 -11241443.882 5  -7212828.28246  23448780.55546
  23938511.695 2  -2048048.051 2  -2233871.87646  23938505.14546
  23882354.875 3   3841465.830 3   4378119.59045  23882349.32045
  22426188.391 3 -42345644.131 3 -30784558.48246  22426181.43046
  24661989.281 3   3373517.991 3  -3886746.49146  24661987.59846
  21942031.719 6 -15723372.801 6 -11093646.87648  21942022.82448
  20254239.367 7 -27946356.619 7 -20669930.53648  20254228.12948
  21804167.930 7 -14001048.047 7  -9826918.16048  21804158.80148
  21766701.063 6  -8607656.622 6  -6622846.34749  21766696.03949
 24 11 23  2 34 30.0000000  0 10G06G11G12G13G14G15G17G19G22G24      
  21092565.617 6 -18820707.110 6 -15891574.13449  21092560.94549
  23428769.711 4 -11346621.438 4  -7294784.60946  23428764.86346
  23923177.875 3  -2128633.563 3  -2296665.57646  23923170.68046
  23899834.977 4   3933311.333 4   4449687.46946  23899827.60546
  22437259.320 1 -42287465.988 1 -30739224.83246  22437252.41846
  24675853.477 4   3446361.187 4  -3829985.64546  24675848.92246
  21955643.922 6 -15651838.163 6 -11037905.57148  21955636.08248
  20258125.367 7 -27925932.254 7 -20654015.41848  20258115.12548
  21810063.695 6 -13970065.872 6  -9802776.18748  21810054.33248
  21756882.961 6  -8659248.868 6  -6663048.02249  21756877.87949
 24 11 23  2 35  0.0000000  0 10G06G11G12G13G14G15G17G19G22G24      
  21082089.422 6 -18875757.008 6 -15934470.11749  21082085.16049
  23408782.492 5 -11451658.484 5  -7376631.44146  23408776.46946
  23907842.992 3  -2209213.733 3  -2359455.20646  23907835.85546
  23917312.789 3   4025167.879 3   4521263.95346  23917308.35246
  22448367.734 1 -42229093.438 1 -30693739.69145  22448359.66045
  24689727.531 2   3519285.556 2  -3773161.54546  24689725.96546
  21969277.891 6 -15580191.777 6 -10982077.20248  21969269.58248
  20262080.445 7 -27905152.205 7 -20637823.14548  20262069.67648
  21815987.047 6 -13938935.665 6  -9778518.83248  21815978.38748
  21747163.648 6  -8710326.766 6  -6702848.91349  21747157.68449
 24 11 23  2 35 30.0000000  0 10G06G11G12G13G14G15G17G19G22G24      
  21071714.836 6 -18930281.529 6 -15976956.70549  21071708.69549
  23388822.148 5 -11556553.115 5  -7458367.32346  23388815.42246
  23892510.719 4  -2289789.225 4  -2422241.11046  23892503.93446
  23934793.891 4   4117031.319 4   4592845.82446  23934789.92246
  22459512.477 1 -42170527.425 1 -30648103.78945  22459505.92645
  24703619.945 3   3592287.591 3  -3716276.90745  24703618.08645
  21982931.898 6 -15508436.178 6 -10926163.74648  21982924.00048
  20266100.844 7 -27884019.060 7 -20621355.72848  20266091.07048
  21821939.242 6 -13907657.874 6  -9754146.50147  21821930.58247
  21737541.188 6  -8760889.474 6  -6742248.37949  21737536.16449
 24 11 23  2 36  0.0000000  0 10G06G11G12G13G14G15G17G19G22G24      
  21061439.461 6 -18984277.742 6 -16019031.61349  21061433.08649
  23368888.492 5 -11661301.685 5  -7539989.36446  23368881.76646
  23877178.953 3  -2370358.576 3  -2485022.23946  23877171.81646
  23952277.070 5   4208899.780 5   4664431.56446  23952271.57446
  22470694.000 1 -42111766.688 1 -30602316.15045  22470687.80145
  24717526.867 4   3665364.534 4  -3659333.82246  24717524.36346
  21996607.000 5 -15436572.774 5 -10870166.28148  21996599.62948
  20270189.844 7 -27862533.391 7 -20604613.63748  20270179.30948
  21827919.805 6 -13876230.988 6  -9729657.99647  21827910.44147
  21728018.383 6  -8810934.343 6  -6781244.34449  21728012.71149
 24 11 23  2 36 30.0000000  0 10G06G11G12G13G14G15G17G19G22G24      
  21051264.156 7 -19037745.204 7 -16060694.49549  21051258.89549
  23348983.578 5 -11765902.923 5  -7621496.63446  23348975.44546
  23861845.586 1  -2450922.929 1  -2547799.45946  23861839.73846
  23969760.641 5   4300768.543 5   4736017.56446  23969753.50446
  22481913.547 3 -42052812.696 3 -30556377.91245  22481906.99645
  24731445.789 2   3738511.833 2  -3602335.95446  24731442.93446
  22010303.016 6 -15364604.587 6 -10814087.16248  22010294.70748
  20274345.164 7 -27840698.093 7 -20587599.09248  20274334.80548
  21833928.242 6 -13844656.070 6  -9705054.13047  21833918.52747
  21718593.563 6  -8860461.125 6  -6819836.59349  21718588.18449
 24 11 23  2 37  0.0000000  0 10G06G11G12G13G14G15G17G19G22G24      
  21041190.852 6 -19090681.786 6 -16101943.71049  21041185.71149
  23329108.016 6 -11870353.979 6  -7702886.90746  23329099.00446
  23846517.945 3  -2531481.401 3  -2610572.11646  23846509.22746
  23987241.867 5   4392634.694 5   4807601.50246  23987234.67246
  22493168.867 4 -41993665.082 4 -30510288.81845  22493160.38345
  24745379.828 3   3811726.681 3  -3545285.58446  24745376.27046
  22024018.250 6 -15292533.343 6 -10757927.72148  22024008.59448
  20278566.281 7 -27818514.551 7 -20570313.19148  20278555.92248
  21839965.063 6 -13812932.509 6  -9680334.44647  21839955.40647
  21709267.898 6  -8909467.933 6  -6858023.66649  21709262.22749
 24 11 23  2 37 30.0000000  0 10G06G11G12G13G14G15G17G19G22G24      
  21031219.500 6 -19143084.964 6 -16142777.30349  21031213.41849
  23309260.344 5 -11974651.525 5  -7784157.53046  23309252.03546
  23831188.352 2  -2612033.479 2  -2673339.84146  23831180.74646
  24004722.742 5   4484496.091 5   4879181.76346  24004715.95746
  22504461.695 4 -41934323.188 4 -30464048.46945  22504453.91445
  24759323.680 4   3885006.719 4  -3488184.34246  24759321.52746
  22037751.523 6 -15220360.257 6 -10701688.93248  22037742.62948
  20282853.063 7 -27795984.319 7 -20552757.14448  20282842.76248
  21846029.391 6 -13781059.395 6  -9655498.21947  21846021.19947
  21700040.422 6  -8957952.576 6  -6895803.84449  21700035.75049
 24 11 23  2 38  0.0000000  0 10G06G11G12G13G14G15G17G19G22G24      
  21021348.875 6 -19194950.980 6 -16183192.32549  21021344.08649
  23289442.641 5 -12078790.880 5  -7865304.90646  23289436.09046
  23815860.000 1  -2692576.527 1  -2736100.49646  23815854.91846
  24022200.805 4   4576351.495 4   4950757.30146  24022194.19546
  22515791.281 4 -41874784.970 4                
  24773281.477 4   3958350.678 4  -3431033.20546  24773278.73846
  22051504.586 6 -15148085.563 6 -10645370.94648  22051496.27748
  20287207.250 7 -27773106.409 7 -20534930.19148  20287196.89148
  21852123.422 6 -13749033.938 6  -9630543.30748  21852115.23048
  21690915.430 6  -9005911.380 6  -6933174.27949  21690909.58249
 24 11 23  2 38 30.0000000  0 10G06G11G12G13G14G15G17G19G22G24      
  21011582.609 7 -19246276.216 7 -16223185.95049  21011577.11349
  23269656.453 6 -12182767.643 6  -7946325.59947  23269650.13747
  23800535.961 2  -2773108.448 2  -2798852.53646  23800530.05546
  24039677.602 4   4668199.374 4   5022327.06646  24039672.10546
  22527159.281 2 -41815048.621 2                
  24787248.922 3   4031757.042 3  -3373833.54146  24787249.40646
  22065278.047 6 -15075709.057 6 -10588973.64848  22065269.09448
  20291627.148 7 -27749880.755 7 -20516832.25048  20291615.85248
  21858247.711 6 -13716854.170 6  -9605468.13348  21858238.99248
  21681889.195 6  -9053341.069 6  -6970132.40649  21681883.87549
 24 11 23  2 39  0.0000000  0 10G06G11G12G13G14G15G17G19G22G24      
  21001918.258 6 -19297062.089 6 -16262759.29649  21001912.64549
  23249900.555 6 -12286582.245 6  -8027219.97447  23249894.64847
  23785212.766 4  -2853632.187 4  -2861598.16246  23785206.33246
  24057152.758 4   4760033.500 4   5093886.07146  24057148.43846
  22538562.53111                                
  24801228.180 3   4105219.224 3  -3316590.20346  24801228.43046
  22079068.906 6 -15003235.750 6 -10532500.90748  22079060.24648
  20296111.375 7 -27726312.264 7 -20498467.16348  20296100.37148
  21864400.484 6 -13684522.702 6  -9580274.76348  21864391.64848
  21672964.797 6  -9100243.207 6  -7006679.47049  21672958.65649
 24 11 23  2 39 30.0000000  0  9G06G11G12G13G15G17G19G22G24         
  20992356.305 6 -19347307.102 6 -16301911.17449  20992350.86749
  23230176.984 6 -12390232.419 6  -8107986.20847  23230169.26247
  23769891.063 4  -2934147.284 4  -2924337.06447  23769883.28147
  24074624.414 3   4851850.781 3   5165431.95246  24074621.61746
  24815217.930 3   4178734.208 3  -3259305.89646  24815218.82446
  22092877.953 6 -14930667.803 6 -10475954.43248  22092869.11748
  20300661.867 7 -27702402.927 7 -20479836.48648  20300650.45348
  21870581.680 6 -13652039.536 6  -9554963.20547  21870572.96147
  21664139.492 6  -9146616.578 6  -7042814.51449  21664134.17249
 24 11 23  2 40  0.0000000  0  9G06G11G12G13G15G17G19G22G24         
  20982898.258 6 -19397009.584 6 -16340640.31949  20982892.87949
  23210485.344 6 -12493715.539 6  -8188622.24547  23210477.68047
  23754571.148 4  -3014653.822 4  -2987069.29947  23754564.30547
  24092094.023 4   4943648.059 4   5236962.29646  24092090.58246
  24829218.016 2   4252298.666 2  -3201982.98145  24829216.50845
  22106705.008 6 -14858007.373 6 -10419335.89548  22106696.28948
  20305276.219 7 -27678154.568 7 -20460941.64448  20305265.15648
  21876791.617 6 -13619404.223 6  -9529533.06747  21876782.43047
  21655416.281 6  -9192459.685 6  -7078536.37449  21655410.49249
 24 11 23  2 40 30.0000000  0  9G06G11G12G13G15G17G19G22G24         
  20973543.859 6 -19446166.856 6 -16378944.63749  20973538.12949
  23190825.992 6 -12597027.953 6  -8269125.27347  23190818.27047
  23739252.422 3  -3095150.279 3  -3049793.63246  23739246.10546
  24109559.461 5   5035422.964 5   5308475.16846  24109554.19946
  24843223.984 1   4325910.380 1  -3144623.28446  24843225.58246
  22120549.102 6 -14785255.255 6 -10362645.89348  22120540.32448
  20309954.938 7 -27653567.674 7 -20441783.00448  20309943.81648
  21883030.945 6 -13586615.226 6  -9503983.18247  21883022.10947
  21646793.891 6  -9237770.117 6  -7113843.15549  21646788.04349
 24 11 23  2 41  0.0000000  0  9G06G11G12G13G15G17G19G22G24         
  20964294.305 7 -19494777.094 7 -16416822.67549  20964288.34049
  23171199.109 6 -12700166.863 6  -8349493.14647  23171191.44547
  23723937.313 3  -3175635.973 3  -3112509.61746  23723929.53146
  24127018.883 4   5127172.792 4   5379968.46546  24127013.15246
  24857245.102 2   4399566.400 2  -3087228.93145  24857242.89145
  22134410.211 6 -14712413.126 6 -10305885.76348  22134401.78548
  20314697.633 7 -27628643.668 7 -20422361.69348  20314686.68848
  21889299.523 6 -13553672.062 6  -9478313.17247  21889291.56647
  21638272.992 6  -9282546.218 6  -7148733.55849  21638267.14549
 24 11 23  2 41 30.0000000  0  9G06G11G12G13G15G17G19G22G24         
  20955148.844 6 -19542838.056 6 -16454272.72349  20955142.23449
  23151604.711 6 -12803129.034 6  -8429723.31147  23151598.10247
  23708621.992 3  -3256110.066 3  -3175216.56246  23708617.14546
  24144473.703 5   5218894.660 5   5451439.96046  24144467.56346
  24871266.969 2   4473264.232 2  -3029802.07746  24871265.87146
  22148289.609 6 -14639482.255 6 -10249056.50249  22148280.07049
  20319503.891 7 -27603383.791 7 -20402678.65048  20319493.70748
  21895597.969 6 -13520573.851 6  -9452522.33447  21895589.36747
  21629854.148 6  -9326785.949 6  -7183205.99249  21629847.89149
 24 11 23  2 42  0.0000000  0  9G06G11G12G13G15G17G19G22G24         
  20946107.133 6 -19590347.605 6 -16491293.08149  20946101.63749
  23132045.883 6 -12905911.238 6  -8509813.24147  23132038.98047
  23693312.516 5  -3336571.312 5  -3237913.51446  23693304.73446
  24161920.820 4   5310586.585 4   5522888.16246  24161915.85546
  24885295.500 1   4547000.918 1  -2972344.98845  24885295.86745
  22162183.750 6 -14566464.017 6 -10192159.16349  22162175.03149
  20324374.828 7 -27577789.240 7 -20382734.82748  20324364.23448
  21901926.852 6 -13487319.566 6  -9426609.89747  21901917.54747
  21621537.688 6  -9370487.356 6  -7217258.97749  21621531.66449
 24 11 23  2 42 30.0000000  0  9G06G11G12G13G15G17G19G22G24         
  20937172.313 7 -19637303.945 7 -16527882.37349  20937165.58649
  23112520.836 5 -13008510.818 5  -8589760.85547  23112514.40247
  23678003.602 4  -3417019.301 4  -3300600.15546  23677995.52746
  24179361.586 3   5402245.377 3   5594310.55946  24179358.55546
  24899335.84411   3045353.59311  -4142459.95055  24899333.63355
  22176094.922 6 -14493360.124 6 -10135195.08249  22176086.37949
  20329308.945 7 -27551861.549 7 -20362531.41048  20329298.11748
  21908284.820 6 -13453908.670 6  -9400575.40647  21908275.10547
  21613324.945 6  -9413648.922 6  -7250891.30749  21613318.33649
 24 11 23  2 43  0.0000000  0  9G06G11G12G13G15G17G19G22G24         
  20928341.820 6 -19683705.825 6 -16564039.61149  20928335.97349
  23093032.359 6 -13110925.336 6  -8669564.25447  23093025.51647
  23662695.602 3  -3497454.211 3  -3363276.53346  23662690.22346
  24196795.484 3   5493867.771 3   5665704.57446  24196792.86346
  24913381.633 2   3119158.717 2  -4084949.44345  24913377.72345
  22190022.320 7 -14420172.679 7 -10078165.88749  22190013.13349
  20334305.859 7 -27525602.921 7 -20342070.12648  20334294.62148
  21914671.781 6 -13420340.820 6  -9374418.64647  21914662.82847
  21605215.039 6  -9456269.489 6  -7284102.07549  21605208.19549
 24 11 23  2 43 30.0000000  0 10G06G11G12G13G14G15G17G19G22G24      
  20919616.586 7 -19729557.505 7 -16599768.11349  20919610.56349
  23073578.570 6 -13213158.095 6  -8749225.99647  23073571.31647
  23647391.883 3  -3577881.265 3  -3425946.81146  23647384.98046
  24214222.063 3   5585444.658 3   5737063.09446  24214218.85546
  22642879.94511    590681.73911                
  24927432.109 2   3192987.498 2  -4027420.52445  24927426.96945
  22203963.875 6 -14346909.109 6 -10021077.37949  22203954.92249
  20339364.070 7 -27499020.480 7 -20321356.50148  20339352.89148
  21921088.586 6 -13386621.582 6  -9348143.88047  21921079.28147
  21597206.852 6  -9498353.626 6  -7316894.84549  21597200.12549
 24 11 23  2 44  0.0000000  0 10G06G11G12G13G14G15G17G19G22G24      
  20910999.508 6 -19774837.954 6 -16635051.50849  20910994.36749
  23054164.586 6 -13315186.867 6  -8828728.79447  23054154.75447
  23632092.266 3  -3658280.606 3  -3488595.52146  23632084.83646
  24231643.602 2   5676992.747 2   5808399.26945  24231639.86745
  22654659.79711                                
  24941487.39112   3266856.49312  -3969860.39656  24941483.53956
  22217922.945 6 -14273551.994 6  -9963915.97349  22217914.63749
  20344487.148 6 -27472096.622 6 -20300376.83548  20344476.78948
  21927537.750 6 -13352731.108 6  -9321735.68647  21927529.09047
  21589303.984 6  -9539880.366 6  -7349253.29449  21589298.31349
 24 11 23  2 44 30.0000000  0  9G06G11G12G13G15G17G19G22G24         
  20902488.273 6 -19819567.074 6 -16669905.31749  20902482.48449
  23034784.117 6 -13417030.405 6  -8908087.26247  23034774.10947
  23616793.398 4  -3738672.297 4  -3551238.22246  23616787.31646
  24249056.023 3   5768487.548 3   5879693.88045  24249050.94145
  24955545.016 2   3340740.742 2  -3912288.33646  24955542.74646
  22231895.844 6 -14200124.479 6  -9906699.71149  22231887.06649
  20349671.453 7 -27444854.452 7 -20279149.13348  20349660.74248
  21934015.797 6 -13318690.306 6  -9295210.35847  21934006.25847
  21581503.305 6  -9580869.873 6  -7381193.10549  21581498.39849
 24 11 23  2 45  0.0000000  0  9G06G11G12G13G15G17G19G22G24         
  20894083.211 7 -19863734.733 7 -16704321.61449  20894077.42249
  23015441.008 5 -13518677.504 5  -8987292.65647  23015432.40647
  23601499.133 4  -3819048.787 4  -3613869.09747  23601491.99647
  24266457.422 2   5859934.808 2   5950951.42145  24266452.57445
  24969610.844 3   3414645.911 3  -3854699.98246  24969607.40246
  22245883.227 6 -14126619.595 6  -9849423.16249  22245874.74249
  20354917.133 7 -27417287.402 7 -20257668.26248  20354906.30548
  21940523.867 6 -13284490.115 6  -9268560.80247  21940513.91847
  21573807.844 6  -9621312.171 6  -7412706.53349  21573802.64149
 24 11 23  2 45 30.0000000  0  9G06G11G12G13G15G17G19G22G24         
  20885784.758 6 -19907340.216 6 -16738299.86749  20885779.20349
  22996134.109 6 -13620126.258 6  -9066343.48647  22996128.49647
  23586207.820 5  -3899409.667 5  -3676487.84247  23586199.39547
  24283850.438 3   5951330.636 3   6022168.89045  24283844.12145
  24983679.852 3   3488568.109 3  -3797098.30746  24983674.35546
  22259884.891 6 -14053039.972 6  -9792088.38249  22259876.34849
  20360224.266 7 -27389397.434 7 -20235935.78248  20360213.49648
  21947062.078 6 -13250131.036 6  -9241787.47647  21947053.00847
  21566215.461 6  -9661206.759 6  -7443793.18849  21566210.84849
 24 11 23  2 46  0.0000000  0  9G06G11G12G13G15G17G19G22G24         
  20877594.539 7 -19950380.063 7 -16771837.34749  20877589.27749
  22976867.508 5 -13721372.041 5  -9145236.19947  22976862.30547
  23570917.109 4  -3979752.301 4  -3739092.38446  23570910.26646
  24301233.273 4   6042674.088 4   6093345.55846  24301226.89846
  24997748.078 2   3562506.072 2  -3739484.36646  24997744.57846
  22273900.797 6 -13979385.315 6  -9734695.12849  22273892.25449
  20365593.242 7 -27361184.177 7 -20213951.40648  20365582.18048
  21953631.273 6 -13215610.275 6  -9214888.14647  21953622.02747
  21558729.352 7  -9700550.317 7  -7474450.44349  21558723.56349
 24 11 23  2 46 30.0000000  0  9G06G11G12G13G15G17G19G22G24         
  20869512.914 7 -19992852.391 7 -16804932.60549  20869506.77349
  22957640.609 6 -13822411.677 6  -9223968.26347  22957636.11347
  23555630.609 3  -4060075.750 3  -3801681.93647  23555624.87947
  24318604.523 4   6133962.402 4   6164479.24746  24318598.26646
  25011818.531 1   3636457.568 1  -3681859.97146  25011816.67246
  22287931.305 6 -13905656.874 6  -9677244.38649  22287922.52749
  20371023.008 7 -27332649.271 7 -20191716.35448  20371012.06348
  21960231.070 6 -13180926.875 6  -9187862.08947  21960222.17647
  21551347.758 6  -9739341.100 6  -7504676.97749  21551341.79349
 24 11 23  2 47  0.0000000  0  9G06G11G12G13G15G17G19G22G24         
  20861538.586 6 -20034757.003 6 -16837585.47749  20861532.03549
  22938453.031 6 -13923243.838 6  -9302538.66047  22938447.94947
  23540349.531 3  -4140380.776 3  -3864257.13046  23540343.74246
  24335964.094 4   6225191.649 4   6235566.94446  24335959.65646
  25025895.508 2   3710418.129 2  -3624228.47646  25025890.83646
  22301974.273 6 -13831858.037 6  -9619738.77449  22301965.61349
  20376513.992 7 -27303795.470 7 -20169232.84048  20376502.52048
  21966861.938 6 -13146082.020 6  -9160710.19647  21966852.86747
  21544070.719 6  -9777579.120 6  -7534472.79149  21544064.69549
 24 11 23  2 47 30.0000000  0  9G06G11G12G13G15G17G19G22G24         
  20853672.359 7 -20076093.195 7 -16869795.43249  20853666.45349
  22919305.297 6 -14023866.518 6  -9380945.81347  22919299.09847
  23525072.703 3  -4220667.711 3  -3926818.24946  23525065.68446
  24353312.438 2   6316358.286 2   6306605.83145  24353307.76645
  25039969.000 2   3784384.127 2  -3566592.71346  25039967.37546
  22316030.789 6 -13757990.894 6  -9562179.93248  22316021.89548
  20382064.711 7 -27274625.029 7 -20146502.59648  20382053.64848
  21973523.375 6 -13111075.998 6  -9133432.75647  21973514.12947
  21536899.867 6  -9815263.793 6  -7563837.41349  21536893.14149
 24 11 23  2 48  0.0000000  0  9G06G11G12G13G15G17G19G22G24         
  20845915.016 7 -20116858.047 7 -16901560.18649  20845909.40249
  22900197.953 6 -14124275.549 6  -9459186.48647  22900191.05147
  23509798.742 4  -4300934.239 4  -3989363.46146  23509790.96146
  24370647.828 2   6407460.776 2   6377594.67045  24370644.15245
  25054043.773 1   3858353.625 1  -3508954.15846  25054043.90646
  22330100.336 7 -13684055.621 7  -9504568.00948  22330090.62148
  20387675.055 7 -27245138.381 7 -20123525.96048  20387664.63748
  21980214.844 6 -13075906.576 6  -9106027.96547  21980206.53547
  21529834.000 6  -9852392.418 6  -7592768.76749  21529828.03549
 24 11 23  2 48 30.0000000  0  9G06G11G12G13G15G17G19G22G24         
  20838266.461 6 -20157050.915 6 -16932879.24849  20838261.08249
  22881132.570 6 -14224468.962 6  -9537259.14347  22881124.32047
  23494529.648 5  -4381180.188 5  -4051892.68947  23494520.28547
  24387971.797 3   6498495.208 3   6448530.57345  24387966.71545
  25068120.930 2   3932323.250 2  -3451315.50847  25068120.59447
  22344181.734 6 -13610054.714 6  -9446904.93048  22344172.95748
  20393346.789 7 -27215337.615 7 -20100304.54648  20393335.49248
  21986939.617 6 -13040573.981 6  -9078496.03747  21986930.54747
  21522875.328 6  -9888964.500 6  -7621266.42649  21522869.12949
 24 11 23  2 49  0.0000000  0  9G06G11G12G13G15G17G19G22G24         
  20830727.406 7 -20196668.785 7 -16963750.27549  20830722.08649
  22862107.367 6 -14324442.443 6  -9615160.40247  22862100.23047
  23479263.102 5  -4461404.240 5  -4114404.83847  23479253.68047
  24405282.625 4   6589460.609 4   6519412.66045  24405277.66045
  25082198.000 4   4006291.518 4  -3393678.03047  25082196.02347
  22358276.547 6 -13535987.993 6  -9389190.57248  22358267.53548
  20399076.875 7 -27185222.859 7 -20076838.48048  20399066.34048
  21993694.750 6 -13005076.095 6  -9050835.31248  21993685.73848
  21516022.391 6  -9924977.100 6  -7649328.14349  21516015.72349
 24 11 23  2 49 30.0000000  0 10G06G11G12G13G14G15G17G19G22G24      
  20823297.195 7 -20235717.216 7 -16994177.56549  20823291.64149
  22843123.773 6 -14424200.191 6  -9692893.57147  22843117.04747
  23463998.852 4  -4541612.262 4  -4176904.42147  23463991.07047
  24422578.602 4   6680347.082 4   6590233.21145  24422573.57845
  22786699.30511   -516412.86311                
  25096271.023 3   4080248.257 3  -3336049.42746  25096268.28546
  22372381.859 6 -13461864.112 6  -9331431.67248  22372372.67248
  20404865.508 6 -27154802.671 6 -20053134.41048  20404855.20748
  22000480.195 6 -12969419.198 6  -9023050.66547  22000470.18847
  21509274.500 6  -9960435.991 6  -7676958.38549  21509268.24249
 24 11 23  2 50  0.0000000  0 10G06G11G12G13G14G15G17G19G22G24      
  20815977.492 7 -20274182.003 7 -17024150.06949  20815971.11749
  22824184.016 6 -14523726.490 6  -9770446.40647  22824177.23047
  23448740.945 4  -4621790.261 4  -4239380.67447  23448733.92647
  24439859.117 4   6771165.106 4   6661000.44845  24439854.97345
  22798929.781 2   -452140.332 2                
  25110342.563 2   4154204.019 2  -3278421.67846  25110340.58646
  22386500.469 7 -13387671.713 7  -9273619.37949  22386491.57449
  20410715.070 7 -27124065.629 7 -20029183.44048  20410704.24248
  22007298.000 6 -12933589.674 6  -8995131.56047  22007288.69547
  21502634.156 6  -9995326.931 6  -7704146.08649  21502628.95349
 24 11 23  2 50 30.0000000  0 10G06G11G12G13G14G15G17G19G22G24      
  20808767.445 7 -20312072.430 7 -17053675.00949  20808760.77749
  22805287.563 6 -14623029.558 6  -9847825.32747  22805280.07447
  23433488.859 4  -4701948.652 4  -4301841.59447  23433480.25847
  24457126.438 4   6861900.738 4   6731703.53445  24457122.11745
  22811197.516 2   -387672.932 2 -32053484.60355  22811188.32855
  25124412.852 3   4228144.510 3  -3220805.74846  25124410.40646
  22400629.086 7 -13313423.264 7  -9215763.43249  22400621.01249
  20416622.102 6 -27093024.296 6 -20004995.36948  20416610.45348
  22014146.383 6 -12897598.409 6  -8967086.39147  22014137.13747
  21496101.156 6 -10029659.654 6  -7730898.80349  21496095.54349
 24 11 23  2 51  0.0000000  0 10G06G11G12G13G14G15G17G19G22G24      
  20801668.102 7 -20349377.585 7 -17082743.90949  20801662.43049
  22786435.969 6 -14722096.923 6  -9925020.54247  22786427.89547
  23418238.531 3  -4782077.180 3  -4364279.23847  23418231.45347
  24474376.203 3   6952561.076 3   6802347.88545  24474374.63745
  22823501.328 1   -323000.864 1 -32003090.70145  22823495.48045
  25138482.703 4   4302076.872 4  -3163196.20546  25138481.66446
  22414770.734 7 -13239110.616 7  -9157857.45249  22414761.54749
  20422588.117 7 -27061670.287 7 -19980563.62748  20422576.58648
  22021027.984 6 -12861434.723 6  -8938906.85647  22021018.15247
  21489675.922 6 -10063423.273 6  -7757208.07749  21489670.19149
 24 11 23  2 51 30.0000000  0 10G06G11G12G13G14G15G17G19G22G24      
  20794678.586 7 -20386105.876 7 -17111363.31849  20794673.20749
  22767627.602 6 -14820935.591 6 -10002037.51947  22767620.17247
  23402995.477 4  -4862184.925 4  -4426700.63247  23402987.98847
  24491612.117 3   7043133.155 3   6872923.48945  24491610.43445
  22835847.500 1   -258133.772 1 -31952544.96845  22835840.01245
  25152545.977 3   4375988.282 3  -3105602.88647  25152546.40247
  22428921.828 7 -13164744.761 7  -9099910.00449  22428912.58249
  20428611.969 6 -27030015.302 6 -19955897.39748  20428601.49248
  22027940.938 6 -12825107.402 6  -8910599.82247  22027931.45747
  21483357.266 6 -10096626.270 6  -7783080.49249  21483351.82849
 24 11 23  2 52  0.0000000  0 10G06G11G12G13G14G15G17G19G22G24      
  20787800.563 7 -20422253.065 7 -17139529.92149  20787795.24249
  22748863.664 6 -14919539.817 6 -10078871.85047  22748856.64547
  23387756.789 5  -4942268.197 5  -4489103.00047  23387748.83247
  24508833.289 4   7133617.493 4   6943430.72445  24508828.08645
  22848229.359 1   -193068.800 1 -31901844.99945  22848221.05145
  25166609.656 5   4449878.803 5  -3048025.85047  25166608.09047
  22443083.703 7 -13090324.517 7  -9041920.17948  22443074.39848
  20434693.250 6 -26998058.022 6 -19930995.59248  20434682.77348
  22034886.016 6 -12788613.725 6  -8882163.17347  22034876.00847
  21477146.930 6 -10129264.607 6  -7808512.91849  21477141.25849
 24 11 23  2 52 30.0000000  0 10G06G11G12G13G14G15G17G19G22G24      
  20781032.930 7 -20457815.664 7 -17167240.98649  20781027.49249
  22730143.766 5 -15017904.644 5 -10155519.66347  22730138.50447
  23372520.930 4  -5022323.811 4  -4551483.82747  23372514.08647
  24526037.609 5   7224013.637 5   7013869.14345  24526028.65645
  22860646.875 1   -127803.417 1 -31850988.79245  22860640.32445
  25180665.273 4   4523747.756 4  -2990465.70547  25180665.46547
  22457256.055 7 -13015849.221 7  -8983887.44848  22457246.16448
  20440832.344 7 -26965797.816 7 -19905857.75248  20440821.34048
  22041862.461 6 -12751950.661 6  -8853594.52547  22041853.27347
  21471043.984 6 -10161334.862 6  -7833502.68149  21471038.07849
 24 11 23  2 53  0.0000000  0 10G06G11G12G13G14G15G17G19G22G24      
  20774377.758 7 -20492791.722 7 -17194495.00649  20774371.55949
  22711471.117 5 -15116026.597 5 -10231978.21547  22711466.38747
  23357291.992 3  -5102350.394 3  -4613842.04547  23357283.80147
  24543221.492 4   7314319.367 4   7084237.17845  24543213.82845
  22873105.781 1    -62337.082 1 -31799976.03945  22873098.11745
  25194716.164 3   4597593.071 3  -2932923.97147  25194717.05947
  22471437.953 6 -12941319.578 6  -8925812.37848  22471428.88348
  20447029.258 7 -26933235.209 7 -19880484.26648  20447018.19548
  22048871.594 6 -12715116.558 6  -8824892.60447  22048862.40647
  21465049.570 6 -10192835.223 6  -7858048.36349  21465043.89849
 24 11 23  2 53 30.0000000  0 10G06G11G12G13G14G15G17G19G22G24      
  20767832.695 7 -20527182.905 7 -17221293.28449  20767827.02349
  22692845.836 5 -15213905.862 5 -10308247.66547  22692841.10547
  23342067.992 3  -5182350.110 3  -4676179.32847  23342061.61747
  24560388.711 4   7404529.327 4   7154530.60045  24560380.75445
  22885602.922 1      3327.348 1 -31748808.87246  22885594.49646
  25208763.133 4   4671408.859 4  -2875405.21347  25208763.38347
  22485630.547 6 -12866739.810 6  -8867698.28448  22485621.30148
  20453281.875 6 -26900375.019 6 -19854878.89648  20453270.93048
  22055913.422 6 -12678114.123 6  -8796059.48847  22055903.76647
  21459164.133 6 -10223767.511 6  -7882151.39049  21459157.99249
 24 11 23  2 54  0.0000000  0 10G06G11G12G13G14G15G17G19G22G24      
  20761399.820 7 -20560987.471 7 -17247634.45949  20761394.03149
  22674267.000 5 -15311539.149 5 -10384325.43347  22674261.50447
  23326850.570 4  -5262321.965 4  -4738494.82847  23326843.66847
  24577534.383 4   7494640.926 4   7224747.29545  24577530.12145
  22898134.031 1     69190.587 1 -31697486.89845  22898127.65645
  25222803.516 3   4745193.082 3  -2817911.03846  25222803.00446
  22499832.219 7 -12792111.138 7  -8809546.07448  22499822.44548
  20459591.500 7 -26867218.021 7 -19829042.23148  20459580.73048
  22062986.516 6 -12640941.964 6  -8767094.16647  22062977.03547
  21453385.805 6 -10254130.096 6  -7905810.48949  21453379.78149
 24 11 23  2 54 30.0000000  0 10G06G11G12G13G14G15G17G19G22G24      
  20755078.938 7 -20594202.677 7 -17273516.40149  20755072.91449
  22655736.063 6 -15408922.171 6 -10460208.20347  22655729.45347
  23311638.289 4  -5342263.436 4  -4800786.68047  23311630.80147
  24594661.313 3   7584653.347 3   7294886.79745  24594660.09845
  22910705.430 1    135254.177 1 -31646008.75045  22910699.58245
  25236839.992 3   4818944.431 3  -2760442.51246  25236837.66446
  22514042.742 6 -12717433.235 6  -8751355.47148  22514032.73448
  20465957.641 7 -26833764.608 7 -19802974.60248  20465946.34448
  22070092.891 6 -12603598.098 6  -8737995.02547  22070083.00047
  21447716.281 6 -10283920.333 6  -7929023.59749  21447711.25849
 24 11 23  2 55  0.0000000  0  9G06G11G12G13G15G17G19G22G24         
  20748870.477 6 -20626827.126 6 -17298937.98749  20748865.39549
  22637253.539 6 -15506051.908 6 -10535893.62447  22637247.22347
  23296432.961 4  -5422173.454 4  -4863054.05247  23296424.12547
  24611770.250 2   7674564.096 2   7364947.09045  24611769.44545
  25250867.391 3   4892660.163 3  -2703001.83346  25250865.12146
  22528262.242 6 -12642707.573 6  -8693127.64848  22528252.93848
  20472379.180 7 -26800015.769 7 -19776676.77848  20472368.87948
  22077231.664 6 -12566081.524 6  -8708761.29747  22077222.59447
  21442156.695 6 -10313136.902 6  -7951789.71749  21442150.73049
 24 11 23  2 55 30.0000000  0 10G06G11G12G13G14G15G17G19G22G24      
  20742774.672 6 -20658861.200 6 -17323899.54849  20742769.11749
  22618818.375 6 -15602927.186 6 -10611380.72347  22618810.88747
  23281230.523 4  -5502052.646 4  -4925297.41647  23281223.50447
  24628858.422 1   7764368.714 1   7434924.63945  24628860.02045
  22935962.20311                                
  25264885.258 2   4966335.421 2  -2645592.53046  25264883.75046
  22542489.883 6 -12567936.828 6  -8634864.71348  22542481.80948
  20478857.938 7 -26765974.722 7 -19750151.26048  20478846.34848
  22084403.484 6 -12528393.391 6  -8679393.93447  22084394.59047
  21436706.008 6 -10341780.397 6  -7974109.27749  21436699.80949
 24 11 23  2 56  0.0000000  0 10G06G11G12G13G14G15G17G19G22G24      
  20736791.820 7 -20690303.007 7 -17348399.58649  20736785.73849
  22600432.516 6 -15699544.439 6 -10686666.78647  22600424.91047
  23266037.078 5  -5581899.141 5  -4987515.33947  23266029.53147
  24645929.961 3   7854065.533 3   7504818.29045  24645929.21545
  22948647.477 1    334643.935 1                
  25278902.734 5   5039968.969 5  -2588215.78647  25278896.94547
  22556728.242 6 -12493121.671 6  -8576567.14948  22556718.00048
  20485390.266 6 -26731642.173 6 -19723398.59848  20485379.32048
  22091608.258 6 -12490532.178 6  -8649891.66847  22091598.36747
  21431365.375 6 -10369848.945 6  -7995980.83749  21431359.11749
 24 11 23  2 56 30.0000000  0 10G06G11G12G13G14G15G17G19G22G24      
  20730921.258 7 -20721151.171 7 -17372437.06249  20730915.00049
  22582096.094 6 -15795900.618 6 -10761749.39947  22582088.37147
  23250848.406 5  -5661712.253 5  -5049707.22947  23250841.91447
  24662976.203 2   7943652.483 2   7574626.22145  24662977.62545
  22961371.867 2    401507.455 2                
  25292903.914 4   5113557.937 4  -2530873.88047  25292901.87947
  22570972.547 6 -12418263.205 6  -8518235.83848  22570963.53548
  20491979.109 6 -26697019.465 6 -19696419.83748  20491967.81348
  22098846.563 6 -12452496.984 6  -8620253.82047  22098837.37547
  21426134.047 6 -10397341.229 6  -8017403.35749  21426127.37949
 24 11 23  2 57  0.0000000  0 10G06G11G12G13G14G15G17G19G22G24      
  20725163.094 7 -20751408.860 7 -17396014.44049  20725157.30549
  22563809.742 6 -15891997.265 6 -10836629.79847  22563801.78547
  23235666.781 5  -5741495.484 5  -5111875.82247  23235658.53147
  24680002.039 3   8033122.344 3                
  22974134.203 4    468567.055 4                
  25306894.109 2   5187095.433 2  -2473571.95847  25306896.41047
  22585224.219 6 -12343367.234 6  -8459875.31548  22585215.61748
  20498621.258 6 -26662112.372 6 -19669219.47548  20498610.43048
  22106116.508 6 -12414291.487 6  -8590483.27647  22106106.73447
  21421011.758 7 -10424260.593 7  -8038379.44149  21421004.97349
 24 11 23  2 57 30.0000000  0 10G06G11G12G13G14G15G17G19G22G24      
  20719519.039 7 -20781070.349 7 -17419127.23049  20719513.25049
  22545573.352 6 -15987826.886 6 -10911302.13247  22545566.09847
  23220491.008 5  -5821243.067 5  -5174016.67147  23220482.46547
  24697006.320 2   8122477.279 2                
  22986933.867 4    535827.497 4                
  25320880.688 4   5260583.315 4  -2416308.65847  25320880.29347
  22599483.453 6 -12268430.161 6  -8401482.77148  22599475.20348
  20505318.422 6 -26626917.589 6 -19641794.95048  20505307.82848
  22113420.563 6 -12375910.075 6  -8560575.65647  22113410.14547
  21415998.211 6 -10450601.343 6  -8058904.65149  21415992.59849
 24 11 23  2 58  0.0000000  0 10G06G11G12G13G14G15G17G19G22G24      
  20713988.781 7 -20810134.341 7 -17441774.45049  20713982.28949
  22527389.391 6 -16083386.528 6 -10985764.09447  22527381.49247
  23205322.500 5  -5900953.883 5  -5236128.88947  23205314.42647
  24713988.805 3   8211714.697 3                
  22999770.773 3    603289.030 3                
  25334856.586 4   5334019.149 4  -2359085.96647  25334854.49247
  22613751.969 6 -12193453.126 6  -8343059.07648  22613743.19148
  20512070.297 6 -26591436.610 6 -19614147.40848  20512059.58648
  22120757.250 6 -12337352.410 6  -8530530.72647  22120747.53547
  21411095.758 6 -10476362.314 6  -8078978.09249  21411090.20349
 24 11 23  2 58 30.0000000  0 10G06G11G12G13G14G15G17G19G22G24      
  20708571.211 7 -20838602.382 7 -17463957.28249  20708565.12949
  22509256.078 6 -16178676.017 6 -11060015.55547  22509248.59047
  23190160.258 5  -5980629.291 5  -5298213.48047  23190153.00447
  24730943.750 1   8300829.648 1                
  23012646.219 3    670949.074 3                
  25348820.969 5   5407397.732 5  -2301907.94947  25348816.94147
  22628026.336 6 -12118440.354 6  -8284607.54048  22628017.55948
  20518875.617 6 -26555673.406 6 -19586279.96348  20518864.67248
  22128127.164 6 -12298620.149 6  -8500349.73947  22128117.27347
  21406303.656 6 -10501545.131 6  -8098601.00849  21406297.75049
 24 11 23  2 59  0.0000000  0 10G06G11G12G13G14G15G17G19G22G24      
  20703267.320 6 -20866471.060 6 -17485673.07849  20703261.12149
  22491175.617 6 -16273690.122 6 -11134052.41347  22491168.36347
  23175005.984 6  -6060266.444 6  -5360268.29448  23174997.79348
  24747880.484 1   8389821.905 1                
  23025559.242 3    738810.047 3                
  25362772.797 5   5480718.463 5  -2244775.07047  25362769.64847
  22642307.320 6 -12043390.691 6  -8226127.26148  22642299.07048
  20525735.766 6 -26519627.174 6 -19558191.96348  20525723.94148
  22135532.797 6 -12259710.314 6  -8470030.33447  22135521.91047
  21401622.688 6 -10526146.480 6  -8117770.85049  21401616.31349
 24 11 23  2 59 30.0000000  0 10G06G11G12G13G14G15G17G19G22G24      
  20698077.719 6 -20893742.251 6 -17506923.29749  20698071.63749
  22473146.891 6 -16368428.970 6 -11207874.80747  22473140.75047
  23159858.852 6  -6139867.421 6  -5422294.94048  23159849.95748
  24764793.766 3   8478686.390 3                
  23038511.266 2    806869.372 2                
  25376709.672 2   5553975.656 2  -2187691.57447  25376711.38747
  22656595.930 6 -11968307.949 6  -8167621.20548  22656587.62148
  20532647.508 6 -26483302.286 6 -19529886.82248  20532636.21148
  22142970.250 6 -12220625.014 6  -8439574.21047  22142961.06347
  21397051.398 6 -10550168.318 6  -8136489.11049  21397045.14149
 24 11 23  3  0  0.0000000  0  9G06G11G12G14G15G17G19G22G24         
  20693003.258 7 -20920412.590 7 -17527705.32149  20692996.47349
  22455172.289 6 -16462887.376 6 -11281478.67247  22455165.21147
  23144718.773 6  -6219428.463 6  -5484290.43548  23144710.34848
  23051499.758 1    875129.432 1                
  25390640.281 3   5627169.311 3  -2130657.53046  25390640.12146
  22670890.555 6 -11893191.109 6  -8109088.58448  22670881.60248
  20539613.102 6 -26446697.832 6 -19501363.83748  20539601.92248
  22150441.102 6 -12181361.104 6  -8408978.96147  22150432.20747
  21392590.813 6 -10573607.336 6  -8154753.22649  21392584.55549
 24 11 23  3  0 30.0000000  0 10G06G11G12G13G14G15G17G19G22G24      
  20688043.000 6 -20946478.999 6 -17548016.76849  20688036.15649
  22437250.391 6 -16557060.394 6 -11354860.16847  22437244.95347
  23129586.359 6  -6298946.313 6  -5546252.28748  23129578.46148
  24798538.37511 -13399850.91211                
  23064527.922 1    943592.184 1                
  25404559.289 5   5700299.218 5  -2073673.22947  25404555.90647
  22685190.758 6 -11818039.479 6  -8050528.84848  22685182.03948
  20546632.172 6 -26409813.200 6 -19472622.54048  20546620.75848
  22157947.000 5 -12141915.947 5  -8378242.45047  22157936.87547
  21388242.188 6 -10596460.568 6  -8172560.88249  21388235.93049
 24 11 23  3  1  0.0000000  0 10G06G11G12G13G14G15G17G19G22G24      
  20683196.852 7 -20971946.134 7 -17567861.23949  20683189.83249
  22419384.445 6 -16650950.896 6 -11428021.51647  22419377.54347
  23114462.086 6  -6378425.802 6  -5608184.26548  23114453.07448
  24815375.117 2 -13311379.739 2                
  23077592.500 1   1012252.247 1                
  25418459.281 5   5773356.747 5  -2016745.32346  25418456.01646
  22699497.602 5 -11742859.608 5  -7991947.11148  22699487.77048
  20553702.922 6 -26372655.255 6 -19443668.27148  20553692.50448
  22165487.836 6 -12102294.433 6  -8347368.47647  22165477.30147
  21384003.641 7 -10618732.675 7  -8189915.72349  21383997.61749
 24 11 23  3  1 30.0000000  0 10G06G11G12G13G14G15G17G19G22G24      
  20678465.516 7 -20996809.582 7 -17587235.29749  20678458.73049
  22401572.445 6 -16744552.529 6 -11500957.77447  22401564.84047
  23099346.484 6  -6457862.391 6  -5670082.79248  23099337.35548
  24832184.594 2 -13223044.189 2                
  23090696.89811                                
  25432346.539 4   5846342.712 4  -1959873.18546  25432343.74246
  22713808.875 5 -11667649.330 5  -7933341.71448  22713799.86348
  20560826.594 6 -26335222.020 6 -19414499.49848  20560815.00448
  22173061.016 6 -12062492.469 6  -8316353.94647  22173052.23847
  21379876.883 6 -10640419.378 6  -8206814.39949  21379870.21549
 24 11 23  3  2  0.0000000  0 10G06G11G12G13G14G15G17G19G22G24      
  20673848.320 7 -21021071.377 7 -17606140.54349  20673842.23849
  22383817.172 6 -16837865.546 6 -11573669.10747  22383807.75047
  23084236.758 5  -6537258.147 5  -5731949.47348  23084228.97748
  24848965.289 1 -13134849.776 1                
  23103838.68011   1150172.48311                
  25446221.734 3   5919251.924 3  -1903060.89946  25446217.88346
  22728125.695 5 -11592413.028 5  -7874716.04848  22728116.39148
  20568001.656 6 -26297517.996 6 -19385119.69548  20567990.12548
  22180669.648 5 -12022512.391 5  -8285200.63247  22180660.69547
  21375860.078 6 -10661522.770 6  -8223258.55449  21375854.11349
 24 11 23  3  2 30.0000000  0  9G06G11G12G13G15G17G19G22G24         
  20669345.875 7 -21044728.698 7 -17624574.77149  20669340.26249
  22366115.852 6 -16930885.126 6 -11646151.78147  22366107.19147
  23069136.727 5  -6616609.882 5  -5793781.81048  23069129.00448
  24865725.031 3 -13046796.598 3                
  25460081.977 3   5992083.416 3  -1846309.14146  25460078.53546
  22742448.250 6 -11517149.641 6  -7816069.24648  22742439.18048
  20575227.594 6 -26259542.821 6 -19355528.62348  20575216.76648
  22188312.281 6 -11982351.256 6  -8253906.20147  22188302.68447
  21371955.828 6 -10682040.094 6  -8239246.02249  21371950.27349
 24 11 23  3  3  0.0000000  0  9G06G11G12G13G15G17G19G22G24         
  20664959.055 6 -21067782.168 6 -17642538.47349  20664953.61749
  22348471.313 6 -17023610.007 6 -11718404.83047  22348462.71147
  23054044.297 5  -6695918.072 5  -5855580.26448  23054036.16448
  24882451.023 1 -12958888.758 1                
  25473925.977 2   6064833.295 2  -1789620.95346  25473923.41446
  22756775.820 6 -11441861.847 6  -7757403.40448  22756766.04748
  20582504.609 6 -26221299.466 6 -19325728.59048  20582494.01648
  22195987.352 5 -11942009.867 5  -8222471.36846  22195979.10246
  21368163.289 6 -10701972.059 6  -8254777.37149  21368157.91049
 24 11 23  3  3 30.0000000  0  9G06G11G12G13G15G17G19G22G24         
  20660686.938 7 -21090229.917 7 -17660030.18449  20660681.61749
  22330881.992 6 -17116036.307 6 -11790425.24747  22330874.79747
  23038961.125 5  -6775180.772 5  -5917343.28648  23038953.46148
  24899148.813 1 -12871127.989 1                
  25487752.234 1   6137499.994 1  -1732997.59446  25487749.78946
  22771107.773 6 -11366549.968 6  -7698718.80648  22771097.41448
  20589833.563 6 -26182788.054 6 -19295719.67648  20589822.73448
  22203700.688 5 -11901486.678 5  -8190894.81447  22203690.21147
  21364482.352 6 -10721316.810 6  -8269851.16249  21364476.15249
 24 11 23  3  4  0.0000000  0  9G06G11G12G13G15G17G19G22G24         
  20656530.906 6 -21112070.595 6 -17677048.85449  20656525.46949
  22313350.727 6 -17208160.673 6 -11862210.37347  22313343.64847
  23023888.469 5  -6854395.852 5  -5979069.22748  23023878.98848
  24915825.273 2 -12783515.445 2                
  25501566.133 3   6210081.387 3  -1676440.71646  25501560.81346
  22785443.086 6 -11291214.559 6  -7640015.86848  22785433.31348
  20597212.883 6 -26144009.624 6 -19265502.69648  20597201.76248
  22211445.727 6 -11860780.413 6  -8159175.58147  22211437.65247
  21360912.875 6 -10740073.057 6  -8284466.37349  21360907.32049
 24 11 23  3  4 30.0000000  0  9G06G11G12G13G15G17G19G22G24         
  20652490.773 7 -21133303.256 7 -17693593.74249  20652485.21949
  22295877.672 6 -17299980.247 6 -11933758.00647  22295871.00447
  23008821.930 5  -6933562.746 5  -6040757.60748  23008813.97348
  24932467.414 1 -12696053.785 1                
  25515359.258 2   6282574.958 2  -1619952.24646  25515356.28546
  22799781.875 6 -11215856.415 6  -7581295.21448  22799773.68448
  20604643.156 7 -26104965.064 7 -19235078.33348  20604631.91848
  22219226.406 5 -11819890.220 5  -8127313.07347  22219217.39547
  21357455.625 6 -10758239.904 6  -8298622.32549  21357450.18849
 24 11 23  3  5  0.0000000  0 10G06G11G12G13G14G15G17G19G22G24      
  20648565.656 7 -21153928.951 7 -17709665.66349  20648559.75049
  22278463.547 6 -17391494.035 6 -12005067.35147  22278456.35247
  22993764.977 4  -7012681.717 4  -6102408.65348  22993757.43048
  24949081.414 1 -12608747.094 1                
  23183486.75011    782740.83311                
  25529138.609 3   6354976.672 3  -1563535.37546  25529136.39846
  22814126.258 6 -11140478.244 6  -7522558.95248  22814117.53948
  20612122.820 7 -26065658.048 7 -19204449.45948  20612111.34848
  22227043.172 6 -11778816.971 6  -8095307.92247  22227033.34047
  21354110.922 6 -10775818.406 6  -8312319.82649  21354104.66449
 24 11 23  3  5 30.0000000  0  9G06G11G12G14G15G17G19G22G24         
  20644756.516 7 -21173948.346 7 -17725265.14049  20644749.96549
  22261108.539 6 -17482700.647 6 -12076137.33947  22261100.93447
  22978720.414 5  -7091753.095 5  -6164022.61948  22978711.40248
  23196894.586 2    853195.772 2                
  25542897.820 2   6427282.437 2  -1507193.31446  25542895.49246
  22828474.609 5 -11065082.648 5  -7463809.09848  22828464.66048
  20619651.953 6 -26026091.280 6 -19173618.17548  20619640.53948
  22234894.719 6 -11737561.694 6  -8063160.92347  22234884.88747
  21350877.984 6 -10792809.430 6  -8325559.54349  21350870.90649
 24 11 23  3  6  0.0000000  0  9G06G11G12G13G15G17G19G22G24         
  20641063.031 7 -21193356.154 7 -17740388.05949  20641056.83249
  22243811.742 6 -17573592.760 6 -12146962.24447  22243803.96147
  22963683.109 5  -7170771.191 5  -6225595.07148  22963674.56648
  24982218.53911 -14010029.97711                
  25556635.398 1   6499494.322 1  -1450924.29446  25556636.99646
  22842825.516 6 -10989666.276 6  -7405043.05548  22842815.56648
  20627231.078 6 -25986261.607 6 -19142582.04648  20627220.19148
  22242779.914 5 -11696118.688 5  -8030867.67947  22242770.96147
  21347756.516 6 -10809207.569 6  -8338337.27349  21347750.31649
 24 11 23  3  6 30.0000000  0  9G06G11G12G13G15G17G19G22G24         
  20637485.977 6 -21212154.947 6 -17755036.42649  20637479.71949
  22226575.227 6 -17664170.888 6 -12217542.50747  22226567.68047
  22948656.063 5  -7249738.201 5  -6287127.72448  22948647.52048
  24998742.352 1 -13923200.587 1                
  25570359.547 1   6571607.047 1  -1394732.65046  25570360.44146
  22857179.836 5 -10914233.380 5  -7346264.17448  22857169.77048
  20634859.891 7 -25946173.703 7 -19111344.69648  20634849.23848
  22250701.203 6 -11654490.838 6  -7998430.36247  22250691.84047
  21344748.555 6 -10825015.544 6  -8350655.13549  21344742.47349
 24 11 23  3  7  0.0000000  0  9G06G11G12G13G15G17G19G22G24         
  20634024.516 7 -21230343.705 7 -17769209.43449  20634018.90249
  22209398.516 6 -17754431.844 6 -12287875.63247  22209392.25847
  22933639.164 5  -7328652.784 5  -6348619.50448  22933630.50448
  25015236.117 2 -13836535.404 2                
  25584063.57811   3492777.92611  -3793820.31355  25584063.24255
  22871537.117 5 -10838785.284 5  -7287473.43647  22871527.46147
  20642537.313 6 -25905828.502 6 -19079906.87348  20642526.30948
  22258658.063 5 -11612676.990 5  -7965848.13147  22258649.46147
  21341853.016 6 -10840232.344 6  -8362512.34049  21341846.58249
 24 11 23  3  7 30.0000000  0  9G06G11G12G13G15G17G19G22G24         
  20630679.984 7 -21247920.476 7 -17782905.57949  20630673.49249
  22192283.500 6 -17844371.622 6 -12357958.48047  22192276.94947
  22918632.680 5  -7407511.786 5  -6410068.00047  22918623.78547
  25031698.086 1 -13750035.267 1                
  25597746.93011                  -3750776.33656  25597745.07056
  22885897.508 5 -10763320.809 5  -7228669.92948  22885888.67248
  20650263.508 6 -25865226.033 6 -19048268.55848  20650253.03148
  22266651.117 5 -11570675.246 5  -7933119.50147  22266641.75447
  21339070.680 6 -10854856.021 6  -8373907.38249  21339064.18849
 24 11 23  3  8  0.0000000  0  9G06G11G12G13G15G17G19G22G24         
  20627450.469 7 -21264891.031 7 -17796129.35149  20627444.44549
  22175229.164 6 -17933993.854 6 -12427793.87747  22175222.20347
  22903636.375 5  -7486321.196 5  -6471477.85148  22903627.01248
  25048124.172 1 -13663708.759 1                
  25611410.578 2   3636484.963 2  -3694831.36046  25611408.07446
  22900257.852 5 -10687847.434 5  -7169859.47747  22900250.83247
  20658037.102 6 -25824374.284 6 -19016436.00648  20658026.21548
  22274678.008 6 -11528490.991 6  -7900248.63447  22274669.34847
  21336399.578 7 -10868892.387 7  -8384844.78549  21336393.43849
 24 11 23  3  8 30.0000000  0  9G06G11G12G13G15G17G19G22G24         
  20624338.383 7 -21281246.482 7 -17808873.83249  20624331.77349
  22158237.820 6 -18023287.427 6 -12497373.18448  22158230.68448
  22888648.742 5  -7565070.710 5  -6532841.05248  22888641.54748
  25064518.820 1 -13577549.859 1                
  25625051.875 1   3708175.215 1  -3638968.86445  25625050.60245
  22914623.352 4 -10612358.246 4  -7111036.73347  22914615.57047
  20665860.102 7 -25783266.219 7 -18984403.71648  20665848.86348
  22282741.719 5 -11486115.365 5  -7867228.65547  22282732.47347
  21333841.758 7 -10882332.610 7  -8395317.65849  21333835.67649
 24 11 23  3  9  0.0000000  0  9G06G11G12G13G15G17G19G22G24         
  20621342.102 7 -21296990.750 7 -17821142.05449  20621335.72749
  22141308.398 6 -18112254.130 6 -12566697.78548  22141300.79348
  22873675.234 5  -7643764.148 5  -6594160.56048  22873667.33648
  25080880.78111 -13491565.40911                
  25638674.96112   3779752.90512  -3583194.02455  25638672.34055
  22928991.023 4 -10536858.584 4  -7052205.85147  22928981.83647
  20673730.477 6 -25741907.697 6 -18952176.26248  20673719.29748
  22290840.836 5 -11443552.111 5  -7834062.46047  22290831.88347
  21331396.539 6 -10895180.607 6  -8405329.04749  21331390.39849
 24 11 23  3  9 30.0000000  0  9G06G11G12G13G15G17G19G22G24         
  20618462.438 7 -21312120.451 7 -17832931.40349  20618456.53149
  22124441.258 6 -18200888.417 6 -12635763.35947  22124433.06647
  22858710.844 5  -7722397.575 5  -6655433.29948  22858703.00448
  25097208.27311 -13405754.89111                
  25652273.25011                  -3527506.93155  25652272.85555
  22943361.000 5 -10461346.888 5  -6993365.53047  22943350.69947
  20681647.805 6 -25700297.198 6 -18919752.46648  20681637.44548
  22298977.820 5 -11400797.676 5  -7800747.27846  22298968.57446
  21329065.266 6 -10907433.069 6  -8414876.37849  21329058.94949
 24 11 23  3 10  0.0000000  0 10G06G11G12G13G14G15G17G19G22G24      
  20615698.719 7 -21326642.116 7 -17844246.93749  20615693.22349
  22107636.102 6 -18289194.511 6 -12704573.20047  22107628.55547
  22843759.234 6  -7800976.661 6  -6716663.67648  22843748.58248
  25113503.969 1 -13320127.424 1                
  23319265.28111   -330259.30911                
  25665849.508 1   3922561.307 1  -3471915.00545  25665850.98845
  22957729.969 4 -10385831.181 4  -6934522.09147  22957721.30947
  20689613.641 7 -25658443.190 7 -18887138.95248  20689601.87548
  22307147.906 5 -11357858.372 5  -7767288.08547  22307139.48047
  21326846.055 7 -10919096.537 7  -8423964.76649  21326839.03549
 24 11 23  3 10 30.0000000  0  9G06G11G12G13G14G17G19G22G24         
  20613053.391 7 -21340546.212 7 -17855081.25949  20613046.66449
  22090895.648 6 -18377160.697 6 -12773118.18347  22090888.57047
  22828817.938 6  -7879490.842 6  -6777843.49548  22828808.45748
  25129762.85211 -13234676.11511                
  23333053.211 1   -257809.317 1                
  22972104.102 5 -10310303.142 5  -6875669.07947  22972093.74247
  20697624.398 6 -25616338.022 6 -18854329.69748  20697614.27348
  22315356.328 5 -11314724.593 5  -7733677.35147  22315347.66847
  21324740.047 7 -10930161.472 7  -8432586.75449  21324733.67249
 24 11 23  3 11  0.0000000  0 10G06G11G12G13G14G17G19G20G22G24      
  20610523.508 7 -21353841.350 7 -17865441.05949  20610516.95749
  22074220.297 6 -18464793.298 6 -12841403.22647  22074212.04747
  22813887.688 6  -7957948.223 6  -6838979.03948  22813879.14548
  25145988.938 1 -13149412.689 1                
  23346877.18811   -185165.28711                
  22986475.500 4 -10234772.597 4  -6816814.10447  22986467.42647
  20705684.008 6 -25573992.067 6 -18821332.81848  20705672.88748
  25237547.89811   -481475.76511                
  22323599.234 5 -11271404.682 5  -7699921.57547  22323591.45347
  21322746.641 7 -10940636.499 7  -8440749.08749  21322740.09049
 24 11 23  3 11 30.0000000  0 10G06G11G12G13G14G17G19G20G22G24      
  20608109.039 7 -21366527.259 7 -17875326.13949  20608103.13349
  22057609.492 6 -18552089.785 6 -12909426.34647  22057600.42247
  22798969.313 6  -8036347.781 6  -6900069.52248  22798960.77048
  25162177.76611 -13064338.89711                
  23360739.89811   -112327.09911                
  23000849.805 4 -10159240.877 4  -6757958.23647  23000841.02747
  20713786.383 6 -25531407.317 6 -18788149.87248  20713776.08248
  25221841.391 1   -564008.235 1                
  22331879.461 6 -11227897.964 6  -7666020.20047  22331870.33247
  21320865.617 7 -10950521.435 7  -8448451.59949  21320859.41849
 24 11 23  3 12  0.0000000  0 11G06G11G12G13G14G15G17G19G20G22G24   
  20605813.203 7 -21378594.401 7 -17884729.07749  20605806.53549
  22041064.516 6 -18639038.377 6 -12977178.39047  22041054.97747
  22784062.031 6  -8114678.913 6  -6961106.65848  22784053.66448
  25178335.734 3 -12979448.288 3                
  23374638.32811                                
  25719924.45312                                
  23015224.125 4 -10083699.993 4  -6699095.20947  23015215.81647
  20721937.531 6 -25488575.375 6 -18754774.31448  20721926.29348
  25206096.570 1   -646734.623 1                
  22340195.125 5 -11184194.484 5  -7631965.53747  22340186.34847
  21319098.531 6 -10959806.700 6  -8455686.84449  21319092.50849
 24 11 23  3 12 30.0000000  0 10G06G11G12G13G15G17G19G20G22G24      
  20603633.352 7 -21390047.798 7 -17893653.76549  20603627.32849
  22024583.578 6 -18725641.670 6 -13044661.39848  22024575.03548
  22769168.609 6  -8192945.625 6  -7022093.61548  22769160.12548
  25194451.914 2 -12894748.473 2                
  25733379.39111                                
  23029600.906 5 -10008155.892 5  -6640229.65447  23029590.43047
  20730133.484 6 -25445503.252 6 -18721211.61948  20730122.65648
  25190319.297 1   -729658.211 1                
  22348547.883 5 -11140299.233 5  -7597761.44047  22348539.57447
  21317444.820 6 -10968497.271 6  -8462458.67849  21317438.97349
 24 11 23  3 13  0.0000000  0  9G06G11G12G13G17G19G20G22G24         
  20601570.500 7 -21400887.352 7 -17902100.12449  20601564.24249
  22008168.477 6 -18811897.287 6 -13111873.48447  22008161.92647
  22754287.172 5  -8271147.012 5  -7083029.68748  22754278.62948
  25210528.82811                                
  23043976.047 4  -9932609.997 4  -6581362.68047  23043966.03947
  20738375.586 6 -25402192.117 6 -18687462.66148  20738364.52348
  25174501.328 2   -812776.715 2                
  22356938.570 6 -11096211.536 6  -7563407.38647  22356928.09447
  21315904.445 6 -10976593.148 6  -8468767.12249  21315898.07049
 24 11 23  3 13 30.0000000  0  8G06G11G12G17G19G20G22G24            
  20599624.375 7 -21411112.500 7 -17910067.73549  20599618.52749
  21991820.922 6 -18897802.295 6 -13178812.38347  21991814.25447
  22739418.836 6  -8349281.751 6  -7143913.77248  22739410.41048
  23058352.742 5  -9857063.019 5  -6522494.89847  23058342.55947
  20746662.789 6 -25358643.919 6 -18653528.98148  20746651.96148
  25158647.648 2   -896087.688 2                
  22365364.813 6 -11051930.304 6  -7528902.53947  22365355.33247
  21314477.266 6 -10984093.783 6  -8474611.73049  21314470.30549
 24 11 23  3 14  0.0000000  0  9G06G11G12G13G17G19G20G22G24         
  20597795.695 7 -21420723.587 7 -17917556.85949  20597789.14549
  21975541.055 6 -18983354.738 6 -13245476.53447  21975533.91847
  22724563.156 6  -8427348.978 6  -7204745.26448  22724554.43848
  25242583.42212    -24733.08912                
  23072728.680 5  -9781516.116 5  -6463627.18347  23072718.90647
  20754994.516 6 -25314860.191 6 -18619411.76848  20754983.27748
  25142757.891 2   -979589.411 2                
  22373828.891 5 -11007455.834 5  -7494247.09146  22373818.82446
  21313163.000 7 -10990999.502 7  -8479992.77149  21313156.09849
 24 11 23  3 14 30.0000000  0  9G06G11G12G13G17G19G20G22G24         
  20596083.336 7 -21429720.714 7 -17924567.57249  20596077.43049
  21959329.492 6 -19068552.235 6 -13311864.12447  21959320.89147
  22709720.664 6  -8505347.247 6  -7265523.06748  22709711.71148
  25258551.711 3     59180.674 3                
  23087104.531 5  -9705970.689 5  -6404760.61147  23087094.87547
  20763371.359 7 -25270842.431 7 -18585112.20548  20763360.29748
  25126832.453 2  -1063279.496 2    -82420.99955  25126828.95355
  22382328.547 6 -10962787.864 6  -7459440.86547  22382318.18847
  21311962.594 7 -10997310.396 7  -8484910.30949  21311955.39849
 24 11 23  3 15  0.0000000  0  9G06G11G12G13G17G19G20G22G24         
  20594489.391 7 -21438101.411 7 -17931097.93349  20594482.84049
  21943185.164 6 -19153389.958 6 -13377971.35447  21943176.79747
  22694890.969 6  -8583273.832 6  -7326244.98148  22694882.30948
  25274480.477 2    142894.419 2                
  23101479.867 5  -9630425.714 5  -6345894.36947  23101470.91447
  20771791.750 7 -25226590.030 7 -18550629.79348  20771780.57048
  25110871.531 2  -1147153.857 2   -147777.29545  25110867.56345
  22390866.117 6 -10917923.206 6  -7424481.39147  22390855.93447
  21310874.516 7 -11003024.006 7  -8489362.43749  21310867.84849
 24 11 23  3 15 30.0000000  0  9G06G11G12G13G17G19G20G22G24         
  20593010.680 7 -21445869.747 7 -17937151.14449  20593004.59849
  21927109.633 6 -19237869.543 6 -13443799.52847  21927101.03147
  22680076.125 6  -8661131.458 6  -7386913.14048  22680066.82048
  25290374.789 4    226401.562 4  -9546257.27455  25290370.82055
  23115853.766 5  -9554886.303 5  -6287032.45447  23115846.27747
  20780256.445 7 -25182108.552 7 -18515968.86848  20780245.26648
  25094875.031 2  -1231214.165 2   -213278.48545  25094872.11745
  22399439.859 6 -10872865.666 6  -7389371.61547  22399429.91047
  21309900.594 7 -11008144.399 7  -8493352.33449  21309893.75049
 24 11 23  3 16  0.0000000  0  9G06G11G12G13G17G19G20G22G24         
  20591650.180 7 -21453021.022 7 -17942723.52849  20591643.68849
  21911102.008 6 -19321983.824 6 -13509343.03847  21911094.69547
  22665273.961 6  -8738914.005 6  -7447522.83848  22665265.71148
  25306226.094 4    309704.412 4  -9481346.14545  25306222.71145
  23130228.266 5  -9479348.380 5  -6228171.71447  23130220.48447
  20788764.695 7 -25137394.786 7 -18481126.95148  20788753.69148
  25078843.555 3  -1315453.468 3   -278919.10045  25078840.64145
  22408051.563 6 -10827609.745 6  -7354107.24946  22408041.67246
  21309039.461 6 -11012666.895 6  -8496876.32549  21309032.91049
 24 11 23  3 16 30.0000000  0 10G06G11G12G13G14G17G19G20G22G24      
  20590405.766 7 -21459559.732 7 -17947818.59149  20590399.68449
  21895164.898 6 -19405734.848 6 -13574603.50247  21895156.70747
  22650486.516 6  -8816625.034 6  -7508076.78148  22650477.03548
  25322038.023 3    392796.110 3  -9416599.58445  25322034.11345
  23501421.78111                                
  23144601.492 6  -9403817.539 6  -6169316.50448  23144592.83248
  20797316.734 7 -25092454.575 7 -18446108.57648  20797305.78948
  25062779.094 2  -1399873.923 2   -344700.92945  25062775.12545
  22416700.508 6 -10782159.784 6  -7318691.65246  22416690.91046
  21308291.313 7 -11016595.962 7  -8499937.89849  21308285.23049
 24 11 23  3 17  0.0000000  0 10G06G11G12G13G14G17G19G20G22G24      
  20589278.344 7 -21465483.506 7 -17952434.48049  20589272.02749
  21879297.492 6 -19489117.732 6 -13639577.11347  21879289.30147
  22635712.438 6  -8894260.918 6  -7568572.18948  22635703.30948
  25337809.750 3    475677.343 3  -9352017.00845  25337806.25045
  23515696.66411    241327.82211                
  23158973.641 6  -9328292.383 6  -6110465.73248  23158963.92648
  20805911.922 7 -25047287.038 7 -18410913.06948  20805900.68448
  25046681.227 1  -1484470.660 1   -410620.25345  25046677.31645
  22425386.492 5 -10736512.649 5  -7283122.47746  22425376.71946
  21307657.531 7 -11019929.215 7  -8502535.21449  21307650.92249
 24 11 23  3 17 30.0000000  0 10G06G11G12G13G14G17G19G20G22G24      
  20588267.602 7 -21470793.098 7 -17956571.79349  20588261.46149
  21863501.039 6 -19572130.748 6 -13704262.51347  21863491.91047
  22620952.844 6  -8971820.328 6  -7629007.99848  22620944.59448
  25353540.695 2    558344.657 2  -9287601.09845  25353538.89545
  23530009.07011                                
  23173344.867 6  -9252774.880 6  -6051620.93547  23173334.33247
  20814549.883 7 -25001894.450 7 -18375542.18248  20814539.40648
  25030549.430 1  -1569242.496 1                
  22434111.344 5 -10690668.621 5  -7247399.82446  22434101.68846
  21307136.570 7 -11022667.431 7  -8504668.85849  21307130.07849
 24 11 23  3 18  0.0000000  0 10G06G11G12G13G14G17G19G20G22G24      
  20587374.945 7 -21475487.268 7 -17960229.56949  20587368.21949
  21847775.469 6 -19654770.168 6 -13768656.79447  21847766.10547
  22606209.305 6  -9049302.134 6  -7689383.33548  22606199.82448
  25369230.055 2    640797.480 2  -9223352.31345  25369229.83645
  23544360.04711                                
  23187713.313 6  -9177264.715 6  -5992781.83048  23187703.59848
  20823230.406 7 -24956277.159 7 -18339996.22548  20823219.34448
  25014384.922 2  -1654185.810 2                
  22442873.047 5 -10644625.696 5  -7211522.22346  22442862.62946
  21306728.648 7 -11024809.341 7  -8506337.85049  21306722.33249
 24 11 23  3 18 30.0000000  0  9G06G11G12G13G17G19G20G22G24         
  20586598.422 7 -21479566.529 7 -17963408.18549  20586591.87149
  21832121.125 6 -19737033.971 6 -13832758.36647  21832112.11347
  22591479.391 6  -9126704.721 6  -7749696.96948  22591470.61348
  25384879.109 2    723032.958 2  -9159272.91445  25384878.77345
  23202080.742 6  -9101763.069 6  -5933949.38848  23202071.84848
  20831953.398 7 -24910436.828 7 -18304276.46348  20831942.86348
  24998187.008 1  -1739298.419 1                
  22451672.492 5 -10598383.971 5  -7175489.68446  22451662.48446
  21306434.984 6 -11026355.475 6  -8507542.57349  21306428.60949
 24 11 23  3 19  0.0000000  0 10G06G11G12G13G15G17G19G20G22G24      
  20585938.273 6 -21483034.119 6 -17966110.17349  20585931.84049
  21816538.016 6 -19818922.811 6 -13896567.77648  21816529.29748
  22576764.813 6  -9204030.161 6  -7809950.46548  22576756.68048
  25400485.586 1    805045.857 1  -9095366.96045  25400486.36345
  25905867.99211    362925.60711                
  23216445.328 5  -9026273.783 5  -5875126.57548  23216436.78548
  20840718.344 7 -24864377.908 7 -18268386.37748  20840707.28148
  24981960.898 2  -1824581.112 2                
  22460507.539 4 -10551945.985 4  -7139304.21545  22460499.11345
  21306252.539 6 -11027309.013 6  -8508285.55949  21306246.92649
 24 11 23  3 19 30.0000000  0  9G06G11G12G13G17G19G20G22G24         
  20585395.891 7 -21485883.111 7 -17968330.12449  20585389.22349
  21801028.000 6 -19900427.233 6 -13960077.62947  21801019.98447
  22562067.133 6  -9281269.880 6  -7870137.15948  22562058.23848
  25416049.008 1    886841.023 1                
  23230808.539 5  -8950791.000 5  -5816308.79547  23230800.87547
  20849525.336 7 -24818094.605 7 -18232321.46548  20849514.62548
  24965701.211 2  -1910024.494 2                
  22469383.398 1 -10505304.104 1  -7102960.02255  22469375.55955
  21306185.531 6 -11027663.062 6  -8508561.41849  21306179.09849
 24 11 23  3 20  0.0000000  0  9G06G11G12G13G17G19G20G22G24         
  20584970.313 6 -21488121.242 6 -17970074.08649  20584963.52749
  21785590.539 6 -19981552.381 6 -14023291.98048  21785582.46548
  22547383.844 6  -9358430.346 6  -7930262.11748  22547374.30548
  25431568.83611                                
  23245170.594 5  -8875323.048 5  -5757502.56048  23245162.46148
  20858373.766 7 -24771596.271 7 -18196088.97448  20858362.17648
  24949408.398 2  -1995633.662 2   -290048.14955  24949401.73055
  22478299.195 2 -10458465.383 2                
  21306230.875 6 -11027425.335 6  -8508376.14749  21306224.61749
 24 11 23  3 20 30.0000000  0  8G06G11G12G17G19G20G22G24            
  20584661.281 7 -21489746.408 7 -17971340.42249  20584654.49649
  21770225.203 6 -20062293.511 6 -14086207.09648  21770217.53948
  22532716.656 6  -9435507.758 6  -7990322.35048  22532707.05948
  23259530.063 5  -8799868.734 5  -5698706.97947  23259520.40647
  20867263.375 7 -24724882.027 7 -18159688.24248  20867251.96148
  24933086.656 1  -2081404.630 1   -356882.48845  24933081.21945
  22487247.992 2 -10411427.163 2  -7036707.11555  22487238.39555
  21306389.305 6 -11026593.679 6  -8507728.08649  21306382.87149
 24 11 23  3 21  0.0000000  0  8G06G11G12G17G19G20G22G24            
  20584468.883 7 -21490757.473 7 -17972128.24249  20584462.03949
  21754934.992 6 -20142646.898 6 -14148820.07947  21754926.74247
  22518065.148 6  -9512499.242 6  -8050315.65748  22518055.60948
  23273886.430 5  -8724427.507 5  -5639921.58447  23273875.42647
  20876193.984 7 -24677951.782 7 -18123119.19748  20876182.10248
  24916735.430 1  -2167333.248 1   -423839.59545  24916730.05145
  22496240.273 3 -10364187.004 3  -6999896.60645  22496229.56345
  21306660.445 6 -11025166.929 6  -8506616.31049  21306654.18849
 24 11 23  3 21 30.0000000  0  8G06G11G12G17G19G20G22G24            
  20584392.969 7 -21491154.728 7 -17972437.75749  20584386.35949
  21739718.141 6 -20222610.088 6 -14211128.98748  21739709.94948
  22503430.938 6  -9589403.650 6  -8110241.11548  22503420.46148
  23288239.453 5  -8648999.958 5  -5581146.88847  23288228.44947
  20885165.359 7 -24630806.730 7 -18086382.78448  20885154.41448
  24900353.570 1  -2253416.876 1   -490917.52545  24900349.95345
  22505266.35212 -40249725.17512 -30287328.88955  22505258.27755
  21307044.844 6 -11023145.393 6  -8505041.06549  21307038.82049
 24 11 23  3 22  0.0000000  0  8G06G11G12G17G19G20G22G24            
  20584435.492 7 -21490934.060 7 -17972265.78549  20584428.00449
  21724577.695 6 -20302176.664 6 -14273128.83347  21724568.68447
  22488813.469 6  -9666215.694 6  -8170094.58948  22488804.22348
  23302588.789 4  -8573583.135 4  -5522380.53247  23302579.89547
  20894177.414 7 -24583444.568 7 -18049477.20048  20894166.99648
  24883940.70311                   -558111.35855  24883940.19155
  22514332.734 1 -40202076.513 1 -30250200.08245  22514325.36345
  21307544.375 6 -11020524.962 6  -8502999.14149  21307537.18049
 24 11 23  3 22 30.0000000  0  8G06G11G12G13G17G19G22G24            
  20584588.797 7 -21490125.961 7 -17971636.06649  20584582.07049
  21709506.758 6 -20381374.250 6 -14334841.15848  21709498.33248
  22474208.258 6  -9742964.230 6  -8229898.55848  22474199.53948
  25508536.59411    751541.70411                
  23316934.156 5  -8498207.745 5  -5463646.45947  23316924.91047
  20903226.563 7 -24535896.489 7 -18012426.72048  20903215.03148
  22523434.906 2 -40154250.778 2 -30212933.15645  22523425.89545
  21308150.703 6 -11017336.064 6  -8500514.25249  21308144.27049
 24 11 23  3 23  0.0000000  0  8G06G11G12G13G17G19G22G24            
  20584863.289 7 -21488684.262 7 -17970512.63549  20584855.68449
  21694515.195 6 -20460153.942 6 -14396227.86848  21694506.77048
  22459625.633 6  -9819601.330 6  -8289615.69948  22459615.68448
  25523787.96911    831720.24811                
  23331278.258 5  -8422828.285 5  -5404909.20447  23331269.07047
  20912318.117 7 -24488117.551 7 -17975196.36248  20912307.23048
  22532576.43811                 -30175491.65555  22532569.35955
  21308874.875 6 -11013532.518 6  -8497550.43549  21308868.03149
 24 11 23  3 23 30.0000000  0  8G06G11G12G13G17G19G22G24            
  20585254.344 7 -21486629.664 7 -17968911.62249  20585247.14849
  21679599.438 6 -20538533.790 6 -14457303.01748  21679591.59848
  22445059.414 6  -9896145.647 6  -8349260.54948  22445049.99248
  25539001.586 1    911660.345 1                
  23345618.523 5  -8347465.747 5  -5346185.12547  23345610.15647
  20921449.852 6 -24440129.503 6 -17937803.04848  20921439.31648
  22541760.53112 -40057946.46512 -30137890.87655  22541752.10555
  21309711.539 7 -11009134.950 7  -8494123.73249  21309704.75449
 24 11 23  3 24  0.0000000  0  8G06G11G12G13G17G19G22G24            
  20585763.805 6 -21483951.085 6 -17966824.37649  20585756.66849
  21664763.727 6 -20616500.000 6 -14518055.86248  21664755.41848
  22430513.766 6  -9972584.760 6  -8408823.42648  22430504.16848
  25554166.67211                                
  23359958.578 5  -8272109.569 5  -5287466.03447  23359948.86347
  20930624.031 6 -24391921.880 6 -17900238.65748  20930612.73448
  22550983.945 2 -40009475.716 2 -30100121.42645  22550975.22745
  21310662.836 6 -11004132.283 6  -8490225.53049  21310656.57849
 24 11 23  3 24 30.0000000  0  7G06G11G12G17G19G22G24               
  20586386.563 6 -21480677.212 6 -17964273.28049  20586379.54349
  21650000.484 6 -20694078.657 6 -14578506.69748  21649992.93848
  22415982.664 6 -10048945.226 6  -8468325.00748  22415972.94948
  23374291.305 4  -8196789.174 4  -5228774.81947  23374280.65247
  20939832.688 6 -24343524.769 6 -17862526.59948  20939822.27048
  22560244.570 2 -39960816.620 2 -30062205.34245  22560234.27045
  21311725.281 6 -10998553.237 6  -8485878.20449  21311718.32049
 24 11 23  3 25  0.0000000  0  7G06G11G12G17G19G22G24               
  20587125.117 7 -21476796.102 7 -17961249.01949  20587118.21549
  21635314.969 6 -20771254.979 6 -14638644.02448  21635306.36748
  22401468.742 6 -10125212.901 6  -8527754.29648  22401459.43848
  23388621.164 4  -8121492.668 4  -5170102.20947  23388610.04347
  20949080.953 6 -24294926.927 6 -17824658.13248  20949069.42248
  22569541.664 2 -39911956.259 2 -30024132.33245  22569531.59845
  21312898.898 7 -10992385.809 7  -8481072.40249  21312891.70349
 24 11 23  3 25 30.0000000  0  7G06G11G12G17G19G22G24               
  20587980.359 7 -21472303.319 7 -17957748.10349  20587973.22349
  21620706.500 6 -20848021.714 6 -14698462.19548  21620697.95748
  22386974.727 6 -10201382.411 6  -8587107.10448  22386965.01248
  23402944.914 4  -8046215.820 4  -5111444.95447  23402935.19947
  20958367.133 6 -24246124.940 6 -17786630.58748  20958356.42248
  22578878.727 2 -39862889.096 2 -29985898.18545  22578869.07045
  21314185.055 7 -10985625.451 7  -8475804.57449  21314178.32849
 24 11 23  3 26  0.0000000  0  8G06G11G12G14G17G19G22G24            
  20588950.406 7 -21467205.217 7 -17953775.53049  20588943.62149
  21606174.477 6 -20924382.539 6 -14757964.08548  21606166.98848
  22372497.500 6 -10277458.045 6  -8646386.77548  22372488.07848
  23778963.58611   -612727.88311                
  23417262.867 3  -7970965.413 3  -5052808.24546  23417255.14546
  20967691.203 6 -24197126.143 6 -17748449.68148  20967681.02048
  22588254.922 2 -39813620.635 2 -29947507.17145  22588244.56345
  21315582.758 6 -10978278.565 6  -8470079.70249  21315576.26649
 24 11 23  3 26 30.0000000  0  8G06G11G12G14G17G19G22G24            
  20590037.359 7 -21461493.076 7 -17949324.48549  20590030.39849
  21591723.164 6 -21000325.985 6 -14817140.74048  21591715.09048
  22358040.734 6 -10353428.929 6  -8705584.82748  22358031.13748
  23793939.391 1   -534037.812 1                
  23431579.813 3  -7895733.037 3  -4994185.59046  23431571.15246
  20977054.188 6 -24147922.428 6 -17710109.13148  20977043.88748
  22597670.867 3 -39764140.929 3 -29908951.52746  22597659.68846
  21317094.250 6 -10970336.391 6  -8463890.97549  21317087.81649
 24 11 23  3 27  0.0000000  0  9G06G11G12G14G17G19G20G22G24         
  20591239.727 7 -21455172.438 7 -17944399.27249  20591233.00049
  21577349.992 6 -21075854.735 6 -14875994.26548  21577342.38748
  22343602.734 6 -10429298.471 6  -8764703.88349  22343593.89849
  23808947.03911                                
  23445892.992 4  -7820524.444 4  -4935581.49246  23445881.75446
  20986455.469 6 -24098520.255 6 -17671613.90448  20986444.40648
  24718330.07011   -699787.25611                
  22607124.281 3 -39714454.810 3 -29870235.07746  22607114.97746
  21318717.891 6 -10961804.404 6  -8457242.65449  21318711.10549
 24 11 23  3 27 30.0000000  0  8G06G11G12G17G19G20G22G24            
  20592558.867 7 -21448241.108 7 -17938998.20249  20592551.90649
  21563057.508 6 -21150963.847 6 -14934520.80548  21563049.08248
  22329185.859 7 -10505062.801 7  -8823740.94949  22329176.96549
  23460198.461 3  -7745337.658 3  -4876994.35046  23460188.68846
  20995895.352 7 -24048918.284 7 -17632963.00448  20995883.41048
  24701626.984 1   -787551.703 1                
  22616618.891 4 -39664558.984 4 -29831355.25246  22616609.35246
  21320454.008 6 -10952680.448 6  -8450133.04749  21320447.45749
 24 11 23  3 28  0.0000000  0  8G06G11G12G17G19G20G22G24            
  20593993.047 7 -21440704.261 7 -17933125.30349  20593986.14549
  21548844.500 6 -21225655.629 6 -14992722.15248  21548836.13348
  22314787.711 6 -10580724.363 6  -8882697.95849  22314778.69949
  23474501.586 3  -7670177.892 3  -4818428.29146  23474492.10546
  21005370.703 7 -23999122.279 7 -17594160.90748  21005359.58248
  24684900.852 1   -875441.772 1                
  22626153.859 4 -39614457.706 4 -29792315.29146  22626143.96946
  21322302.484 7 -10942969.571 7  -8442566.12249  21322294.93849
 24 11 23  3 28 30.0000000  0  8G06G11G12G17G19G20G22G24            
  20595542.602 7 -21432562.694 7 -17926781.20549  20595535.69949
  21534711.117 6 -21299928.089 6 -15050596.74948  21534702.51648
  22300409.383 6 -10656282.528 6  -8941574.40448  22300399.84448
  23488798.797 3  -7595046.136 3  -4759884.08746  23488790.31346
  21014882.844 6 -23949133.878 6 -17555208.89548  21014871.95748
  24668154.391 1   -963455.733 1                
  22635727.914 5 -39564150.398 5 -29753114.81546  22635717.37946
  21324261.719 7 -10932672.573 7  -8434542.47149  21324254.46549
 24 11 23  3 29  0.0000000  0  8G06G11G12G17G19G20G22G24            
  20597207.195 7 -21423815.803 7 -17919965.42949  20597200.29349
  21520657.930 6 -21373777.752 6 -15108141.88348  21520649.44548
  22286051.414 6 -10731734.923 6  -9000368.41348  22286042.28548
  23503091.109 4  -7519942.140 4  -4701361.47446  23503082.03946
  21024432.109 6 -23898953.155 6 -17516107.02148  21024421.10548
  24651382.992 2  -1051589.330 2                
  22645338.945 5 -39513635.664 5 -29713752.69946  22645329.40646
  21326332.773 7 -10921788.824 7  -8426061.60349  21326325.75449
 24 11 23  3 29 30.0000000  0  8G06G11G12G17G19G20G22G24            
  20598986.742 7 -21414465.253 7 -17912679.25749  20598979.37149
  21506685.453 6 -21447203.478 6 -15165356.69448  21506677.20348
  22271713.500 6 -10807080.681 6  -9059079.32049  22271703.84449
  23517377.547 4  -7444867.321 4  -4642861.60146  23517368.47746
  21034017.039 6 -23848582.512 6 -17476857.16548  21034006.21148
  24634589.234 1  -1139841.712 1                
  22654991.633 5 -39462914.071 5 -29674229.37446  22654981.68446
  21328514.836 6 -10910319.956 6  -8417124.81149  21328507.93449
 24 11 23  3 30  0.0000000  0  8G06G11G12G17G19G20G22G24            
  20600880.969 7 -21404508.372 7 -17904920.63049  20600874.12549
  21492794.727 6 -21520199.706 6 -15222236.82448  21492786.06648
  22257396.469 6 -10882314.945 6  -9117703.34849  22257387.10549
  23531658.672 3  -7369819.162 3  -4584382.47546  23531649.48446
  21043639.234 6 -23798019.881 6 -17437457.68948  21043627.99648
  24617770.164 1  -1228206.375 1                
  22664683.711 5 -39411981.530 5 -29634541.67646  22664673.64546
  21330808.969 6 -10898263.257 6  -8407729.96349  21330802.41849
 24 11 23  3 30 30.0000000  0  7G06G11G12G17G19G22G24               
  20602891.820 7 -21393942.784 7 -17896687.68849  20602884.50849
  21478987.250 6 -21592761.128 6 -15278778.16348  21478978.12148
  22243101.828 6 -10957433.116 6  -9176236.93649  22243092.52349
  23545935.664 3  -7294794.856 3  -4525921.97846  23545926.24246
  21053297.719 6 -23747263.177 6 -17397907.00048  21053286.77348
  22674416.508 5 -39360834.491 5 -29594686.86546  22674406.26646
  21333215.797 6 -10885616.284 6  -8397875.16449  21333209.24649
 24 11 23  3 31  0.0000000  0  7G06G11G12G17G19G22G24               
  20605014.680 7 -21382784.080 7 -17887992.56749  20605007.60249
  21465259.344 6 -21664900.497 6 -15334990.61048  21465250.56648
  22228826.711 6 -11032448.230 6  -9234690.20748  22228817.75848
  23560206.211 2  -7219810.399 2  -4467492.57546  23560194.79746
  21062990.555 6 -23696328.835 6 -17358217.88848  21062978.55548
  22684187.289 5 -39309487.860 5 -29554676.51946  22684178.45346
  21335731.945 6 -10872394.605 6  -8387572.53649  21335725.51249
 24 11 23  3 31 30.0000000  0  8G06G11G12G17G19G20G22G24            
  20607252.766 7 -21371020.996 7 -17878826.49849  20607246.09849
  21451614.445 6 -21736603.681 6 -15390863.18348  21451605.72748
  22214574.164 6 -11107347.409 6  -9293053.14749  22214565.15249
  23574467.734 1  -7144854.546 1  -4409085.39146  23574458.48846
  21072718.133 6 -23645206.100 6 -17318381.99148  21072707.59848
  24567199.21911   -410632.81111                
  22693998.891 5 -39257928.969 5 -29514500.76746  22693989.70346
  21338359.039 7 -10858586.914 7  -8376813.28049  21338353.19149
 24 11 23  3 32  0.0000000  0  8G06G11G12G17G19G20G22G24            
  20609606.039 7 -21358655.144 7 -17869190.74149  20609599.89849
  21438053.406 6 -21807869.271 6 -15446394.76548  21438044.74648
  22200343.609 6 -11182129.384 6  -9351324.75449  22200334.77349
  23588729.71911 -35427488.39111 -26447501.33555  23588715.96155
  21082482.352 6 -23593897.295 6 -17278401.08248  21082471.58248
  24550302.78911   -499430.00911                
  22703850.391 5 -39206157.918 5 -29474159.69146  22703840.26646
  21341098.180 7 -10844194.801 7  -8365598.63149  21341091.33649
 24 11 23  3 32 30.0000000  0  7G06G11G12G19G20G22G24               
  20612073.734 7 -21345690.225 7 -17859088.19349  20612066.89149
  21424574.547 6 -21878698.178 6 -15501586.07848  21424565.77048
  22186134.172 6 -11256795.144 6  -9409505.80449  22186125.80549
  21092281.055 6 -23542406.266 6 -17238278.19448  21092269.93448
  24533385.781 2   -588330.441 2                
  22713741.609 5 -39154177.242 5 -29433655.26046  22713731.95346
  21343947.195 7 -10829221.912 7  -8353931.43249  21343940.17649
 24 11 23  3 33  0.0000000  0  7G06G11G12G19G20G22G24               
  20614655.383 7 -21332124.985 7 -17848517.86749  20614648.07049
  21411180.203 6 -21949086.134 6 -15556433.80448  21411171.07448
  22171948.188 6 -11331342.210 6  -9467594.35649  22171939.87949
  21102113.563 6 -23490732.193 6 -17198012.66048  21102102.85248
  24516450.992 4   -677328.928 4                
  22723673.313 5 -39101984.556 5 -29392985.63246  22723663.77346
  21346907.094 7 -10813666.920 7  -8341810.64249  21346900.83649
 24 11 23  3 33 30.0000000  0  7G06G11G12G19G20G22G24               
  20617350.547 7 -21317961.670 7 -17837481.49149  20617343.46949
  21397869.852 6 -22019032.441 6 -15610937.36748  21397860.31348
  22157785.813 6 -11405769.865 6  -9525589.84949  22157776.62549
  21111981.477 6 -23438878.010 6 -17157606.79548  21111970.06348
  24499496.156 3   -766424.075 3                
  22733644.648 4 -39049580.724 4 -29352151.49446  22733635.63746
  21349977.539 6 -10797532.134 6  -8329238.06049  21349971.10549
 24 11 23  3 34  0.0000000  0  7G06G11G12G19G20G22G24               
  20620159.305 7 -21303200.372 7 -17825979.15649  20620152.52049
  21384643.594 6 -22088534.328 6 -15665094.63548  21384634.64148
  22143646.148 6 -11480075.747 6  -9583490.45749  22143636.55149
  21121883.039 6 -23386844.037 6 -17117060.84148  21121872.15248
  24482524.313 4   -855613.170 4  -1086480.88655  24482516.59055
  22743657.523 4 -38996965.026 4 -29311152.25146  22743648.98046
  21353158.281 6 -10780817.514 6  -8316213.66849  21353151.96549
 24 11 23  3 34 30.0000000  0  7G06G11G12G19G20G22G24               
  20623081.055 7 -21287845.649 7 -17814014.40449  20623074.09449
  21371502.109 6 -22157593.253 6 -15718906.74448  21371493.27348
  22129529.195 6 -11554261.770 6  -9641297.68749  22129520.06649
  21131818.555 6 -23334635.283 6 -17076378.69248  21131806.78948
  24465533.883 4   -944896.480 4  -1156052.17645  24465527.62545
  22753710.266 5 -38944140.468 5 -29269990.25946  22753700.90246
  21356448.352 6 -10763527.566 6  -8302740.96949  21356442.15249
 24 11 23  3 35  0.0000000  0  8G06G11G12G17G19G20G22G24            
  20626115.258 6 -21271896.957 6 -17801586.83849  20626109.00049
  21358445.898 6 -22226205.795 6 -15772371.02948  21358436.94548
  22115435.195 6 -11628325.267 6  -9699009.44249  22115426.12549
  23674140.66411    125908.25911 -26229690.01956  23674128.60556
  21141785.672 6 -23282251.138 6 -17035559.88048  21141774.49248
  24448525.750 3  -1034270.335 3                
  22763802.578 5 -38891104.893 5 -29228663.86946  22763793.03946
  21359848.930 6 -10745661.785 6  -8288819.57249  21359841.55949
 24 11 23  3 35 30.0000000  0  8G06G11G12G17G19G20G22G24            
  20629264.336 7 -21255351.110 7 -17788693.95749  20629257.37549
  21345474.914 6 -22294365.752 6 -15825482.64948  21345466.84048
  22101366.016 6 -11702260.043 6  -9756620.89349  22101356.06649
  23688351.586 2    200592.452 2 -26171494.52446  23688340.93446
  21151788.352 6 -23229689.055 6 -16994602.38248  21151777.28948
  24431502.859 3  -1123727.995 3                
  22773936.758 5 -38837853.706 5 -29187169.41946  22773925.81346
  21363358.367 6 -10727216.834 6  -8274446.87549  21363351.69949
 24 11 23  3 36  0.0000000  0  8G06G11G12G17G19G20G22G24            
  20632526.023 7 -21238209.593 7 -17775336.90749  20632519.82449
  21332591.094 6 -22362071.673 6 -15878240.47548  21332583.66448
  22087320.820 6 -11776064.449 6  -9814130.73749  22087311.57449
  23702556.086 2    275242.104 2 -26113325.94646  23702546.31346
  21161824.305 6 -23176950.588 6 -16953507.45348  21161812.94948
  24414462.031 2  -1213266.898 2                
  22784110.789 5 -38784387.372 5 -29145507.36645  22784100.37145
  21366977.750 6 -10708194.245 6  -8259624.07749  21366971.25849
 24 11 23  3 36 30.0000000  0  8G06G11G12G17G19G20G22G24            
  20635901.070 7 -21220475.514 7 -17761518.12049  20635894.34449
  21319793.148 6 -22429323.601 6 -15930644.53648  21319785.48448
  22073300.875 6 -11849740.562 6  -9871540.63649  22073291.57049
  23716755.234 2    349854.538 2 -26055186.34446  23716745.34446
  21171892.930 6 -23124039.046 6 -16912277.65048  21171882.86348
  24397408.758 3  -1302886.356 3  -1115599.63155  24397404.61355
  22794325.977 4 -38730707.648 4 -29103678.99545  22794315.44145
  21370706.648 6 -10688597.070 6  -8244353.52649  21370700.68449
 24 11 23  3 37  0.0000000  0  8G06G11G12G17G19G20G22G24            
  20639387.758 7 -21202150.785 7 -17747239.09449  20639381.32449
  21307082.492 6 -22496120.457 6 -15982694.01048  21307074.35948
  22059305.633 6 -11923287.218 6  -9928849.66349  22059296.32849
  23730945.141 1    424428.202 1 -25997077.00246  23730936.48046
  21181994.320 6 -23070956.794 6 -16870914.84148  21181982.90648
  24380338.703 3  -1392585.274 3  -1185494.79045  24380334.73445
  22804582.328 4 -38676814.478 4 -29061684.34545  22804571.32445
  21374545.555 6 -10668427.143 6  -8228636.68449  21374538.88749
 24 11 23  3 37 30.0000000  0  8G06G11G12G17G19G20G22G24            
  20642987.742 7 -21183235.200 7 -17732499.65449  20642980.66449
  21294459.219 6 -22562459.016 6 -16034386.35148  21294449.97348
  22045335.352 6 -11996701.027 6  -9986055.15449  22045324.69949
  23745130.242 2    498963.687 2 -25938997.39846  23745119.59046
  21192127.453 6 -23017703.510 6 -16829418.77048  21192117.03548
  24363255.344 3  -1482359.356 3  -1255448.50445  24363250.90645
  22814878.305 3 -38622706.687 3 -29019522.40045  22814868.00445
  21378493.133 6 -10647684.224 6  -8212473.35949  21378485.93849
 24 11 23  3 38  0.0000000  0  8G06G11G12G17G19G20G22G24            
  20646698.914 7 -21163731.490 7 -17717301.92649  20646692.30549
  21281922.313 6 -22628339.031 6 -16085721.39648  21281913.30148
  22031390.492 6 -12069981.881 6 -10043157.06449  22031379.95749
  23759306.344 2    573459.014 2 -25880949.15346  23759295.39846
  21202294.227 6 -22964282.127 6 -16787791.69648  21202282.05148
  24346158.461 3  -1572207.339 3  -1325459.77246  24346152.84846
  22825213.523 2 -38568385.743 2 -28977194.33845  22825204.62945
  21382548.656 6 -10626371.011 6  -8195865.64849  21382541.93049
 24 11 23  3 38 30.0000000  0  8G06G11G12G17G19G20G22G24            
  20650522.453 6 -21143640.598 6 -17701646.66749  20650515.43449
  21269472.961 6 -22693758.360 6 -16136697.44648  21269464.59448
  22017470.781 6 -12143127.998 6 -10100154.00049  22017461.35949
  23773473.883 2    647913.426 2 -25822932.73246  23773464.05146
  21212491.398 6 -22910693.972 6 -16746034.69548  21212480.39548
  24329048.992 5  -1662126.748 5  -1395526.70346  24329041.50446
  22835592.906 3 -38513850.726 3 -28934699.53445  22835582.89845
  21386712.555 6 -10604488.562 6  -8178814.37049  21386705.82849
 24 11 23  3 39  0.0000000  0  8G06G11G12G17G19G20G22G24            
  20654457.141 7 -21122962.898 7 -17685534.14549  20654450.12149
  21257112.469 6 -22758714.389 6 -16187312.50948  21257103.39848
  22003577.414 6 -12216137.415 6 -10157044.41949  22003567.99249
  23787633.852 2    722327.389 2 -25764947.81746  23787625.01646
  21222719.531 6 -22856939.188 6 -16704147.86148  21222709.64148
  24311923.352 4  -1752114.032 4  -1465646.45346  24311917.32846
  22846010.078 3 -38459100.565 3 -28892037.07945  22846000.71545
  21390985.266 6 -10582036.872 6  -8161319.55349  21390978.36349
 24 11 23  3 39 30.0000000  0  8G06G11G12G17G19G20G22G24            
  20658503.227 7 -21101699.454 7 -17668965.21449  20658496.14849
  21244840.938 6 -22823205.087 6 -16237564.97648  21244832.04348
  21989711.242 7 -12289008.365 7 -10213826.93249  21989701.46949
  23801787.867 3    796700.703 3 -25706994.60846  23801776.39546
  21232981.789 6 -22803018.846 6 -16662131.99248  21232970.02348
  24294786.883 4  -1842165.941 4  -1535816.57045  24294779.98045
  22856470.117 3 -38404135.068 3 -28849206.80545  22856460.40245
  21395365.313 6 -10559017.202 6  -8143382.13449  21395359.34849
 24 11 23  3 40  0.0000000  0  8G06G11G12G17G19G20G22G24            
  20662660.242 7 -21079852.695 7 -17651941.75049  20662653.57449
  21232657.055 6 -22887229.886 6 -16287454.39748  21232648.16048
  21975871.609 7 -12361739.715 7 -10270500.64649  21975861.19149
  23815932.266 3    871031.383 3 -25649074.55346  23815919.85546
  21243272.945 6 -22748935.577 6 -16619989.17548  21243261.06348
  24277638.898 5  -1932281.496 5  -1606036.24746  24277630.06346
  22866969.883 2 -38348955.222 2 -28806209.57945  22866960.52045
  21399853.672 6 -10535431.871 6  -8125003.93349  21399847.29749
 24 11 23  3 40 30.0000000  0  8G06G11G12G17G19G20G22G24            
  20666928.500 7 -21057423.308 7 -17634464.27549  20666922.00849
  21220562.156 6 -22950786.328 6 -16336978.86748  21220553.37948
  21962058.016 7 -12434329.423 7 -10327064.00249  21962047.83249
  23830068.602 3    945319.244 3 -25591187.87446  23830057.12946
  21253595.758 6 -22694689.981 6 -16577719.85948  21253584.34448
  24260477.805 5  -2022457.347 5  -1676302.94845  24260469.61345
  22877511.375 2 -38293559.788 2 -28763044.35445  22877502.12945
  21404449.094 6 -10511281.508 6  -8106185.45549  21404442.77749
 24 11 23  3 41  0.0000000  0  8G06G11G12G17G19G20G22G24            
  20671308.109 7 -21034409.752 7 -17616531.62049  20671301.50049
  21208558.297 6 -23013869.891 6 -16386134.84848  21208548.64148
  21948270.898 6 -12506774.180 6 -10383514.41049  21948261.71149
  23844197.375 4   1019566.939 4 -25533332.56446  23844186.02046
  21263949.305 6 -22640280.350 6 -16535322.73348  21263938.12548
  24243307.133 5  -2112688.106 5  -1746612.39846  24243298.64846
  22888095.922 4 -38237946.092 4 -28719709.04645  22888084.85945
  21409152.531 6 -10486564.586 6  -8086925.50849  21409145.86349
 24 11 23  3 41 30.0000000  0  8G06G11G12G17G19G20G22G24            
  20675797.453 7 -21010817.104 7 -17598147.71649  20675791.19549
  21196642.984 6 -23076482.576 6 -16434923.90048  21196633.56348
  21934513.547 6 -12579075.353 6 -10439852.94149  21934503.59849
  23858317.563 3   1093769.903 3 -25475512.09545  23858306.67645
  21274333.594 6 -22585711.934 6 -16492801.88948  21274322.18048
  24226126.320 4  -2202974.655 4  -1816965.37946  24226117.48446
  22898719.305 4 -38182117.385 4 -28676206.18745  22898708.30145
  21413962.859 6 -10461286.087 6  -8067227.96549  21413956.30949
