     2.11           OBSERVATION DATA    G (GPS)             RINEX VERSION / TYPE
teqc  2019Feb25     IGN-RGP             20191102 08:50:15UTCPGM / RUN BY / DATE
Linux 2.6.32-573.12.1.x86_64|x86_64|gcc|Linux 64|=+         COMMENT
teqc  2019Feb25     IGN-RGP             20191021 08:50:02UTCCOMMENT
teqc  2019Feb25     IGN-RGP             20191020 08:10:04UTCCOMMENT
teqc  2019Feb25     Administrateur RGP  20191020 08:10:04UTCCOMMENT
teqc  2019Feb25     Observatoire de Pari20191019 00:52:31UTCCOMMENT
Linux 2.6.32-573.12.1.x86_64|x86_64|gcc -static|Linux 64|=+ COMMENT
BIT 2 OF LLI FLAGS DATA COLLECTED UNDER A/S CONDITION       COMMENT
OPMT                                                        MARKER NAME
10001S006                                                   MARKER NUMBER
Automatic           OP                                      OBSERVER / AGENCY
02942               ASHTECH Z-XII3T     1L01-1D04           REC # / TYPE / VERS
00019               3S-02-TSADM     NONE                    ANT # / TYPE
  4202777.6220   171367.7610  4778659.9840                  APPROX POSITION XYZ
        0.0000        0.0000        0.0000                  ANTENNA: DELTA H/E/N
     1     1                                                WAVELENGTH FACT L1/2
     7    L1    L2    C1    P1    P2    S1    S2            # / TYPES OF OBSERV
    30.0000                                                 INTERVAL
 SNR is mapped to RINEX snr flag value [0-9]                COMMENT
  L1 & L2: min(max(int(snr_dBHz/6), 0), 9)                  COMMENT
pseudorange smoothing corrections not applied               COMMENT
Forced Modulo Decimation to 30 seconds                      COMMENT
teqc_2019 edited: GLONASS # 25 - 30 excluded                COMMENT
teqc_2019 edited: GLONASS # 25 - 30 excluded                COMMENT
teqc_2019 edited: GLONASS # 25 - 30 excluded                COMMENT
  2019    10    18     0     0    0.0000000     GPS         TIME OF FIRST OBS
                                                            END OF HEADER
 19 10 18  0  0  0.0000000  0  8G24G25G29G02G14G32G12G06
  -3827161.08744  -2943793.28246  23055168.923    23055169.6724   23055175.5794
        43.2004         40.6004
 -20071636.11047 -15619809.15147  20156062.443    20156061.9964   20156067.4034
        50.5004         47.7004
 -14956627.43345 -11619191.53447  21972827.777    21972827.7514   21972830.5774
        45.3004         42.6004
  -6173746.61544  -4788440.10946  23221799.988    23221800.2564   23221800.2084
        42.9004         40.2004
 -12218603.46043  -9503297.74646  22505320.495    22505320.8874   22505322.4794
        39.9004         37.4004
  -9745902.36445  -7584318.75147  21979843.878    21979843.9904   21979848.2434
        45.3004         42.5004
 -16997877.91546 -12363204.74047  21026905.576    21026905.6874   21026907.8374
        47.9004         45.2004
  -3115276.65243  -2412241.24546  23892932.002    23892931.5384   23892937.1944
        40.1004         37.6004
 19 10 18  0  0 30.0000000  0  8G24G25G29G02G14G32G12G06
  -3726994.00444  -2865741.02646  23074230.588    23074231.3594   23074237.2494
        43.4004         40.6004
 -20089599.14147 -15633806.32047  20152644.321    20152644.0454   20152649.0354
        50.7004         47.7004
 -15048950.22645 -11691131.36547  21955259.879    21955259.5054   21955261.8374
        45.5004         42.6004
  -6199657.93444  -4808630.74046  23216869.034    23216868.2654   23216869.1434
        42.9004         40.2004
 -12244020.85643  -9523103.52146  22500483.563    22500483.8754   22500485.9434
        40.1004         37.8004
  -9708459.95645  -7555142.85247  21986968.580    21986969.5034   21986973.3714
        45.5004         43.0004
 -16934372.22046 -12313719.79547  21038990.415    21038990.3854   21038991.8704
        47.9004         45.1004
  -3083376.53043  -2387384.01346  23899001.345    23899002.2684   23899009.1424
        40.3004         37.8004
 19 10 18  0  1  0.0000000  0  8G24G25G29G02G14G32G12G06
  -3626621.48544  -2787528.68446  23093332.572    23093331.8594   23093337.0084
        43.4004         40.6004
 -20107166.09847 -15647494.85547  20149300.918    20149300.6264   20149306.0444
        50.5004         47.5004
 -15140918.91745 -11762795.26147  21937757.406    21937757.5644   21937760.4884
        45.5004         42.5004
  -6225086.96944  -4828445.54946  23212030.086    23212029.3574   23212030.9434
        43.0004         40.4004
 -12268876.05343  -9542471.21946  22495754.169    22495753.3094   22495755.3924
        40.4004         38.1004
  -9670457.84245  -7525530.81947  21994200.396    21994200.5834   21994204.7604
        45.8004         42.8004
 -16870586.79646 -12264016.87047  21051127.853    21051128.3984   21051130.4554
        47.9004         45.2004
  -3050908.62344  -2362084.35046  23905181.462    23905181.3554   23905186.6444
        40.6004         38.1004
 19 10 18  0  1 30.0000000  0  8G24G25G29G02G14G32G12G06
  -3526044.15544  -2709156.72446  23112470.253    23112470.9094   23112475.5774
        43.0004         40.2004
 -20124336.88947 -15660874.68947  20146033.767    20146033.3064   20146038.5694
        50.5004         47.7004
 -15232531.47345 -11834181.65947  21920324.646    21920324.9984   21920327.8784
        45.5004         42.8004
  -6250032.53844  -4847883.64046  23207283.155    23207282.4644   23207284.3154
        43.0004         40.6004
 -12293168.33444  -9561400.27946  22491131.116    22491130.6984   22491133.2004
        40.8004         38.3004
  -9631897.66545  -7495483.93947  22001538.497    22001538.9264   22001542.7024
        45.5004         42.5004
 -16806523.01746 -12214097.05947  21063320.033    21063319.3774   21063320.7844
        47.9004         44.9004
  -3017873.87544  -2336342.96846  23911467.558    23911467.2034   23911472.4994
        40.6004         38.1004
 19 10 18  0  2  0.0000000  0  8G24G25G29G02G14G32G12G06
  -3425263.80044  -2630626.59146  23131648.823    23131648.4914   23131653.3604
        42.7004         39.9004
 -20141111.48747 -15673945.80447  20142841.733    20142841.2374   20142846.3564
        50.7004         47.5004
 -15323785.94945 -11905289.03747  21902960.306    21902959.2644   21902962.0134
        45.6004         42.8004
  -6274493.49844  -4866944.10146  23202627.333    23202626.6744   23202629.7194
        43.2004         40.4004
 -12316896.68944  -9579889.92046  22486615.539    22486615.5484   22486618.3674
        41.3004         38.8004
  -9592781.02745  -7465003.46047  22008982.029    22008982.6344   22008986.6014
        45.5004         42.8004
 -16742182.17546 -12163961.34247  21075562.506    21075562.9274   21075564.5914
        47.9004         45.1004
  -2984273.42143  -2310160.78946  23917861.069    23917862.0034   23917867.5234
        40.4004         37.8004
 19 10 18  0  2 30.0000000  0  8G24G25G29G02G14G32G12G06
  -3324282.37744  -2551939.75746  23150865.035    23150863.8014   23150869.4994
        42.5004         39.7004
 -20157489.87047 -15686708.17747  20139724.656    20139724.3044   20139729.5724
        50.7004         47.5004
 -15414680.06245 -11976115.62147  21885663.227    21885663.6514   21885665.6414
        45.6004         42.8004
  -6298468.74544  -4885626.10446  23198065.315    23198065.2184   23198067.2014
        43.2004         40.6004
 -12340060.11844  -9597939.36146  22482207.951    22482207.4664   22482210.4544
        41.8004         39.5004
  -9553109.59445  -7434090.67347  22016530.957    22016531.9424   22016536.0374
        45.8004         43.2004
 -16677565.33146 -12113610.56247  21087859.108    21087859.0154   21087860.7214
        47.9004         44.9004
  -2950108.22243  -2283538.55446  23924363.776    23924363.5914   23924368.0434
        40.1004         37.4004
 19 10 18  0  3  0.0000000  0  8G24G25G29G02G14G32G12G06
  -3223101.47844  -2473097.49246  23170117.168    23170117.8684   23170123.1214
        42.3004         39.5004
 -20173472.02347 -15699161.80147  20136683.508    20136683.3394   20136688.4034
        50.7004         47.7004
 -15505212.43845 -12046660.31847  21868435.943    21868436.1884   21868438.2424
        45.6004         42.8004
  -6321956.88745  -4903928.53446  23193596.128    23193595.9704   23193597.4604
        43.6004         41.1004
 -12362658.00444  -9615548.11546  22477907.909    22477907.3044   22477910.3414
        42.3004         39.7004
  -9512885.08445  -7402746.90447  22024185.463    22024185.7264   22024190.6454
        45.8004         42.8004
 -16612673.89946 -12063045.81447  21100207.200    21100207.3984   21100209.1874
        47.7004         44.9004
  -2915379.38243  -2256477.12746  23930971.008    23930970.8714   23930976.3504
        40.1004         37.3004
 19 10 18  0  3 30.0000000  0  9G24G25G29G02G14G32G12G06G31
  -3121722.15944  -2394100.62646  23189409.468    23189410.0314   23189414.2984
        42.2004         39.3004
 -20189057.92247 -15711306.64947  20133717.630    20133717.3294   20133722.8504
        50.7004         47.8004
 -15595380.25245 -12116920.94747  21851276.720    21851276.8504   21851279.1774
        45.6004         43.0004
  -6344956.93145  -4921850.62646  23189220.363    23189219.8324   23189219.9074
        43.7004         41.1004
 -12384689.76744  -9632715.73046  22473715.897    22473714.9994   22473717.4524
        42.7004         40.0004
  -9472109.15045  -7370973.46447  22031944.788    22031945.3434   22031949.6884
        45.6004         42.6004
 -16547509.11246 -12012268.06847  21112608.001    21112607.7294   21112609.7224
        47.7004         44.7004
  -2880087.94243  -2228977.29846  23937686.625    23937687.2714   23937690.8424
        39.7004         37.3004
   -250091.13653   -175137.39756  22994061.457    22994060.8874   22994062.0204
        38.2004         37.3004
 19 10 18  0  4  0.0000000  0  9G24G25G29G02G14G32G12G06G31
  -3020146.60044  -2314950.82646  23208737.995    23208739.5094   23208744.7814
        42.2004         39.5004
 -20204247.50847 -15723142.68747  20130827.205    20130827.2294   20130832.2044
        50.7004         47.8004
 -15685181.61645 -12186896.02647  21834187.882    21834187.9974   21834190.4154
        45.6004         42.8004
  -6367467.83245  -4939391.58346  23184935.933    23184935.3564   23184936.3684
        43.7004         40.7004
 -12406154.26544  -9649441.30546  22469631.048    22469631.2054   22469633.2494
        42.9004         40.2004
  -9430783.52945  -7338771.70447  22039808.717    22039808.9834   22039813.9184
        45.5004         42.5004
 -16482072.06146 -11961278.16347  21125060.385    21125060.1644   21125062.3274
        47.7004         44.9004
  -2844235.12743  -2201040.02746  23944509.860    23944508.7644   23944514.9734
        39.7004         37.1004
   -340513.30143   -245596.24246  22976853.453    22976854.1634   22976856.2034
        39.7004         37.8004
 19 10 18  0  4 30.0000000  0  9G24G25G29G02G14G32G12G06G31
  -2918376.34044  -2235649.33646  23228104.981    23228105.5324   23228111.2054
        42.2004         39.5004
 -20219040.80047 -15734669.92847  20128012.453    20128011.8124   20128017.1284
        50.8004         47.8004
 -15774614.92845 -12256584.30747  21817170.030    21817170.2694   21817172.2004
        45.8004         43.0004
  -6389488.59945  -4956550.58446  23180745.282    23180744.4694   23180745.6264
        43.6004         40.6004
 -12427050.97744  -9665724.46846  22465654.641    22465654.4284   22465656.4244
        43.2004         40.6004
  -9388910.01245  -7306143.00847  22047776.791    22047777.3524   22047781.6894
        45.5004         42.6004
 -16416364.18246 -11910077.21947  21137563.120    21137563.7724   21137566.3554
        47.7004         44.9004
  -2807822.07743  -2172666.23046  23951437.102    23951436.9734   23951443.9684
        39.4004         36.9004
   -430724.24054   -315890.47956  22959687.229    22959687.7904   22959688.9314
        40.6004         38.1004
 19 10 18  0  5  0.0000000  0  9G24G25G29G02G14G32G12G06G31
  -2816412.93344  -2156197.33146  23247508.837    23247508.2964   23247513.2554
        42.0004         39.3004
 -20233437.76247 -15745888.33347  20125272.570    20125272.2694   20125277.7544
        50.8004         47.8004
 -15863677.97445 -12325984.07247  21800221.855    21800221.9014   21800224.3964
        46.0004         43.2004
  -6411018.21844  -4973326.90046  23176647.494    23176647.6354   23176648.7884
        43.4004         40.7004
 -12447379.19444  -9681564.63146  22461786.448    22461785.9154   22461787.6044
        43.2004         40.6004
  -9346490.34745  -7273088.72047  22055849.322    22055849.8174   22055854.2944
        45.5004         42.6004
 -16350386.62446 -11858666.15347  21150118.657    21150119.0594   21150120.8914
        47.7004         44.7004
  -2770849.82643  -2143856.67246  23958473.455    23958473.3714   23958478.5244
        39.4004         36.9004
   -520721.95644   -386018.57546  22942561.523    22942561.5254   22942563.2544
        41.1004         38.6004
 19 10 18  0  5 30.0000000  0  9G24G25G29G02G14G32G12G06G31
  -2714257.92844  -2076596.03946  23266947.748    23266947.4814   23266954.4204
        42.0004         39.5004
 -20247438.43147 -15756797.94447  20122608.415    20122608.0574   20122613.5724
        50.8004         47.8004
 -15952368.64145 -12395093.67547  21783345.050    21783344.9084   21783347.0894
        46.0004         43.2004
  -6432055.47945  -4989719.55146  23172644.722    23172643.9414   23172645.1224
        43.6004         40.7004
 -12467138.32244  -9696961.36346  22458025.937    22458025.4334   22458027.8994
        43.2004         40.4004
  -9303526.29045  -7239610.25647  22064025.242    22064025.6304   22064030.2114
        45.3004         42.3004
 -16284140.73746 -11807045.98947  21162725.279    21162725.6784   21162727.2734
        47.7004         44.7004
  -2733319.74843  -2114612.43346  23965616.650    23965615.6464   23965620.4124
        39.7004         37.3004
   -610504.57544   -455979.05746  22925477.304    22925476.9434   22925477.4664
        41.5004         39.0004
 19 10 18  0  6  0.0000000  0  9G24G25G29G02G14G32G12G06G31
  -2611912.70844  -1996846.51446  23286422.846    23286422.6174   23286429.8124
        42.2004         39.3004
 -20261042.75847 -15767398.71447  20120019.372    20120019.3124   20120024.5234
        50.8004         47.8004
 -16040685.13145 -12463911.70147  21766538.395    21766538.2474   21766540.5144
        46.0004         43.2004
  -6452599.34545  -5005727.74246  23168736.199    23168735.3554   23168736.0444
        43.6004         40.7004
 -12486327.34944  -9711913.84946  22454374.348    22454373.7074   22454376.1734
        43.0004         40.2004
  -9260019.66545  -7205709.02247  22072303.469    22072303.6884   22072309.2194
        45.1004         42.1004
 -16217626.95746 -11755217.08947  21175382.502    21175382.3374   21175384.0584
        47.7004         44.7004
  -2695232.86943  -2084934.36746  23972862.626    23972863.5534   23972867.7484
        39.7004         37.3004
   -700070.19244   -525770.45746  22908433.141    22908432.9624   22908433.9954
        42.0004         39.5004
 19 10 18  0  6 30.0000000  0  9G24G25G29G02G14G32G12G06G31
  -2509379.29044  -1916950.36046  23305934.822    23305935.5814   23305941.0754
        42.2004         39.7004
 -20274250.77047 -15777690.67247  20117506.424    20117505.7954   20117511.0134
        50.8004         47.8004
 -16128625.46745 -12532436.63147  21749803.845    21749803.3784   21749806.4344
        46.0004         43.2004
  -6472648.87745  -5021350.73546  23164919.890    23164919.6184   23164921.4374
        43.7004         41.1004
 -12504945.93544  -9726421.84546  22450832.188    22450831.4254   22450833.6934
        43.0004         40.2004
  -9215972.35545  -7171386.45946  22080684.970    22080685.4074   22080691.0104
        44.9004         41.9004
 -16150847.20446 -11703180.92547  21188090.218    21188090.4114   21188092.2504
        47.7004         44.9004
  -2656590.58143  -2054823.46946  23980218.560    23980217.8254   23980222.8324
        40.1004         37.6004
   -789416.54344   -595390.97346  22891430.773    22891430.7134   22891432.3814
        42.2004         39.7004
 19 10 18  0  7  0.0000000  0  9G24G25G29G02G14G32G12G06G31
  -2406659.36144  -1836908.85146  23325480.416    23325481.9904   23325488.0094
        42.3004         39.7004
 -20287062.48647 -15787673.82847  20115067.969    20115067.9874   20115073.1284
        50.8004         47.8004
 -16216187.35445 -12600666.66047  21733141.694    21733141.4054   21733143.8964
        46.0004         43.3004
  -6492203.14845  -5036587.80346  23161198.690    23161198.3144   23161200.3144
        43.6004         40.7004
 -12522993.47444  -9740484.86046  22447397.105    22447396.8424   22447399.1834
        43.0004         40.2004
  -9171386.15845  -7136643.98547  22089169.838    22089170.3744   22089175.7614
        44.9004         42.1004
 -16083802.64246 -11650938.42147  21200848.699    21200848.7414   21200850.1544
        47.7004         44.9004
  -2617393.98043  -2024280.65846  23987675.932    23987675.5024   23987681.5564
        40.1004         37.4004
   -878541.27144   -664838.81746  22874470.178    22874470.8544   22874472.2534
        42.3004         39.7004
 19 10 18  0  7 30.0000000  0  9G24G25G29G02G14G32G12G06G31
  -2303754.11344  -1756722.93846  23345064.407    23345064.0644   23345070.2664
        42.3004         39.7004
 -20299477.91947 -15797348.18347  20112705.093    20112704.9364   20112710.3634
        50.7004         47.7004
 -16303369.19145 -12668600.54547  21716550.573    21716550.6274   21716553.3034
        46.2004         43.3004
  -6511261.07044  -5051438.11146  23157573.045    23157572.2434   23157572.5834
        43.4004         40.6004
 -12540469.40744  -9754102.47346  22444071.555    22444071.0854   22444073.9814
        43.0004         40.4004
  -9126262.96045  -7101483.06347  22097756.960    22097757.1944   22097762.0794
        45.1004         42.3004
 -16016494.73246 -11598490.70747  21213656.953    21213657.0634   21213658.6644
        47.7004         44.9004
  -2577644.46343  -1993307.00046  23995239.179    23995239.3744   23995245.9504
        39.9004         37.4004
   -967442.72744   -734112.65746  22857553.340    22857553.5884   22857555.0454
        42.5004         39.9004
 19 10 18  0  8  0.0000000  0  9G24G25G29G02G14G32G12G06G31
  -2200665.28344  -1676393.99546  23364681.682    23364681.7964   23364688.2534
        42.5004         40.0004
 -20311497.05747 -15806713.74747  20110418.233    20110417.7454   20110423.1244
        50.7004         47.7004
 -16390169.04445 -12736236.79647  21700032.875    21700032.9534   21700036.3934
        46.2004         43.3004
  -6529821.58645  -5065900.83946  23154040.191    23154040.1844   23154041.1514
        43.6004         40.7004
 -12557372.81244  -9767273.95846  22440855.159    22440854.8254   22440857.7694
        43.2004         40.4004
  -9080604.66845  -7065905.19447  22106445.195    22106445.3824   22106450.3904
        45.1004         42.5004
 -15948924.25146 -11545838.39747  21226515.854    21226515.6434   21226517.1884
        47.7004         44.9004
  -2537343.25343  -1961903.46646  24002909.134    24002909.1014   24002914.8444
        40.1004         37.6004
  -1056118.77144   -803210.87346  22840679.067    22840679.0594   22840680.5804
        42.5004         39.7004
 19 10 18  0  8 30.0000000  0  9G24G25G29G02G14G32G12G06G31
  -2097395.10444  -1595923.71246  23384332.898    23384333.6734   23384339.0144
        42.5004         39.9004
 -20323119.95047 -15815770.54347  20108206.394    20108206.2604   20108211.5634
        50.8004         47.8004
 -16476584.79545 -12803573.73147  21683589.659    21683588.6114   21683591.6654
        46.3004         43.5004
  -6547883.99445  -5079975.42046  23150603.450    23150602.8354   23150603.5014
        43.6004         40.6004
 -12573703.29844  -9779999.02546  22437747.521    22437746.9734   22437750.3454
        43.2004         40.2004
  -9034413.19445  -7029911.86547  22115235.105    22115235.9994   22115241.0594
        45.3004         42.6004
 -15881092.40446 -11492982.42047  21239423.226    21239423.4184   21239425.1314
        47.7004         44.9004
  -2496491.64743  -1930071.02246  24010684.344    24010683.7024   24010688.7534
        40.3004         37.8004
  -1144567.55844   -872131.99346  22823846.895    22823847.4474   22823849.2504
        42.3004         39.5004
 19 10 18  0  9  0.0000000  0  9G24G25G29G02G14G32G12G06G31
  -1993944.73544  -1515313.03546  23404019.075    23404019.6524   23404025.2334
        42.7004         40.0004
 -20334346.63147 -15824518.60747  20106070.514    20106069.7394   20106075.3054
        50.8004         47.8004
 -16562614.62146 -12870609.94847  21667218.272    21667218.5484   21667221.3474
        46.5004         43.7004
  -6565447.50345  -5093661.25246  23147261.074    23147260.6334   23147261.5814
        43.6004         40.7004
 -12589460.51844  -9792277.38146  22434749.476    22434748.7614   22434751.5774
        43.0004         40.2004
  -8987690.45945  -6993504.55347  22124127.056    22124127.2824   22124132.3964
        45.5004         42.6004
 -15813000.78146 -11439924.02047  21252381.572    21252381.0854   21252382.3954
        47.9004         45.1004
  -2455091.04444  -1897810.79346  24018562.226    24018562.4854   24018567.1184
        40.6004         38.1004
  -1232786.84644   -940874.27546  22807059.652    22807060.2614   22807061.2884
        42.2004         39.3004
 19 10 18  0  9 30.0000000  0  9G24G25G29G02G14G32G12G06G31
  -1890315.74744  -1434563.17746  23423739.404    23423738.8904   23423745.1194
        42.7004         40.0004
 -20345177.10747 -15832957.93947  20104009.482    20104009.0834   20104014.0024
        50.8004         47.8004
 -16648256.52846 -12937343.89247  21650921.402    21650921.4674   21650924.4134
        46.7004         43.9004
  -6582511.18345  -5106957.59546  23144014.402    23144013.8904   23144015.7094
        43.6004         40.9004
 -12604643.92944  -9804108.62246  22431859.456    22431858.9994   22431861.5944
        43.0004         40.2004
  -8940438.41545  -6956684.78747  22133118.832    22133119.0434   22133123.9684
        45.5004         42.5004
 -15744650.34146 -11386663.96547  21265387.408    21265387.5024   21265389.1324
        47.7004         44.9004
  -2413142.76144  -1865123.81946  24026543.885    24026543.9174   24026549.1364
        40.6004         37.8004
  -1320774.71244  -1009436.23946  22790316.540    22790316.6964   22790317.6934
        42.0004         39.2004
 19 10 18  0 10  0.0000000  0  9G24G25G29G02G14G32G12G06G31
  -1786510.32144  -1353675.83846  23443491.551    23443492.1354   23443498.3654
        42.7004         39.9004
 -20355611.45647 -15841088.60647  20102023.733    20102023.4184   20102028.3054
        50.8004         47.8004
 -16733508.98346 -13003774.36247  21634698.615    21634698.6544   21634701.1164
        46.9004         44.0004
  -6599073.93545  -5119863.62446  23140862.455    23140861.4704   23140863.7074
        43.7004         41.1004
 -12619252.81944  -9815492.18846  22429079.767    22429079.3054   22429081.6344
        43.0004         40.2004
  -8892659.02145  -6919454.09947  22142211.255    22142211.6234   22142216.1664
        45.1004         42.1004
 -15676042.08946 -11333202.98847  21278443.260    21278443.4794   21278445.0364
        47.7004         44.9004
  -2370648.17343  -1832011.16346  24034629.499    24034629.4944   24034635.8584
        39.9004         37.1004
  -1408528.75244  -1077815.99646  22773617.016    22773617.2144   22773620.1334
        41.6004         38.8004
 19 10 18  0 10 30.0000000  0  9G24G25G29G02G14G32G12G06G31
  -1682529.45444  -1272651.78046  23463280.028    23463279.2784   23463285.2174
        42.5004         39.7004
 -20365649.65847 -15848910.57947  20100113.710    20100113.4074   20100118.7224
        50.8004         47.8004
 -16818369.46746 -13069899.40247  21618550.355    21618550.3174   21618552.7684
        46.9004         44.0004
  -6615135.08345  -5132378.79946  23137805.984    23137805.9234   23137807.2454
        43.7004         41.1004
 -12633286.74544  -9826427.72946  22426409.285    22426409.1264   22426411.4454
        43.0004         40.4004
  -8844354.29145  -6881814.07446  22151402.063    22151403.2364   22151407.0164
        44.8004         41.6004
 -15607177.56446 -11279542.33347  21291547.360    21291547.6084   21291549.7574
        47.7004         44.7004
  -2327608.68343  -1798473.88346  24042820.542    24042820.5544   24042826.0974
        39.9004         37.4004
  -1496047.13544  -1146012.12746  22756962.546    22756962.4334   22756964.0374
        41.3004         38.3004
 19 10 18  0 11  0.0000000  0  9G24G25G29G02G14G32G12G06G31
  -1578375.19544  -1191492.62546  23483097.826    23483098.6934   23483104.2874
        42.3004         39.7004
 -20375291.80647 -15856423.93748  20098278.745    20098278.4244   20098283.7614
        50.8004         48.0004
 -16902836.19146 -13135717.61347  21602476.225    21602476.7704   21602478.2144
        46.9004         43.9004
  -6630693.97445  -5144502.56846  23134846.954    23134844.8974   23134846.3354
        43.7004         40.9004
 -12646745.43244  -9836915.03146  22423848.104    22423847.2114   22423849.7074
        43.2004         40.2004
  -8795526.25145  -6843766.27546  22160694.150    22160694.5324   22160699.1644
        44.4004         41.4004
 -15538058.21546 -11225683.10947  21304700.466    21304700.8764   21304702.5974
        47.7004         44.9004
  -2284025.72143  -1764513.10846  24051113.936    24051114.4844   24051119.9134
        39.7004         37.1004
  -1583327.96844  -1214023.14446  22740353.240    22740354.0044   22740356.3314
        40.8004         37.9004
 19 10 18  0 11 30.0000000  0  9G24G25G29G02G14G32G12G06G31
  -1474049.34544  -1110199.75546  23502950.818    23502951.9124   23502956.1264
        42.2004         39.7004
 -20384537.91547 -15863628.70048  20096519.013    20096518.6124   20096524.3684
        50.8004         48.0004
 -16986907.67646 -13201227.85147  21586477.669    21586477.8144   21586480.5944
        46.9004         44.0004
  -6645749.55145  -5156234.16746  23131980.642    23131979.5434   23131980.8974
        43.6004         40.7004
 -12659628.67544  -9846953.93746  22421395.848    22421395.7524   22421399.4424
        43.0004         40.2004
  -8746176.86745  -6805312.23546  22170085.055    22170085.1024   22170090.2814
        44.2004         41.4004
 -15468684.80146 -11171625.93147  21317901.713    21317901.6364   21317903.8834
        47.7004         44.7004
  -2239900.72143  -1730129.99346  24059509.705    24059509.6934   24059515.6634
        39.6004         36.9004
  -1670368.93143  -1281847.25246  22723791.290    22723790.1944   22723792.7664
        40.3004         37.6004
 19 10 18  0 12  0.0000000  0  9G24G25G29G02G14G32G12G06G31
  -1369553.01144  -1028774.04946  23522836.673    23522836.8614   23522841.9614
        42.2004         39.5004
 -20393388.08147 -15870524.93148  20094834.869    20094834.5904   20094840.0064
        50.8004         48.0004
 -17070581.89546 -13266428.54147  21570554.984    21570555.7044   21570557.9404
        47.0004         44.2004
  -6660300.96844  -5167572.93146  23129209.610    23129210.8264   23129210.9134
        43.2004         40.4004
 -12671935.67444  -9856543.81146  22419054.545    22419054.2194   22419056.5904
        42.9004         40.2004
  -8696308.27045  -6766453.59546  22179574.076    22179574.5494   22179579.4444
        44.1004         41.2004
 -15399058.60946 -11117371.75847  21331150.561    21331150.9114   21331153.0174
        47.5004         44.5004
  -2195235.16743  -1695325.66746  24068011.711    24068010.4564   24068013.7664
        39.4004         36.9004
  -1757168.15643  -1349482.98646  22707273.417    22707272.2604   22707275.4974
        40.1004         37.6004
 19 10 18  0 12 30.0000000  0  9G24G25G29G02G14G32G12G06G31
  -1264888.17044   -947217.03446  23542752.961    23542753.3644   23542758.8104
        42.2004         39.3004
 -20401842.36247 -15877112.68248  20093226.050    20093225.9654   20093231.2974
        51.0004         48.0004
 -17153856.93046 -13331318.15647  21554709.371    21554709.0364   21554711.3424
        47.0004         44.4004
  -6674347.63644  -5178518.34546  23126537.635    23126536.1824   23126538.3834
        43.0004         40.2004
 -12683666.15244  -9865684.44646  22416822.358    22416822.0714   22416825.1284
        42.9004         40.2004
  -8645922.45345  -6727191.93846  22189163.294    22189162.9384   22189168.7454
        44.4004         41.8004
 -15329180.71146 -11062921.46047  21344448.655    21344448.1524   21344450.8724
        47.5004         44.4004
  -2150030.48343  -1660101.21546  24076613.119    24076612.9314   24076616.2404
        39.2004         36.7004
  -1843723.42343  -1416928.63546  22690800.622    22690802.6084   22690805.3954
        40.1004         37.6004
 19 10 18  0 13  0.0000000  0  9G24G25G29G02G14G32G12G06G31
  -1160056.29544   -865529.86146  23562702.670    23562702.7564   23562708.0114
        42.2004         39.5004
 -20409900.75947 -15883391.95448  20091692.688    20091692.5174   20091697.8334
        51.0004         48.0004
 -17236730.96546 -13395895.31747  21538937.993    21538937.7354   21538940.8994
        47.0004         44.2004
  -6687888.79744  -5189069.87746  23123961.524    23123959.7964   23123961.3984
        43.0004         40.2004
 -12694819.77944  -9874375.56846  22414699.679    22414699.6874   22414702.3134
        42.9004         40.0004
  -8595021.58045  -6687528.92946  22198849.122    22198849.0214   22198854.8074
        44.4004         41.4004
 -15259052.48046 -11008276.10847  21357793.234    21357793.2074   21357795.9764
        47.4004         44.4004
  -2104288.21443  -1624457.89946  24085317.043    24085316.0494   24085321.3444
        39.0004         36.6004
  -1930032.67843  -1484182.58946  22674377.023    22674377.4514   22674379.9494
        40.3004         37.9004
 19 10 18  0 13 30.0000000  0  9G24G25G29G02G14G32G12G06G31
  -1055058.88144   -783713.70346  23582684.211    23582683.2934   23582687.6324
        42.2004         39.7004
 -20417563.40647 -15889362.84848  20090234.740    20090234.3424   20090239.9404
        51.0004         48.0004
 -17319202.37346 -13460158.74247  21523244.536    21523244.6504   21523247.1034
        47.0004         44.2004
  -6700923.60244  -5199226.85246  23121480.157    23121479.7034   23121481.1644
        43.2004         40.6004
 -12705396.19644  -9882616.93746  22412687.873    22412687.2474   22412689.9094
        43.0004         40.4004
  -8543607.71145  -6647466.20846  22208632.189    22208633.2044   22208638.2064
        44.4004         41.6004
 -15188674.88546 -10953436.43447  21371185.287    21371185.7014   21371188.0144
        47.2004         44.2004
  -2058009.78443  -1588396.80346  24094122.101    24094122.8904   24094125.8014
        38.7004         36.0004
  -2016093.60544  -1551243.04846  22658001.376    22658001.0664   22658002.8854
        40.6004         38.3004
 19 10 18  0 14  0.0000000  0  9G24G25G29G02G14G32G12G06G31
   -949898.36044   -701770.44746  23602695.610    23602694.5334   23602700.2824
        42.3004         39.7004
 -20424830.34947 -15895025.39848  20088851.683    20088851.3584   20088857.2064
        51.0004         48.2004
 -17401269.08346 -13524106.81247  21507627.778    21507628.0064   21507630.2884
        47.0004         44.2004
  -6713451.57844  -5208988.88946  23119096.564    23119095.9724   23119097.3854
        43.4004         40.6004
 -12715395.25344  -9890408.41546  22410785.054    22410784.4764   22410787.1884
        43.4004         40.7004
  -8491682.95745  -6607005.37346  22218514.197    22218514.4984   22218518.9564
        44.6004         41.9004
 -15118049.25646 -10898403.48947  21384624.798    21384625.0294   21384627.4924
        47.2004         44.2004
  -2011196.84043  -1551919.15846  24103030.935    24103032.1514   24103035.7614
        38.5004         36.4004
  -2101904.21044  -1618108.46546  22641671.718    22641671.9504   22641674.5314
        40.9004         38.6004
 19 10 18  0 14 30.0000000  0  9G24G25G29G02G14G32G12G06G31
   -844576.10444   -619701.14246  23622735.208    23622736.2374   23622742.1644
        42.3004         39.7004
 -20431701.67147 -15900379.68248  20087544.678    20087544.1254   20087549.1514
        51.0004         48.0004
 -17482929.26946 -13587738.11847  21492088.309    21492087.8624   21492090.6854
        47.2004         44.2004
  -6725471.85445  -5218355.30246  23116809.589    23116808.8794   23116811.3794
        43.6004         40.9004
 -12724816.72845  -9897749.83046  22408992.089    22408991.3904   22408994.0384
        43.6004         40.7004
  -8439249.51245  -6566148.15746  22228491.630    22228491.5154   22228496.6874
        44.8004         41.9004
 -15047176.92746 -10843178.31147  21398111.823    21398112.0124   21398114.2474
        47.2004         44.2004
  -1963850.93543  -1515026.21846  24112039.748    24112039.9234   24112045.3684
        38.7004         36.4004
  -2187462.49544  -1684777.26946  22625390.534    22625390.4004   22625393.0074
        41.5004         39.2004
 19 10 18  0 15  0.0000000  0  9G24G25G29G02G14G32G12G06G31
   -739093.29744   -537506.76046  23642807.987    23642809.1654   23642814.2414
        42.5004         39.7004
 -20438177.44447 -15905425.73948  20086311.938    20086311.5494   20086316.9984
        51.0004         48.0004
 -17564181.14746 -13651051.25347  21476626.671    21476626.6784   21476629.1844
        47.2004         44.4004
  -6736983.91345  -5227325.73946  23114620.215    23114619.4584   23114620.2944
        43.7004         40.9004
 -12733660.34245  -9904640.96846  22407309.533    22407309.0574   22407310.6274
        43.7004         40.9004
  -8386309.48545  -6524896.20946  22238565.710    22238566.1644   22238571.6704
        44.8004         41.9004
 -14976058.91446 -10787761.70147  21411644.510    21411644.9694   21411647.3584
        47.0004         44.2004
  -1915973.52443  -1477719.17846  24121150.739    24121151.1424   24121157.0184
        38.5004         36.0004
  -2272766.62344  -1751248.04146  22609157.870    22609158.6804   22609159.9214
        41.8004         39.2004
 19 10 18  0 15 30.0000000  0  9G24G25G29G02G14G32G12G06G31
   -633452.34544   -455189.13946  23662914.542    23662912.3664   23662917.4814
        42.5004         39.7004
 -20444257.75447 -15910163.64948  20085155.348    20085154.8134   20085159.8524
        51.0004         48.2004
 -17645022.94346 -13714044.85147  21461242.955    21461243.0604   21461245.3254
        47.4004         44.4004
  -6747987.02145  -5235899.59346  23112525.758    23112525.0844   23112525.2114
        43.6004         40.7004
 -12741925.57145  -9911081.42546  22405736.583    22405736.2304   22405738.5114
        43.6004         40.6004
  -8332865.07645  -6483251.24046  22248735.601    22248735.8374   22248741.3034
        44.8004         41.9004
 -14904696.45546 -10732154.60947  21425224.988    21425225.2384   21425227.1444
        47.0004         44.0004
  -1867566.26743  -1439999.22746  24130363.800    24130363.6164   24130367.0404
        38.7004         36.2004
  -2357814.18244  -1817518.86246  22592973.648    22592974.4164   22592976.4474
        42.3004         40.0004
 19 10 18  0 16  0.0000000  0  9G24G25G29G02G14G32G12G06G31
   -527654.45444   -372749.22846  23683044.774    23683045.0814   23683050.7774
        42.5004         39.7004
 -20449942.72647 -15914593.49748  20084072.889    20084072.4734   20084078.0004
        51.0004         48.0004
 -17725453.02446 -13776717.62847  21445937.748    21445937.2544   21445940.1234
        47.4004         44.5004
  -6758480.44444  -5244076.25846  23110528.750    23110527.9384   23110528.7124
        43.4004         40.6004
 -12749612.35344  -9917071.14346  22404273.745    22404273.0994   22404275.5004
        43.2004         40.2004
  -8278918.49045  -6441214.96046  22259001.188    22259001.3214   22259007.1064
        44.6004         41.6004
 -14833090.41846 -10676357.69747  21438851.147    21438850.9104   21438852.8924
        47.0004         44.0004
  -1818630.85143  -1401867.70146  24139673.595    24139674.6504   24139679.3074
        38.5004         36.2004
  -2442602.86444  -1883587.98546  22576839.513    22576839.5654   22576841.2144
        42.9004         40.4004
 19 10 18  0 16 30.0000000  0  9G24G25G29G02G14G32G12G06G31
   -421701.42144   -290188.43046  23703206.405    23703207.4074   23703212.3564
        42.5004         39.9004
 -20455232.41447 -15918715.33748  20083066.499    20083066.2224   20083071.4174
        51.0004         48.0004
 -17805469.62546 -13839068.21347  21430710.924    21430711.0254   21430713.3544
        47.4004         44.5004
  -6768463.74244  -5251855.44846  23108628.146    23108627.7504   23108628.4264
        43.4004         40.4004
 -12756720.63544  -9922610.08246  22402920.937    22402920.7974   22402922.9684
        42.9004         40.0004
  -8224471.92745  -6398789.09346  22269362.451    22269363.0304   22269367.5744
        44.4004         41.4004
 -14761242.56046 -10620372.38747  21452522.846    21452523.6394   21452525.2304
        47.0004         44.0004
  -1769168.81143  -1363325.86646  24149087.069    24149087.2854   24149092.2034
        38.7004         36.4004
  -2527130.86444  -1949453.95846  22560755.188    22560754.2164   22560756.4074
        43.2004         40.7004
 19 10 18  0 17  0.0000000  0  9G24G25G29G02G14G32G12G06G31
   -315594.62244   -207507.80546  23723400.532    23723399.2734   23723403.4404
        42.5004         39.5004
 -20460126.92247 -15922529.24048  20082135.369    20082134.6764   20082140.4514
        51.0004         48.0004
 -17885070.77146 -13901095.06647  21415563.337    21415563.8174   21415565.3684
        47.4004         44.5004
  -6777936.23144  -5259236.58346  23106824.814    23106824.2544   23106826.4664
        43.2004         40.2004
 -12763249.89244  -9927697.83946  22401678.017    22401678.5034   22401679.6934
        42.5004         39.7004
  -8169527.64945  -6355975.38746  22279818.078    22279818.1244   22279823.6424
        44.4004         41.4004
 -14689153.34746 -10564198.96847  21466242.188    21466241.7724   21466243.5324
        47.0004         44.2004
  -1719181.83543  -1324374.98446  24158599.867    24158600.0934   24158604.6794
        39.0004         36.9004
  -2611396.26745  -2015115.31246  22544719.929    22544719.3944   22544721.1084
        43.6004         40.9004
 19 10 18  0 17 30.0000000  0  9G24G25G29G02G14G32G12G06G31
   -209336.04544   -124708.92246  23743620.996    23743620.1894   23743624.1074
        42.5004         39.9004
 -20464626.35047 -15926035.28647  20081278.015    20081278.0374   20081283.6684
        50.8004         47.8004
 -17964254.90846 -13962796.97447  21400494.468    21400494.6974   21400497.3424
        47.4004         44.4004
  -6786897.32344  -5266219.23146  23105119.777    23105119.2144   23105121.3814
        43.2004         40.6004
 -12769200.25344  -9932334.48346  22400546.052    22400545.6214   22400547.8714
        42.5004         39.9004
  -8114087.82345  -6312775.55046  22290367.132    22290367.8974   22290372.4164
        44.1004         41.1004
 -14616824.39746 -10507838.77147  21480004.693    21480004.8994   21480007.8674
        47.0004         44.0004
  -1668671.59443  -1285016.34546  24168213.389    24168212.3054   24168215.8394
        38.7004         36.2004
  -2695396.67745  -2080570.17846  22528733.870    22528734.5594   22528736.9254
        43.7004         40.9004
 19 10 18  0 18  0.0000000  0  9G24G25G29G02G14G32G12G06G31
   -102927.64644    -41793.28246  23763867.619    23763867.8684   23763872.0734
        42.3004         39.7004
 -20468730.86147 -15929233.61047  20080497.755    20080497.1584   20080502.7064
        50.8004         47.8004
 -18043020.09246 -14024172.42847  21385506.661    21385506.4654   21385508.5504
        47.4004         44.4004
  -6795346.62144  -5272803.09146  23103513.170    23103512.1424   23103513.1194
        43.4004         40.7004
 -12774571.65844  -9936520.00246  22399523.709    22399523.1524   22399526.0584
        42.5004         39.9004
  -8058154.80245  -6269191.37946  22301010.510    22301011.7654   22301016.1974
        44.1004         41.2004
 -14544256.56046 -10451292.41547  21493815.184    21493814.6844   21493817.0824
        47.0004         44.0004
  -1617639.72943  -1245251.26346  24177923.614    24177923.1334   24177926.1124
        38.5004         36.2004
  -2779129.94245  -2145816.88446  22512800.873    22512801.3264   22512803.2024
        43.9004         41.4004
 19 10 18  0 18 30.0000000  0  9G24G25G29G02G14G32G12G06G31
      3629.44344     41238.20846  23784146.386    23784146.0984   23784150.4254
        42.3004         39.7004
 -20472440.49847 -15932124.23247  20079791.556    20079791.1874   20079796.7854
        50.8004         47.8004
 -18121364.78746 -14085220.22347  21370598.192    21370597.8184   21370600.2804
        47.4004         44.4004
  -6803283.41745  -5278987.59146  23102002.934    23102002.0824   23102003.2744
        43.6004         40.7004
 -12779364.11744  -9940254.39146  22398611.179    22398610.0964   22398614.0694
        42.7004         39.9004
  -8001730.84445  -6225224.67846  22311748.187    22311749.8184   22311753.8124
        44.2004         41.6004
 -14471451.07046 -10394560.87747  21507670.022    21507669.3374   21507670.9314
        47.0004         44.2004
  -1566087.98843  -1205081.09545  24187730.104    24187731.7794   24187738.2414
        38.3004         35.9004
  -2862594.01645  -2210853.82346  22496918.541    22496918.5504   22496919.8954
        44.2004         41.8004
 19 10 18  0 19  0.0000000  0  9G24G25G29G02G14G32G12G06G31
    110333.24544    124384.02646  23804450.541    23804450.0874   23804454.1454
        42.2004         39.5004
 -20475755.39347 -15934707.27247  20079161.123    20079160.8024   20079165.7334
        50.8004         47.8004
 -18199287.48746 -14145939.20747  21355769.711    21355769.9464   21355772.1074
        47.4004         44.5004
  -6810707.45945  -5284772.55646  23100589.642    23100589.5954   23100589.0354
        43.6004         40.7004
 -12783577.33844  -9943537.42246  22397810.988    22397810.3944   22397812.0174
        43.0004         40.4004
  -7944818.22945  -6180877.20846  22322578.322    22322578.7794   22322583.8664
        44.2004         41.2004
 -14398409.66446 -10337645.51347  21521568.799    21521569.1554   21521571.0094
        46.9004         44.2004
  -1514018.10243  -1164507.14246  24197641.148    24197641.0834   24197643.5844
        38.3004         36.0004
  -2945786.95045  -2275679.46846  22481086.831    22481086.5194   22481089.0254
        44.6004         41.6004
 19 10 18  0 19 30.0000000  0  9G24G25G29G02G14G32G12G06G31
    217181.95644    207642.74846  23824782.430    23824782.9594   23824786.8314
        42.2004         39.5004
 -20478675.66247 -15936982.80647  20078605.387    20078604.7974   20078610.3094
        50.8004         47.8004
 -18276786.15946 -14206327.76447  21341022.498    21341022.6234   21341024.5574
        47.4004         44.5004
  -6817618.14045  -5290157.47446  23099273.788    23099273.7874   23099274.2974
        43.6004         40.9004
 -12787211.39444  -9946369.15346  22397118.375    22397117.9124   22397120.3094
        43.0004         40.4004
  -7887419.31345  -6136150.79746  22333501.835    22333502.1194   22333507.6634
        44.2004         41.6004
 -14325132.63946 -10280546.54247  21535511.822    21535512.2544   21535514.3464
        46.9004         43.7004
  -1461431.84543  -1123530.82546  24207646.875    24207647.4804   24207651.9434
        38.3004         36.0004
  -3028706.46345  -2340292.07147  22465307.479    22465308.2524   22465310.2324
        44.8004         42.1004
 19 10 18  0 20  0.0000000  0  9G24G25G29G02G14G32G12G06G31
    324173.98244    291013.15746  23845142.768    23845142.5344   23845147.5374
        42.2004         39.5004
 -20481201.44247 -15938950.94747  20078124.741    20078124.3764   20078129.5704
        50.8004         47.8004
 -18353859.18346 -14266384.65047  21326355.870    21326355.4174   21326358.4304
        47.5004         44.7004
  -6824015.06844  -5295142.07446  23098056.641    23098056.6184   23098057.1954
        43.4004         40.7004
 -12790266.39344  -9948749.67846  22396536.805    22396536.4374   22396538.8784
        43.0004         40.2004
  -7829536.37645  -6091047.23446  22344516.378    22344516.7734   22344521.1764
        44.4004         41.8004
 -14251621.98246 -10223265.53647  21549501.017    21549501.5274   21549503.2114
        46.7004         43.9004
  -1408330.94343  -1082153.48246  24217752.814    24217752.8724   24217757.0774
        38.5004         36.0004
  -3111350.46445  -2404689.99346  22449581.368    22449581.1234   22449582.6404
        44.8004         41.8004
 19 10 18  0 20 30.0000000  0  9G24G25G29G02G14G32G12G06G31
    431307.57744    374493.87446  23865531.233    23865530.4214   23865534.5884
        42.2004         39.5004
 -20483332.87347 -15940611.81048  20077719.543    20077719.1074   20077724.2644
        50.8004         48.0004
 -18430505.08046 -14326108.71847  21311770.244    21311770.6974   21311773.1594
        47.5004         44.9004
  -6829897.65845  -5299725.89546  23096937.595    23096936.3984   23096938.9394
        43.6004         40.7004
 -12792742.07344  -9950678.78746  22396065.293    22396065.1784   22396067.4944
        42.7004         39.7004
  -7771171.79245  -6045568.35546  22355623.013    22355623.3084   22355628.1654
        44.4004         41.6004
 -14177878.15846 -10165802.83547  21563534.428    21563534.0384   21563536.3854
        46.7004         43.9004
  -1354717.14043  -1040376.46345  24227953.390    24227953.9144   24227959.0324
        38.2004         35.9004
  -3193716.88745  -2468871.61946  22433907.142    22433907.3784   22433909.9594
        44.8004         41.9004
 19 10 18  0 21  0.0000000  0  9G24G25G29G02G14G32G12G06G31
    538581.06444    458083.59446  23885943.575    23885943.3424   23885947.8794
        42.0004         39.3004
 -20485070.05647 -15941965.46447  20077388.243    20077388.0074   20077393.3264
        50.8004         47.8004
 -18506722.33446 -14385498.77547  21297267.086    21297266.9964   21297269.2884
        47.7004         44.9004
  -6835265.52045  -5303908.62046  23095915.555    23095915.4784   23095917.0744
        43.6004         40.7004
 -12794638.66444  -9952156.66346  22395704.024    22395703.7074   22395706.8824
        42.3004         39.0004
  -7712327.94245  -5999716.01946  22366820.936    22366820.9084   22366825.1634
        44.4004         41.6004
 -14103902.65046 -10108159.60347  21577611.354    21577611.6134   21577612.9614
        46.7004         43.7004
  -1300592.28143   -998201.27145  24238252.947    24238254.3344   24238259.4534
        37.8004         35.7004
  -3275803.48045  -2532835.20146  22418286.669    22418286.1684   22418288.9324
        44.6004         41.9004
 19 10 18  0 21 30.0000000  0  9G24G25G29G02G14G32G12G06G31
    645992.43844    541780.78146  23906381.395    23906382.3454   23906387.9244
        42.0004         39.2004
 -20486413.16047 -15943012.03848  20077133.373    20077132.8114   20077138.0364
        50.8004         48.0004
 -18582509.02546 -14444553.32947  21282845.557    21282845.4134   21282847.5434
        47.7004         44.9004
  -6840118.34544  -5307690.02846  23094993.076    23094992.0184   23094993.6094
        43.4004         40.7004
 -12795956.22444  -9953183.33346  22395453.870    22395452.9504   22395456.3744
        41.8004         38.8004
  -7653007.18245  -5953492.07746  22378109.094    22378109.4224   22378113.7204
        44.2004         41.4004
 -14029696.15646 -10050336.38647  21591732.364    21591732.6384   21591734.3834
        46.5004         43.7004
  -1245958.14543   -955629.16445  24248650.743    24248651.3174   24248655.3414
        38.0004         35.9004
  -3357608.10245  -2596579.04246  22402720.178    22402719.8684   22402721.2274
        44.6004         41.8004
 19 10 18  0 22  0.0000000  0  9G24G25G29G02G14G32G12G06G31
    753540.70444    625584.60546  23926848.675    23926847.8114   23926853.8144
        42.0004         39.3004
 -20487362.32147 -15943751.64747  20076952.064    20076951.6494   20076957.1454
        50.8004         47.8004
 -18657863.50746 -14503271.09147  21268505.164    21268505.4104   21268507.9924
        47.7004         44.9004
  -6844455.90344  -5311069.92146  23094166.221    23094166.1464   23094168.6874
        43.4004         40.7004
 -12796694.87344  -9953758.91646  22395313.375    22395313.0864   22395315.7324
        41.6004         39.0004
  -7593211.96545  -5906898.40346  22389487.587    22389487.6954   22389492.0794
        44.1004         41.1004
 -13955260.43546  -9992334.54847  21605897.356    21605897.1164   21605898.9594
        46.5004         43.7004
  -1190816.48843   -912661.62745  24259144.514    24259143.7184   24259149.6984
        38.0004         35.9004
  -3439128.77445  -2660101.65047  22387207.114    22387206.9944   22387209.2344
        44.8004         42.1004
 19 10 18  0 22 30.0000000  0  9G24G25G29G02G14G32G12G06G31
    861223.94744    709493.60046  23947340.945    23947338.9524   23947345.5374
        41.8004         39.2004
 -20487917.68447 -15944184.40348  20076847.052    20076846.4034   20076851.8034
        50.8004         48.0004
 -18732784.21546 -14561650.84647  21254248.346    21254248.4344   21254251.2804
        47.7004         44.9004
  -6848277.47945  -5314047.74346  23093440.688    23093439.3914   23093441.0144
        43.6004         40.7004
 -12796854.47344  -9953883.28846  22395283.118    22395283.2504   22395285.6264
        42.0004         39.7004
  -7532944.64645  -5859936.85346  22400956.331    22400957.0464   22400960.1454
        44.1004         41.2004
 -13880596.30945  -9934154.73247  21620104.471    21620104.8224   21620106.7244
        46.3004         43.5004
  -1135169.29243   -869300.18645  24269733.469    24269733.9844   24269738.2044
        38.0004         35.9004
  -3520363.34245  -2723401.31047  22371748.599    22371748.6164   22371751.2944
        44.9004         42.1004
 19 10 18  0 23  0.0000000  0  9G24G25G29G02G14G32G12G06G31
    969039.92144    793506.03546  23967858.020    23967856.8234   23967861.8364
        41.8004         39.2004
 -20488079.35847 -15944310.37947  20076815.474    20076815.2374   20076821.0144
        50.8004         47.8004
 -18807269.61446 -14619691.39747  21240074.866    21240074.7114   21240077.3084
        47.9004         45.1004
  -6851582.82045  -5316623.32346  23092811.995    23092811.3624   23092812.4474
        43.6004         40.9004
 -12796435.24944  -9953556.62446  22395364.032    22395363.3574   22395365.3374
        42.7004         40.4004
  -7472207.64045  -5812609.34246  22412514.044    22412514.2214   22412518.7264
        44.2004         41.4004
 -13805704.81945  -9875797.74947  21634355.969    21634356.6354   21634358.2014
        46.3004         43.3004
  -1079018.34443   -825546.18146  24280421.522    24280419.3634   24280423.9694
        38.3004         36.2004
  -3601309.65645  -2786476.37147  22356344.636    22356345.4514   22356346.8954
        45.1004         42.5004
 19 10 18  0 23 30.0000000  0  9G24G25G29G02G14G32G12G06G31
   1076986.92844    877620.57846  23988397.285    23988398.1084   23988403.9124
        42.0004         39.3004
 -20487847.55147 -15944129.75247  20076859.807    20076859.4064   20076865.1264
        50.8004         47.8004
 -18881317.94846 -14677391.38447  21225983.801    21225983.3914   21225986.0954
        47.9004         45.1004
  -6854371.56345  -5318796.35646  23092280.271    23092280.4474   23092280.9374
        43.6004         40.7004
 -12795437.50844  -9952779.18046  22395553.690    22395553.0714   22395555.5914
        43.2004         40.7004
  -7411003.44745  -5764917.78846  22424160.362    22424160.3334   22424165.9604
        44.1004         41.2004
 -13730587.41745  -9817264.73347  21648650.756    21648650.9974   21648652.6964
        46.3004         43.5004
  -1022365.51843   -781401.14745  24291200.785    24291199.8554   24291203.3134
        38.2004         35.9004
  -3681965.67145  -2849325.20247  22340996.899    22340997.0114   22340998.6824
        45.3004         42.6004
 19 10 18  0 24  0.0000000  0  9G24G25G29G02G14G32G12G06G31
   1185063.61244    961836.18046  24008962.405    24008963.9934   24008969.5634
        42.0004         39.3004
 -20487222.41147 -15943642.63047  20076978.437    20076978.1674   20076984.0294
        50.8004         47.8004
 -18954927.89946 -14734749.77247  21211975.560    21211976.0394   21211978.6474
        47.9004         44.9004
  -6856643.56245  -5320566.72846  23091848.467    23091847.4124   23091848.2284
        43.6004         40.6004
 -12793861.17544  -9951550.89046  22395853.329    22395853.0464   22395855.9114
        43.4004         40.6004
  -7349334.49845  -5716864.06046  22435895.955    22435896.1284   22435901.6074
        44.2004         41.6004
 -13655244.78445  -9758556.20547  21662987.928    21662987.9544   21662989.8124
        46.2004         43.3004
   -965212.77943   -736866.56346  24302075.226    24302076.0174   24302078.7784
        38.3004         36.0004
  -3762329.10945  -2911946.04947  22325704.143    22325704.8034   22325705.9194
        45.5004         42.6004
 19 10 18  0 24 30.0000000  0  9G24G25G29G02G14G32G12G06G31
   1293268.48644   1046151.66946  24029555.660    24029555.5234   24029561.1854
        42.0004         39.3004
 -20486204.07147 -15942849.12447  20077172.844    20077172.3424   20077177.7884
        50.8004         47.8004
 -19028097.72446 -14791765.21747  21198051.734    21198052.0794   21198055.3824
        47.7004         44.9004
  -6858398.67845  -5321934.33746  23091514.816    23091513.9544   23091515.0634
        43.6004         40.7004
 -12791706.54344  -9949871.97346  22396263.113    22396262.7964   22396266.0064
        43.2004         40.2004
  -7287203.23345  -5668450.11846  22447719.018    22447719.5964   22447723.5384
        44.2004         41.2004
 -13579678.32445  -9699673.26947  21677367.547    21677367.3324   21677369.3814
        46.0004         43.0004
   -907561.98943   -691943.84845  24313047.428    24313047.4064   24313050.1654
        38.2004         35.9004
  -3842397.92645  -2974337.33847  22310467.279    22310467.7714   22310469.2374
        45.5004         42.6004
 19 10 18  0 25  0.0000000  0  9G24G25G29G02G14G32G12G06G31
   1401599.67944   1130565.56546  24050172.557    24050171.4044   24050176.6634
        42.2004         39.3004
 -20484792.72647 -15941749.37847  20077440.827    20077440.7944   20077446.2864
        50.8004         47.8004
 -19100825.98346 -14848436.58547  21184212.397    21184212.4544   21184215.3714
        47.7004         44.9004
  -6859636.33745  -5322898.73846  23091277.673    23091278.0314   23091279.6314
        43.6004         40.7004
 -12788974.01644  -9947742.74446  22396783.565    22396782.7944   22396785.3294
        42.7004         39.7004
  -7224612.21645  -5619677.93346  22459629.407    22459630.1594   22459633.7634
        43.7004         40.7004
 -13503888.92945  -9640616.61547  21691790.227    21691790.2474   21691792.0534
        46.0004         43.2004
   -849415.01743   -646634.52846  24324111.828    24324112.4314   24324115.9454
        38.5004         36.4004
  -3922169.75945  -3036497.20747  22295287.931    22295287.1474   22295288.9564
        45.5004         42.5004
 19 10 18  0 25 30.0000000  0  9G24G25G29G02G14G32G12G06G31
   1510055.14344   1215076.33846  24070809.120    24070809.2204   24070814.7374
        42.0004         39.2004
 -20482988.53047 -15940343.51747  20077784.849    20077784.4324   20077789.4014
        50.8004         47.8004
 -19173110.92346 -14904762.50847  21170457.417    21170457.4494   21170459.2904
        47.9004         45.1004
  -6860356.50445  -5323459.89346  23091141.373    23091140.7204   23091141.3544
        43.6004         40.6004
 -12785663.71844  -9945163.28546  22397413.465    22397412.4824   22397414.8074
        42.3004         39.5004
  -7161563.92245  -5570549.39846  22471627.590    22471628.0094   22471633.7984
        43.9004         41.2004
 -13427877.79745  -9581387.18347  21706253.999    21706254.1774   21706256.0784
        45.8004         43.0004
   -790773.91043   -600940.16246  24335271.364    24335270.7514   24335275.6514
        38.9004         36.4004
  -4001642.66445  -3098424.15247  22280164.327    22280164.7214   22280166.1454
        45.3004         42.6004
 19 10 18  0 26  0.0000000  0  9G24G25G29G02G14G32G12G06G31
   1618633.68044   1299682.97846  24091470.313    24091471.0664   24091475.3034
        41.6004         38.6004
 -20480791.67847 -15938631.68547  20078202.925    20078202.5944   20078207.6454
        50.8004         47.8004
 -19244951.26246 -14960741.98547  21156786.514    21156786.3074   21156788.8874
        47.9004         45.1004
  -6860558.93144  -5323617.60646  23091102.547    23091102.2334   23091103.0714
        43.4004         40.6004
 -12781775.76644  -9942133.71146  22398153.207    22398152.6004   22398154.7524
        42.3004         39.7004
  -7098060.82445  -5521066.48146  22483711.987    22483711.9874   22483716.9034
        44.1004         41.2004
 -13351646.22245  -9521985.96447  21720760.728    21720760.9454   21720763.0664
        45.8004         43.0004
   -731640.57143   -554862.22746  24346523.106    24346523.6824   24346527.0074
        38.5004         36.4004
  -4080814.55945  -3160116.53447  22265098.224    22265098.4274   22265100.2554
        45.3004         42.5004
 19 10 18  0 26 30.0000000  0  9G24G25G29G02G14G32G12G06G31
   1727333.18944   1384383.91146  24112154.084    24112155.2714   24112161.1224
        41.3004         38.5004
 -20478202.31447 -15936613.99847  20078695.214    20078694.8584   20078700.0744
        50.8004         47.8004
 -19316345.35146 -15016373.73447  21143200.096    21143200.1524   21143203.2204
        47.9004         45.1004
  -6860243.47644  -5323371.77146  23091162.516    23091162.0164   23091163.4804
        43.4004         40.6004
 -12777310.67544  -9938654.42446  22399002.856    22399002.1684   22399004.5964
        42.3004         39.7004
  -7034105.51745  -5471231.19746  22495881.250    22495881.4704   22495887.6214
        43.9004         40.9004
 -13275195.45245  -9462413.95347  21735308.905    21735308.9344   21735310.0034
        45.8004         42.6004
   -672016.99143   -508402.28846  24357870.513    24357869.9054   24357873.1204
        38.7004         36.4004
  -4159683.30045  -3221572.68847  22250090.555    22250090.1794   22250091.8654
        45.3004         42.5004
 19 10 18  0 27  0.0000000  0  9G24G25G29G02G14G32G12G06G31
   1836151.52244   1469177.41446  24132862.242    24132862.3474   24132866.7684
        40.9004         38.1004
 -20475220.64147 -15934290.62247  20079263.058    20079262.7414   20079267.6904
        50.8004         47.8004
 -19387291.66146 -15071656.56547  21129699.975    21129699.7704   21129702.3474
        47.9004         45.1004
  -6859409.64844  -5322722.02646  23091320.974    23091320.7224   23091322.9284
        43.4004         40.7004
 -12772268.55144  -9934725.51246  22399962.075    22399961.8754   22399964.6724
        42.7004         40.0004
  -6969700.49645  -5421045.49946  22508137.847    22508138.9134   22508143.2314
        43.9004         41.1004
 -13198526.07245  -9402671.60647  21749899.531    21749899.2764   21749900.6404
        45.8004         43.0004
   -611905.20043   -461561.94146  24369307.433    24369307.1764   24369311.7804
        38.5004         36.2004
  -4238246.88545  -3282791.07347  22235140.000    22235140.1054   22235141.3784
        45.3004         42.5004
 19 10 18  0 27 30.0000000  0  9G24G25G29G02G14G32G12G06G31
   1945087.89744   1554062.91146  24153592.598    24153593.0004   24153597.0854
        40.6004         37.9004
 -20471846.85147 -15931661.69647  20079904.730    20079904.4364   20079909.6164
        50.8004         47.8004
 -19457788.67046 -15126589.30047  21116284.748    21116285.2544   21116287.4414
        48.1004         45.2004
  -6858057.62845  -5321668.49346  23091579.513    23091578.6944   23091579.8004
        43.6004         40.9004
 -12766649.92144  -9930347.38646  22401031.540    22401031.8344   22401033.9524
        42.9004         40.2004
  -6904848.34345  -5370511.38646  22520479.122    22520479.5394   22520483.4654
        44.1004         41.1004
 -13121639.32445  -9342759.87547  21764529.915    21764529.8764   21764531.5104
        45.8004         42.8004
   -551307.10243   -414342.64846  24380840.093    24380839.4614   24380844.3504
        38.9004         36.6004
  -4316502.91645  -3343769.79047  22220247.963    22220248.3084   22220249.7854
        45.3004         42.5004
 19 10 18  0 28  0.0000000  0  9G24G25G29G02G14G32G12G06G31
   2054140.23843   1639038.77246  24174344.733    24174344.6064   24174348.9444
        40.3004         37.4004
 -20468081.11447 -15928727.36547  20080621.483    20080621.0674   20080626.4384
        50.8004         47.8004
 -19527835.38146 -15181171.13547  21102955.765    21102955.3824   21102957.8854
        48.1004         45.2004
  -6856187.33745  -5320211.10646  23091935.734    23091934.7634   23091935.8504
        43.6004         40.9004
 -12760455.28144  -9925520.39946  22402210.104    22402210.2554   22402212.1894
        42.5004         39.7004
  -6839551.66945  -5319630.86546  22532904.285    22532904.3814   22532908.7474
        43.9004         40.7004
 -13044536.68145  -9282679.91647  21779202.047    21779201.9884   21779203.9274
        45.6004         42.8004
   -490224.76043   -366746.02746  24392461.072    24392462.5434   24392467.9754
        39.0004         36.6004
  -4394449.30745  -3404507.25447  22205415.767    22205415.9514   22205417.1064
        45.5004         42.6004
 19 10 18  0 28 30.0000000  0  9G24G25G29G02G14G32G12G06G31
   2163306.53743   1724103.41446  24195120.434    24195119.2444   24195123.8564
        39.9004         37.4004
 -20463923.65247 -15925487.78747  20081412.338    20081411.9964   20081417.3304
        50.8004         47.8004
 -19597430.11146 -15235400.78947  21089712.656    21089712.4004   21089714.2064
        48.2004         45.4004
  -6853798.13345  -5318349.37846  23092389.825    23092389.0974   23092390.7474
        43.6004         40.7004
 -12753684.79044  -9920244.70646  22403498.893    22403498.2864   22403500.5264
        42.3004         39.3004
  -6773812.95045  -5268405.91346  22545414.614    22545415.2694   22545418.9074
        43.7004         41.1004
 -12967219.00945  -9222432.38947  21793914.484    21793914.7164   21793916.5404
        45.6004         42.6004
   -428660.31843   -318773.74646  24404177.756    24404177.3144   24404182.8024
        38.5004         36.0004
  -4472083.63845  -3465001.53747  22190642.837    22190643.1104   22190643.8534
        45.8004         43.0004
 19 10 18  0 29  0.0000000  0  9G24G25G29G02G14G32G12G06G31
   2272585.37643   1809255.73646  24215915.239    24215913.6724   24215918.5814
        39.9004         37.4004
 -20459374.64447 -15921943.10647  20082278.115    20082277.7564   20082283.0964
        50.8004         47.8004
 -19666571.14746 -15289276.91547  21076554.964    21076555.0644   21076556.9324
        48.2004         45.4004
  -6850890.64245  -5316083.79146  23092942.791    23092941.7754   23092943.8414
        43.7004         40.9004
 -12746339.04744  -9914520.74546  22404896.696    22404896.9804   22404898.7614
        42.2004         39.5004
  -6707634.88245  -5216838.61246  22558007.985    22558007.7854   22558012.5724
        43.7004         40.9004
 -12889687.21445  -9162018.04147  21808667.822    21808668.8744   21808671.3224
        45.5004         42.8004
   -366615.71543   -270427.27646  24415984.458    24415984.0854   24415988.5844
        38.3004         36.2004
  -4549404.07645  -3525251.23647  22175929.139    22175929.2924   22175930.9374
        46.0004         43.0004
 19 10 18  0 29 30.0000000  0  9G24G25G29G02G14G32G12G06G31
   2381974.93743   1894494.37446  24236730.531    24236729.0614   24236735.4504
        39.7004         37.3004
 -20454434.32047 -15918093.50647  20083218.275    20083217.8624   20083223.3074
        50.8004         47.8004
 -19735256.75746 -15342798.16747  21063484.572    21063484.2974   21063486.5444
        48.2004         45.2004
  -6847464.37345  -5313413.95046  23093593.775    23093593.3074   23093596.1314
        43.6004         40.7004
 -12738418.17644  -9908348.67146  22406403.542    22406403.3374   22406405.3764
        42.2004         39.5004
  -6641020.05945  -5164930.96146  22570683.875    22570684.1114   22570688.2614
        43.7004         40.7004
 -12811942.38045  -9101437.67747  21823462.878    21823463.4944   21823465.4244
        45.6004         43.0004
   -304092.99643   -221708.26246  24427881.871    24427882.0874   24427888.5104
        38.5004         36.2004
  -4626408.44145  -3585254.62847  22161275.406    22161275.5554   22161276.9234
        46.0004         42.8004
 19 10 18  0 30  0.0000000  0  9G24G25G29G02G14G32G12G06G31
   2491472.93343   1979817.47746  24257562.344    24257566.5114   24257571.5694
        39.7004         37.3004
 -20449102.82947 -15913939.10247  20084232.986    20084232.3064   20084237.9404
        50.8004         47.8004
 -19803486.04846 -15395963.84047  21050500.510    21050500.4524   21050502.8434
        48.1004         45.1004
  -6843519.13245  -5310339.71846  23094344.911    23094343.9524   23094345.7594
        43.6004         40.7004
 -12729922.83444  -9901728.93246  22408020.632    22408020.0384   22408022.4254
        42.5004         39.9004
  -6573971.12544  -5112685.04346  22583442.925    22583442.8744   22583447.4224
        43.4004         40.6004
 -12733985.60445  -9040692.16147  21838297.769    21838297.8874   21838300.6064
        45.6004         42.8004
   -241094.30043   -172618.36345  24439871.268    24439870.7714   24439875.1984
        38.3004         35.9004
  -4703094.79845  -3645010.23747  22146682.685    22146683.1544   22146684.3734
        45.8004         43.0004
 19 10 18  0 30 30.0000000  0  9G24G25G29G02G14G32G12G06G31
   2601078.34643   2065224.32446  24278418.538    24278422.0184   24278428.0464
        39.4004         36.6004
 -20443380.44547 -15909480.10348  20085321.839    20085321.4084   20085326.9974
        51.0004         48.0004
 -19871257.50546 -15448772.76047  21037603.786    21037603.9214   21037606.2184
        47.9004         44.9004
  -6839055.37544  -5306861.45746  23095194.858    23095193.8494   23095195.7024
        43.4004         40.6004
 -12720853.39944  -9894661.86046  22409746.222    22409745.4504   22409748.2454
        42.7004         40.0004
  -6506490.66244  -5060102.90946  22596283.673    22596284.5414   22596288.1434
        43.2004         40.4004
 -12655818.45345  -8979782.71147  21853171.568    21853172.6054   21853175.4104
        45.6004         42.8004
   -177621.72343   -123159.18046  24451947.970    24451948.4144   24451953.9634
        38.5004         36.2004
  -4779460.91245  -3704516.30647  22132150.621    22132150.6564   22132152.1154
        45.6004         42.8004
 19 10 18  0 31  0.0000000  0  9G24G25G29G02G14G32G12G06G31
   2710789.38243   2150713.41346  24299300.897    24299300.0804   24299306.9844
        39.6004         37.1004
 -20437267.34947 -15904716.65648  20086484.729    20086484.4974   20086490.1104
        51.0004         48.0004
 -19938569.69046 -15501223.80047  21024794.608    21024794.7824   21024797.7034
        47.9004         45.1004
  -6834072.82944  -5302978.93146  23096143.410    23096142.2874   23096143.4004
        43.4004         40.6004
 -12711210.29044  -9887147.76346  22411581.554    22411581.0854   22411583.3114
        42.9004         40.0004
  -6438581.38044  -5007186.58146  22609206.009    22609206.0114   22609211.9784
        43.2004         40.4004
 -12577441.53845  -8918709.80347  21868087.785    21868087.0734   21868089.5954
        45.6004         42.8004
   -113677.33543    -73332.40246  24464117.469    24464117.1884   24464123.4774
        38.5004         36.2004
  -4855504.34845  -3763770.93647  22117679.456    22117680.1554   22117681.1074
        45.6004         42.8004
 19 10 18  0 31 30.0000000  0  9G24G25G29G02G14G32G12G06G31
   2820604.16843   2236283.33046  24320204.952    24320198.5054   24320204.0964
        39.4004         36.7004
 -20430763.75447 -15899648.91948  20087723.088    20087722.3724   20087727.7374
        51.0004         48.0004
 -20005421.49646 -15553316.10647  21012073.442    21012073.7384   21012076.0244
        48.1004         45.2004
  -6828571.40844  -5298692.09846  23097189.443    23097189.0284   23097190.1084
        43.4004         40.6004
 -12700994.75344  -9879187.61346  22413524.846    22413524.8994   22413526.4024
        42.7004         40.0004
  -6370245.90244  -4953938.17646  22622211.132    22622210.8744   22622216.5734
        43.4004         40.9004
 -12498855.94145  -8857474.30047  21883040.965    21883041.6504   21883043.7444
        45.6004         42.6004
    -49263.30143    -23139.64046  24476375.362    24476374.7784   24476379.7244
        38.3004         36.0004
  -4931223.08545  -3822772.55947  22103271.488    22103271.1864   22103272.8824
        45.8004         43.0004
 19 10 18  0 32  0.0000000  0  9G24G25G29G02G14G32G12G06G31
   2930520.78943   2321932.63746  24341119.469    24341115.7694   24341120.4524
        39.2004         36.7004
 -20423869.88247 -15894277.07248  20089034.538    20089034.2314   20089039.6854
        51.0004         48.0004
 -20071811.45746 -15605048.53047  20999440.402    20999440.0544   20999442.3374
        48.2004         45.2004
  -6822551.15944  -5294000.98546  23098336.322    23098335.0664   23098335.7664
        43.4004         40.7004
 -12690206.90844  -9870781.49346  22415577.776    22415578.0024   22415580.3344
        42.7004         40.0004
  -6301486.91945  -4900359.75846  22635295.059    22635295.4724   22635300.5154
        43.6004         40.6004
 -12420062.94945  -8796077.19047  21898035.458    21898035.1454   21898037.7074
        45.5004         42.5004
     15618.26943     27417.45146  24488719.953    24488720.0234   24488726.5274
        38.3004         36.0004
  -5006615.34945  -3881519.77147  22088923.644    22088924.0344   22088925.9304
        46.0004         43.2004
 19 10 18  0 32 30.0000000  0  9G24G25G29G02G14G32G12G06G31
   3040537.50443   2407659.94746  24362050.015    24362049.2954   24362056.0494
        39.2004         36.7004
 -20416585.99247 -15888601.31348  20090420.994    20090420.5014   20090425.8044
        51.0004         48.0004
 -20137738.09646 -15656419.92647  20986894.808    20986894.9064   20986897.0684
        48.2004         45.4004
  -6816012.33045  -5288905.79046  23099579.733    23099579.6804   23099579.9734
        43.6004         40.7004
 -12678847.25144  -9861929.82346  22417740.775    22417740.0254   22417741.6774
        42.9004         40.0004
  -6232307.16244  -4846453.46746  22648458.614    22648459.5754   22648465.1244
        43.0004         40.0004
 -12341063.47845  -8734519.18347  21913068.191    21913068.3574   21913070.6574
        45.5004         42.5004
     80964.94443     78336.92446  24501157.416    24501156.9994   24501161.2894
        38.5004         36.4004
  -5081678.66945  -3940010.66847  22074640.060    22074639.8914   22074641.9204
        46.0004         42.8004
 19 10 18  0 33  0.0000000  0  9G24G25G29G02G14G32G12G06G31
   3150652.65043   2493463.97246  24383000.738    24383003.0254   24383009.8084
        39.0004         36.7004
 -20408912.28547 -15882621.80348  20091880.860    20091880.5854   20091886.0354
        51.0004         48.0004
 -20203200.11746 -15707429.28247  20974437.276    20974437.3594   20974440.2814
        48.4004         45.4004
  -6808954.90345  -5283406.47146  23100923.398    23100922.5534   23100922.8994
        43.6004         40.7004
 -12666916.27744  -9852632.98246  22420010.717    22420010.4584   22420010.9194
        42.9004         40.0004
  -6162709.27044  -4792221.36546  22661702.991    22661703.1734   22661707.6234
        42.9004         40.2004
 -12261858.60945  -8672801.12547  21928140.714    21928140.9054   21928142.9614
        45.5004         42.6004
    146775.11843    129617.58346  24513679.536    24513679.6514   24513684.2504
        38.9004         36.6004
  -5156410.95845  -3998243.61847  22060418.622    22060419.4734   22060420.2464
        45.8004         43.0004
 19 10 18  0 33 30.0000000  0  9G24G25G29G02G14G32G12G06G31
   3260864.77443   2579343.54446  24403976.124    24403977.3994   24403982.2884
        39.0004         36.6004
 -20400849.01347 -15876338.73947  20093415.118    20093415.0054   20093420.3544
        51.0004         47.8004
 -20268196.15146 -15758075.52947  20962069.214    20962069.2254   20962072.0864
        48.4004         45.6004
  -6801378.86045  -5277503.04346  23102364.924    23102364.2884   23102364.7784
        43.6004         40.7004
 -12654414.75444  -9842891.55746  22422389.263    22422388.7884   22422390.9754
        42.7004         39.5004
  -6092695.95944  -4737665.55846  22675026.590    22675026.4894   22675031.9114
        43.0004         40.4004
 -12182449.51745  -8610923.93347  21943251.969    21943252.1504   21943253.9244
        45.3004         42.5004
    213046.30743    181257.49046  24526290.229    24526290.9764   24526297.4094
        39.2004         36.9004
  -5230810.18645  -4056217.04147  22046261.525    22046261.4604   22046262.9294
        46.0004         43.2004
 19 10 18  0 34  0.0000000  0  9G24G25G29G02G14G32G12G06G31
   3371172.00443   2665297.20546  24424970.269    24424968.1614   24424972.9164
        38.7004         36.4004
 -20392396.38247 -15869752.27647  20095023.841    20095023.5004   20095028.6984
        51.0004         47.8004
 -20332725.39046 -15808358.04247  20949790.273    20949789.8154   20949792.0204
        48.4004         45.4004
  -6793284.30145  -5271195.59046  23103903.567    23103903.2584   23103904.5664
        43.6004         40.6004
 -12641343.35644  -9832706.08746  22424876.508    22424875.9914   22424878.4894
        42.5004         39.7004
  -6022270.02744  -4682788.20646  22688428.074    22688428.2044   22688433.6884
        43.0004         40.2004
 -12102837.48445  -8548888.60247  21958401.830    21958402.3334   21958404.5534
        45.3004         42.6004
    279776.38843    233254.94346  24538990.056    24538990.1294   24538994.5254
        39.4004         37.1004
  -5304874.20145  -4113929.25947  22032167.290    22032167.4694   22032169.2664
        45.8004         43.0004
 19 10 18  0 34 30.0000000  0  9G24G25G29G02G14G32G12G06G31
   3481572.21643   2751323.35046  24445980.754    24445976.3884   24445981.1774
        38.7004         36.2004
 -20383554.66547 -15862862.63248  20096706.372    20096705.9654   20096711.3004
        51.0004         48.0004
 -20396785.87146 -15858275.28247  20937599.488    20937599.4744   20937602.1344
        48.4004         45.4004
  -6784671.38545  -5264484.20446  23105543.619    23105542.7304   23105543.6254
        43.6004         40.7004
 -12627702.59644  -9822076.94046  22427472.357    22427472.3494   22427474.4764
        42.3004         39.7004
  -5951434.11444  -4627591.41546  22701908.120    22701908.7124   22701913.2204
        43.2004         40.6004
 -12023022.90945  -8486695.44847  21973590.245    21973590.7094   21973592.8644
        45.5004         42.6004
    346963.02343    285608.17746  24551774.320    24551775.6024   24551778.7844
        39.2004         36.7004
  -5378600.75345  -4171378.51247  22018138.033    22018137.9274   22018139.1694
        45.6004         42.8004
 19 10 18  0 35  0.0000000  0  9G24G25G29G02G14G32G12G06G31
   3592064.00743   2837420.82545  24467002.391    24467002.7444   24467006.6154
        38.3004         35.9004
 -20374324.08747 -15855669.97448  20098462.934    20098462.5804   20098467.9514
        51.0004         48.0004
 -20460376.40346 -15907826.34247  20925498.211    20925498.5634   20925501.0694
        48.2004         45.4004
  -6775540.16245  -5257368.93746  23107281.407    23107280.6384   23107281.7804
        43.6004         41.1004
 -12613493.41644  -9811004.84046  22430176.392    22430176.1374   22430178.1334
        42.5004         39.9004
  -5880191.00044  -4572077.32046  22715464.283    22715464.8704   22715470.2704
        43.2004         40.6004
 -11943007.29445  -8424345.63847  21988816.795    21988817.0274   21988818.4754
        45.5004         42.6004
    414604.24343    338315.62646  24564646.646    24564646.3794   24564651.3054
        39.0004         36.7004
  -5451987.74645  -4228563.17947  22004172.886    22004172.9864   22004174.4434
        45.6004         43.0004
 19 10 18  0 35 30.0000000  0  9G24G25G29G02G14G32G12G06G31
   3702645.56943   2923588.31245  24488040.203    24488043.5974   24488050.0694
        37.8004         35.5004
 -20364704.91447 -15848174.51547  20100293.536    20100293.1394   20100298.0444
        51.0004         47.8004
 -20523496.22046 -15957010.60647  20913487.052    20913487.0984   20913489.9104
        48.2004         45.4004
  -6765890.93645  -5249850.04846  23109116.992    23109116.7084   23109117.9864
        43.7004         40.7004
 -12598716.70144  -9799490.52146  22432988.936    22432987.8384   22432990.4314
        42.7004         40.0004
  -5808543.47044  -4516248.08746  22729098.777    22729098.0314   22729104.5654
        43.2004         40.4004
 -11862791.53545  -8361839.88847  22004080.776    22004081.1814   22004083.4184
        45.3004         42.5004
    482697.55243    391375.35346  24577604.755    24577604.1494   24577609.4114
        39.0004         36.6004
  -5525033.04645  -4285481.60347  21990272.950    21990273.0614   21990273.9614
        45.8004         43.0004
 19 10 18  0 36  0.0000000  0  9G24G25G29G02G14G32G12G06G31
   3813314.99743   3009824.22145  24509102.252    24509104.0914   24509108.8684
        37.8004         35.7004
 -20354697.39847 -15840376.45648  20102197.752    20102197.3834   20102202.5704
        51.0004         48.0004
 -20586143.47446 -16005826.64147  20901565.810    20901565.8254   20901568.3664
        48.2004         45.2004
  -6755724.14245  -5241927.85446  23111052.303    23111051.2174   23111052.4854
        43.6004         40.6004
 -12583372.71344  -9787534.17246  22435908.366    22435908.1624   22435910.5814
        42.7004         40.0004
  -5736494.26144  -4460105.88046  22742809.679    22742810.1394   22742815.1234
        43.0004         40.2004
 -11782376.64745  -8299178.94647  22019383.406    22019383.2064   22019384.9804
        45.3004         42.3004
    551240.79543    444785.68946  24590647.632    24590648.1024   24590652.6464
        38.9004         36.6004
  -5597734.32045  -4342131.94347  21976438.119    21976438.6854   21976439.5274
        45.8004         43.2004
 19 10 18  0 36 30.0000000  0  9G24G25G29G02G14G32G12G06G31
   3924070.92443   3096127.52645  24530180.985    24530179.9354   24530184.1164
        37.6004         35.3004
 -20344301.75947 -15832275.95747  20104175.800    20104175.5294   20104180.9034
        50.8004         47.8004
 -20648317.24746 -16054273.72447  20889734.381    20889734.4104   20889736.7724
        48.2004         45.4004
  -6745039.76945  -5233602.35546  23113086.121    23113084.5284   23113085.7414
        43.6004         40.9004
 -12567462.35144  -9775136.50246  22438935.709    22438935.1414   22438937.8924
        42.7004         39.7004
  -5664046.16744  -4403652.85346  22756595.837    22756596.6904   22756600.8614
        42.9004         39.9004
 -11701763.66045  -8236363.65147  22034724.134    22034723.8454   22034726.0714
        45.1004         42.1004
    620231.81743    498544.90346  24603775.216    24603775.8364   24603780.7634
        38.7004         36.2004
  -5670089.68645  -4398512.76547  21962669.749    21962669.5884   21962670.6254
        46.0004         43.2004
 19 10 18  0 37  0.0000000  0  9G24G25G29G02G14G32G12G06G31
   4034911.30142   3182496.61445  24551275.886    24551272.6174   24551276.0214
        37.3004         35.2004
 -20333518.30147 -15823873.26547  20106227.992    20106227.8204   20106232.6544
        50.8004         47.8004
 -20710016.38946 -16102350.96547  20877993.396    20877993.5874   20877996.1824
        48.2004         45.4004
  -6733837.79145  -5224873.52646  23115216.327    23115216.1244   23115217.5304
        43.6004         40.7004
 -12550986.60844  -9762298.27346  22442070.728    22442069.7384   22442073.2214
        42.3004         39.2004
  -5591201.99444  -4346891.17046  22770457.218    22770458.5564   22770462.5154
        42.5004         40.0004
 -11620953.75445  -8173394.91247  22050100.443    22050100.9004   22050103.3354
        44.9004         42.1004
    689668.19843    552651.18146  24616989.115    24616989.9624   24616993.0034
        38.7004         36.2004
  -5742097.03545  -4454622.37747  21948966.765    21948966.9124   21948968.1934
        46.0004         43.0004
 19 10 18  0 37 30.0000000  0  9G24G25G29G02G14G32G12G06G31
   4145834.34542   3268930.16645  24572380.787    24572381.1824   24572385.2974
        37.5004         35.2004
 -20322347.29547 -15815168.58347  20108353.200    20108353.0994   20108358.5234
        50.8004         47.8004
 -20771239.76246 -16150057.48447  20866342.991    20866343.2044   20866345.5324
        48.4004         45.6004
  -6722118.64144  -5215741.70646  23117445.931    23117445.1394   23117447.5164
        43.4004         40.4004
 -12533946.30744  -9749020.14146  22445313.093    22445313.6554   22445314.8094
        41.8004         39.0004
  -5517964.51644  -4289823.00646  22784394.704    22784394.6404   22784398.6824
        42.7004         39.7004
 -11539947.83645  -8110273.44346  22065516.977    22065516.0884   22065518.1344
        44.9004         41.9004
    759547.77843    607102.82745  24630287.800    24630287.7214   24630291.1414
        38.3004         35.9004
  -5813754.09045  -4510459.03747  21935331.334    21935330.9734   21935331.8014
        46.0004         43.3004
 19 10 18  0 38  0.0000000  0  9G24G25G29G02G14G32G12G06G31
   4256838.83843   3355427.15745  24593502.540    24593503.2694   24593509.5304
        37.8004         35.5004
 -20310788.96947 -15806162.10347  20110553.350    20110552.7764   20110557.7744
        50.8004         47.8004
 -20831985.82246 -16197392.06947  20854783.677    20854783.5484   20854786.1374
        48.4004         45.6004
  -6709882.70644  -5206207.20446  23119773.722    23119774.2384   23119775.1944
        43.4004         40.6004
 -12516342.51044  -9735302.92046  22448663.687    22448663.4464   22448666.0574
        42.0004         39.2004
  -5444336.56444  -4232450.58546  22798405.202    22798406.3724   22798410.0694
        42.5004         39.7004
 -11458747.02345  -8047000.10246  22080967.940    22080967.6094   22080969.8684
        44.8004         41.8004
    829868.21543    661897.97546  24643668.820    24643669.7294   24643673.3084
        38.9004         36.7004
  -5885058.65345  -4566021.03447  21921762.177    21921762.3034   21921763.5154
        46.0004         43.2004
 19 10 18  0 38 30.0000000  0  9G24G25G29G02G14G32G12G06G31
   4367922.45643   3441985.85345  24614639.921    24614641.9734   24614647.5984
        37.8004         35.3004
 -20298843.60547 -15796854.02547  20112826.235    20112826.1954   20112831.2254
        50.8004         47.8004
 -20892253.66046 -16244354.01447  20843314.951    20843314.6984   20843317.5614
        48.4004         45.6004
  -6697130.25744  -5196270.21746  23122201.816    23122200.8944   23122202.1594
        43.2004         40.4004
 -12498175.68344  -9721146.96146  22452120.372    22452120.1534   22452122.8494
        42.2004         39.7004
  -5370320.94544  -4174776.08546  22812490.587    22812490.7094   22812495.2024
        42.5004         39.9004
 -11377352.67845  -7983575.95246  22096456.572    22096456.5814   22096459.0044
        44.8004         41.9004
    900627.24143    717034.89146  24657132.743    24657133.1774   24657136.9524
        38.7004         36.0004
  -5956008.92845  -4621306.95447  21908260.765    21908260.8804   21908262.1754
        46.0004         43.0004
 19 10 18  0 39  0.0000000  0  9G24G25G29G02G14G32G12G06G31
   4479083.62443   3528604.93146  24635795.718    24635795.6144   24635801.0014
        38.2004         36.0004
 -20286511.50547 -15787244.59847  20115172.751    20115172.2394   20115177.6124
        50.8004         47.8004
 -20952042.20846 -16290942.48147  20831937.268    20831937.4484   20831940.0574
        48.4004         45.6004
  -6683861.55544  -5185930.95146  23124727.437    23124726.9244   23124726.9004
        43.2004         40.6004
 -12479446.53144  -9706552.82846  22455685.493    22455684.5754   22455685.9154
        42.5004         39.9004
  -5295920.48644  -4116801.70346  22826648.388    22826649.4644   22826653.2244
        42.7004         40.0004
 -11295765.34545  -7920001.43046  22111983.332    22111982.9704   22111984.9884
        44.8004         41.8004
    971822.49743    772511.75546  24670681.754    24670680.4454   24670684.8624
        38.2004         36.0004
  -6026602.64545  -4676315.04647  21894826.890    21894827.1484   21894828.3784
        46.0004         43.0004
 19 10 18  0 39 30.0000000  0  9G24G25G29G02G14G32G12G06G31
   4590320.63343   3615283.09345  24656968.349    24656963.7704   24656969.3844
        38.2004         35.9004
 -20273792.92047 -15777334.02348  20117593.520    20117593.1754   20117598.3224
        50.8004         48.0004
 -21011350.08546 -16337156.39747  20820651.539    20820651.6314   20820654.3924
        48.4004         45.6004
  -6670077.19944  -5175189.88846  23127350.059    23127349.9624   23127350.6674
        43.2004         40.6004
 -12460156.46044  -9691521.61146  22459355.838    22459355.3634   22459357.6434
        42.5004         39.5004
  -5221138.05744  -4058529.69946  22840878.261    22840879.0374   22840883.2914
        42.7004         39.5004
 -11213986.10845  -7856277.37346  22127545.112    22127545.0074   22127547.1784
        44.8004         41.9004
   1043451.69843    828326.71646  24684314.053    24684314.1864   24684315.9504
        38.3004         36.0004
  -6096837.91045  -4731043.81347  21881461.643    21881461.4894   21881463.2514
        46.0004         43.2004
 19 10 18  0 40  0.0000000  0  9G24G25G29G02G14G32G12G06G31
   4701631.45643   3702018.81145  24678148.114    24678145.9124   24678150.4334
        38.0004         35.9004
 -20260688.16047 -15767122.52248  20120087.069    20120086.7684   20120092.0874
        50.8004         48.0004
 -21070176.52146 -16382995.17547  20809457.566    20809457.4454   20809459.7944
        48.6004         45.8004
  -6655777.05744  -5164046.91546  23130070.755    23130070.9234   23130071.8374
        43.4004         40.6004
 -12440306.13944  -9676053.83446  22463133.434    22463133.1904   22463134.4804
        42.3004         39.5004
  -5145976.44944  -3999962.24046  22855181.752    22855182.0154   22855186.2874
        42.3004         39.7004
 -11132015.99045  -7792404.57346  22143143.053    22143142.4444   22143145.0994
        44.6004         41.6004
   1115512.52043    884477.99246  24698025.936    24698025.6084   24698029.4494
        38.7004         36.4004
  -6166711.96045  -4785491.12347  21868165.490    21868164.9124   21868166.2124
        46.0004         43.0004
 19 10 18  0 40 30.0000000  0  9G24G25G29G02G14G32G12G06G31
   4813014.59143   3788810.85646  24699341.799    24699340.7334   24699346.6174
        38.3004         36.0004
 -20247197.46847 -15756610.30048  20122653.944    20122653.7414   20122659.3804
        51.0004         48.0004
 -21128520.31246 -16428457.85947  20798355.188    20798354.9854   20798357.5554
        48.6004         45.8004
  -6640961.67744  -5152502.46246  23132890.780    23132890.0234   23132891.2974
        43.4004         40.7004
 -12419896.65644  -9660150.36646  22467017.176    22467016.8804   22467019.2884
        42.3004         39.7004
  -5070438.57544  -3941101.57846  22869556.231    22869556.0274   22869561.2554
        42.2004         39.2004
 -11049856.44145  -7728384.17646  22158777.574    22158777.5704   22158779.4294
        44.6004         41.6004
   1188002.55443    940963.76046  24711819.640    24711820.2364   24711824.3254
        38.3004         36.0004
  -6236223.02845  -4839655.58647  21854937.724    21854938.1124   21854938.9394
        46.2004         43.5004
 19 10 18  0 41  0.0000000  0  9G24G25G29G02G14G32G12G06G31
   4924468.00943   3875657.65645  24720550.138    24720550.1294   24720555.0564
        38.2004         35.7004
 -20233321.16147 -15745797.60048  20125294.624    20125294.3554   20125299.8394
        51.0004         48.0004
 -21186380.04146 -16473543.35447  20787344.513    20787344.5874   20787347.2784
        48.6004         45.8004
  -6625631.29544  -5140556.69246  23135807.515    23135807.0334   23135807.7994
        43.4004         40.7004
 -12398928.82944  -9643811.82646  22471007.284    22471006.8414   22471009.0524
        42.5004         39.9004
  -4994527.27144  -3881949.90346  22884000.585    22884000.3434   22884005.0464
        41.8004         38.8004
 -10967507.78645  -7664216.41346  22174447.898    22174447.6864   22174449.9244
        44.6004         41.6004
   1260919.55443    997782.19746  24725695.909    24725695.7964   24725700.1624
        38.7004         36.6004
  -6305369.41446  -4893535.89447  21841779.924    21841779.9004   21841781.4504
        46.5004         43.7004
 19 10 18  0 41 30.0000000  0  9G24G25G29G02G14G32G12G06G31
   5035990.55443   3962558.33945  24741773.143    24741770.5914   24741776.9434
        37.8004         35.7004
 -20219059.54347 -15734684.65848  20128008.796    20128008.5504   20128013.7514
        51.0004         48.0004
 -21243754.89146 -16518251.01647  20776426.478    20776426.3224   20776428.9174
        48.6004         45.8004
  -6609786.50444  -5128210.09146  23138822.632    23138822.1104   23138823.3624
        43.4004         40.6004
 -12377403.69144  -9627039.01546  22475103.494    22475102.2224   22475104.5724
        42.5004         39.9004
  -4918245.46144  -3822509.55946  22898517.238    22898517.8614   22898522.3604
        41.5004         38.6004
 -10884971.55545  -7599902.49246  22190154.328    22190154.5114   22190156.5004
        44.4004         41.4004
   1334261.00143   1054931.39046  24739652.856    24739651.7574   24739657.8064
        38.5004         36.0004
  -6374148.75946  -4947130.18447  21828691.379    21828691.7314   21828692.9024
        46.5004         43.7004
 19 10 18  0 42  0.0000000  0  9G24G25G29G02G14G32G12G06G31
   5147580.11043   4049511.24546  24763009.078    24763006.0524   24763012.6524
        38.2004         36.0004
 -20204412.89447 -15723271.68447  20130795.292    20130795.1544   20130800.7434
        50.8004         47.8004
 -21300643.91446 -16562580.11247  20765601.047    20765600.9604   20765603.3294
        48.6004         45.8004
  -6593427.71844  -5115462.96746  23141936.414    23141935.4634   23141936.0884
        43.4004         40.6004
 -12355322.35844  -9609832.78846  22479305.290    22479304.7364   22479306.5694
        42.7004         39.7004
  -4841595.98844  -3762782.71846  22913102.481    22913103.0624   22913107.8634
        41.3004         38.6004
 -10802248.38545  -7535442.91146  22205896.271    22205895.4904   22205897.9224
        44.4004         41.6004
   1408024.62543   1112409.55046  24753689.047    24753688.4904   24753693.7564
        38.9004         36.7004
  -6442558.83046  -5000436.72847  21815673.269    21815673.9774   21815675.5354
        46.5004         43.9004
 19 10 18  0 42 30.0000000  0  9G24G25G29G02G14G32G12G06G31
   5259234.42443   4136514.57145  24784256.257    24784253.6854   24784258.5194
        38.0004         35.5004
 -20189381.52347 -15711558.93448  20133656.091    20133655.9014   20133661.3744
        51.0004         48.0004
 -21357045.88846 -16606529.68747  20754868.053    20754868.2224   20754870.2394
        48.6004         45.8004
  -6576555.47145  -5102315.73746  23145147.590    23145145.9364   23145148.3474
        43.6004         40.9004
 -12332685.97644  -9592194.05646  22483612.824    22483612.1104   22483614.4314
        42.7004         39.7004
  -4764581.76344  -3702771.63746  22927758.771    22927759.1654   22927763.5444
        41.5004         39.0004
 -10719339.42545  -7470838.54846  22221672.674    22221673.4554   22221675.2894
        44.4004         41.6004
   1482208.00243   1170214.78346  24767805.028    24767806.3864   24767809.9824
        38.7004         36.2004
  -6510597.61246  -5053453.96547  21802725.869    21802726.4344   21802727.5304
        46.5004         43.7004
 19 10 18  0 43  0.0000000  0  9G24G25G29G02G14G32G12G06G31
   5370952.30743   4223567.46445  24805513.204    24805512.6484   24805517.4094
        37.8004         35.9004
 -20173965.73447 -15699546.63647  20136589.498    20136588.9484   20136594.7664
        50.8004         47.8004
 -21412959.89146 -16650099.03047  20744227.447    20744227.9524   20744230.4084
        48.6004         45.8004
  -6559170.06645  -5088768.66046  23148455.390    23148454.0274   23148456.0394
        43.6004         40.7004
 -12309495.65944  -9574123.69546  22488026.003    22488025.6844   22488027.4964
        42.3004         39.5004
  -4687205.68044  -3642478.59646  22942482.202    22942483.4714   22942487.8294
        41.6004         39.2004
 -10636246.05645  -7406090.49046  22237485.324    22237485.1814   22237487.5014
        44.4004         41.8004
   1556808.76643   1228345.24545  24782001.892    24782000.7194   24782004.2394
        38.0004         35.5004
  -6578262.59146  -5106179.90947  21789849.429    21789849.3724   21789851.5294
        46.5004         43.5004
 19 10 18  0 43 30.0000000  0  9G24G25G29G02G14G32G12G06G31
   5482732.03543   4310668.57645  24826783.705    24826783.0394   24826787.8454
        38.0004         35.7004
 -20158165.84447 -15687235.03548  20139596.285    20139595.9484   20139601.4044
        51.0004         48.0004
 -21468384.87546 -16693287.31847  20733681.170    20733681.0534   20733683.4164
        48.6004         45.8004
  -6541271.92445  -5074822.05246  23151860.238    23151860.0114   23151861.6364
        43.6004         40.7004
 -12285752.26144  -9555622.35846  22492544.457    22492544.0114   22492544.9544
        42.2004         39.5004
  -4609470.63744  -3581905.84946  22957274.111    22957275.4494   22957280.4574
        41.8004         39.2004
 -10552968.56545  -7341198.96446  22253331.402    22253332.1524   22253334.3574
        44.2004         41.4004
   1631824.47342   1286799.05845  24796277.368    24796277.2004   24796280.1374
        37.5004         35.2004
  -6645552.13245  -5158613.32947  21777044.627    21777045.0254   21777046.0054
        46.3004         43.3004
 19 10 18  0 44  0.0000000  0  9G24G25G29G02G14G32G12G06G31
   5594571.69043   4397816.33145  24848065.525    24848065.7764   24848070.6144
        37.8004         35.5004
 -20141982.14547 -15674624.36448  20142676.057    20142675.3614   20142681.2314
        51.0004         48.0004
 -21523319.66946 -16736093.64347  20723227.004    20723226.7594   20723229.3214
        48.6004         45.8004
  -6522861.85244  -5060476.51646  23155363.843    23155363.0884   23155364.7504
        43.4004         40.6004
 -12261456.94644  -9536690.96446  22497167.220    22497166.7164   22497168.3974
        42.2004         39.7004
  -4531379.58944  -3521055.69346  22972134.661    22972135.5474   22972140.4794
        41.6004         39.2004
 -10469508.16045  -7276164.90846  22269214.600    22269214.1204   22269217.3254
        44.4004         41.4004
   1707252.73743   1345574.34345  24810630.174    24810630.4874   24810635.3524
        37.8004         35.7004
  -6712463.80045  -5210752.30047  21764311.885    21764311.2374   21764313.5014
        46.3004         43.2004
 19 10 18  0 44 30.0000000  0  9G24G25G29G02G14G32G12G06G31
   5706469.72843   4485009.59445  24869359.800    24869358.5884   24869365.5514
        37.8004         35.7004
 -20125414.95247 -15661714.86948  20145828.215    20145828.2294   20145833.8504
        51.0004         48.0004
 -21577763.51946 -16778517.40547  20712866.461    20712866.2644   20712868.9044
        48.6004         45.8004
  -6503940.19644  -5045732.35946  23158964.983    23158964.0574   23158965.6584
        43.4004         40.6004
 -12236610.88344  -9517330.41146  22501894.874    22501894.1914   22501898.3274
        42.3004         39.7004
  -4452935.44244  -3459930.40846  22987062.603    22987063.5374   22987068.2704
        41.8004         39.3004
 -10385866.23345  -7210989.38946  22285130.513    22285130.4944   22285133.7294
        44.4004         41.2004
   1783091.13443   1404669.21645  24825060.794    24825061.1744   24825067.5864
        38.0004         35.7004
  -6778996.04345  -5262595.60247  21751650.766    21751651.3554   21751652.5824
        46.2004         43.3004
 19 10 18  0 45  0.0000000  0  9G24G25G29G02G14G32G12G06G31
   5818423.72643   4572246.47945  24890664.111    24890664.3174   24890668.2654
        37.6004         35.3004
 -20108464.62047 -15648506.82048  20149054.201    20149053.8274   20149059.4804
        51.0004         48.2004
 -21631715.17546 -16820557.65047  20702599.973    20702599.9444   20702602.2134
        48.6004         45.8004
  -6484507.45545  -5030589.96746  23162662.116    23162662.0114   23162663.8074
        43.6004         40.7004
 -12211215.21144  -9497541.59246  22506726.709    22506726.5774   22506729.9424
        42.3004         39.5004
  -4374141.15744  -3398532.27446  23002056.603    23002057.1514   23002061.7554
        42.0004         39.2004
 -10302043.61345  -7145673.08646  22301081.730    22301081.3614   22301084.0284
        44.2004         41.2004
   1859337.15842   1464081.72445  24839569.696    24839569.2834   24839574.5274
        37.5004         35.2004
  -6845146.49845  -5314141.41547  21739063.517    21739063.5944   21739064.4664
        46.2004         43.2004
 19 10 18  0 45 30.0000000  0  9G24G25G29G02G14G32G12G06G31
   5930432.65843   4659526.14145  24911982.704    24911978.6654   24911982.7904
        37.6004         35.5004
 -20091131.43347 -15635000.44748  20152352.452    20152351.9824   20152357.6564
        51.0004         48.0004
 -21685174.02546 -16862213.88647  20692427.895    20692427.4934   20692429.3304
        48.8004         45.9004
  -6464564.21045  -5015049.75946  23166457.643    23166457.0504   23166458.1254
        43.6004         40.6004
 -12185271.27344  -9477325.55446  22511664.291    22511663.6544   22511666.9344
        42.2004         39.3004
  -4294999.64244  -3336863.56946  23017116.790    23017117.2784   23017120.7184
        41.6004         39.0004
 -10218041.24145  -7080216.70646  22317066.372    22317067.0234   22317070.4314
        44.2004         41.4004
   1935988.46342   1523810.00445  24854156.201    24854157.0734   24854160.6294
        37.0004         34.8004
  -6910913.22445  -5365388.21647  21726547.720    21726548.4794   21726549.3234
        46.2004         43.3004
 19 10 18  0 46  0.0000000  0  9G24G25G29G02G14G32G12G06G31
   6042494.69142   4746847.21645  24933304.190    24933302.3644   24933307.6594
        37.5004         35.3004
 -20073415.73047 -15621196.00148  20155723.487    20155723.4494   20155729.1934
        51.0004         48.2004
 -21738139.18846 -16903485.43847  20682348.062    20682348.4484   20682350.3844
        48.9004         46.1004
  -6444111.06245  -4999112.22746  23170351.348    23170349.8104   23170350.1924
        43.6004         40.9004
 -12158780.17344  -9456683.15646  22516705.227    22516704.7394   22516708.6684
        42.2004         39.3004
  -4215513.85144  -3274926.62346  23032241.699    23032242.2764   23032247.0604
        41.3004         38.3004
 -10133860.23045  -7014621.13946  22333085.500    22333085.3094   22333088.9524
        44.2004         41.2004
   2013042.49542   1583852.13145  24868819.489    24868818.5834   24868822.3824
        36.4004         34.3004
  -6976293.87446  -5416334.17847  21714106.731    21714107.0054   21714109.1784
        46.5004         43.9004
 19 10 18  0 46 30.0000000  0  9G24G25G29G02G14G32G12G06G31
   6154607.70342   4834208.00745  24954636.607    24954636.5454   24954642.4014
        37.1004         35.0004
 -20055317.82947 -15607093.74248  20159167.384    20159167.1444   20159172.7404
        51.0004         48.2004
 -21790609.40446 -16944371.31647  20672364.112    20672363.9504   20672365.7614
        48.9004         46.1004
  -6423148.68045  -4982777.89646  23174339.543    23174338.5284   23174339.0894
        43.6004         40.7004
 -12131743.15444  -9435615.36346  22521850.387    22521849.7874   22521852.3234
        42.0004         39.3004
  -4135686.79144  -3212723.72046  23047432.119    23047432.4324   23047438.9644
        41.1004         38.6004
 -10049501.15945  -6948886.82746  22349138.737    22349139.1324   22349141.5624
        44.1004         41.2004
   2090496.86942   1644206.20945  24883558.489    24883559.1604   24883562.2834
        36.8004         34.8004
  -7041286.43346  -5466977.73447  21701738.804    21701739.6924   21701741.0024
        46.7004         43.7004
 19 10 18  0 47  0.0000000  0  9G24G25G29G02G14G32G12G06G31
   6266770.08042   4921607.25945  24975979.663    24975979.8674   24975986.1934
        37.0004         34.8004
 -20036838.09547 -15592693.95448  20162684.710    20162684.2234   20162689.5114
        51.2004         48.2004
 -21842583.86846 -16984870.88547  20662473.030    20662472.9124   20662475.3544
        48.9004         45.9004
  -6401677.60545  -4966047.18946  23178424.545    23178424.0164   23178425.7404
        43.6004         40.4004
 -12104161.02444  -9414122.81446  22527099.671    22527098.7724   22527102.0214
        42.0004         39.3004
  -4055521.34044  -3150257.12346  23062687.992    23062687.3904   23062692.1224
        40.9004         38.1004
  -9964965.29145  -6883014.73146  22365225.028    22365224.6584   22365227.9514
        44.1004         41.1004
   2168349.08242   1704870.29645  24898372.328    24898372.1034   24898379.5674
        36.8004         34.8004
  -7105888.76746  -5517317.21247  21689445.925    21689446.2284   21689447.8934
        46.7004         43.7004
 19 10 18  0 47 30.0000000  0  9G24G25G29G02G14G32G12G06G31
   6378980.16942   5009043.68445  24997333.251    24997333.8114   24997340.2434
        37.1004         35.2004
 -20017976.83847 -15577996.86748  20166273.418    20166272.9334   20166278.4884
        51.2004         48.2004
 -21894062.06446 -17024983.75847  20652677.017    20652676.7154   20652679.3624
        48.8004         45.9004
  -6379698.55145  -4948920.65246  23182608.147    23182606.8854   23182608.0564
        43.6004         40.7004
 -12076035.85844  -9392207.11746  22532451.138    22532451.0744   22532453.1714
        42.0004         39.2004
  -3975020.56944  -3087529.27146  23078006.431    23078006.4804   23078012.2744
        40.8004         38.1004
  -9880253.45045  -6817005.53946  22381345.260    22381346.0434   22381348.0014
        44.1004         41.1004
   2246596.65242   1765842.43445  24913262.110    24913261.0104   24913267.4954
        36.6004         34.5004
  -7170099.02746  -5567351.19347  21677227.156    21677226.9344   21677229.0844
        46.9004         43.9004
 19 10 18  0 48  0.0000000  0  9G24G25G29G02G14G32G12G06G31
   6491236.02642   5096515.75345  25018694.967    25018694.1334   25018700.4614
        37.1004         35.0004
 -19998734.41847 -15563002.78248  20169935.031    20169934.7654   20169940.2874
        51.2004         48.2004
 -21945042.77646 -17064708.97847  20642975.301    20642975.7984   20642978.1334
        48.8004         45.9004
  -6357211.94044  -4931398.60646  23186886.874    23186886.1714   23186886.8294
        43.4004         40.7004
 -12047368.87444  -9369869.21046  22537907.033    22537905.7024   22537909.4884
        42.2004         39.5004
  -3894187.33244  -3024542.35446  23093388.582    23093389.0084   23093394.2294
        40.8004         38.1004
  -9795366.86545  -6750860.17446  22397498.912    22397499.4944   22397501.7044
        44.2004         41.2004
   2325237.03542   1827120.66445  24928228.829    24928228.1634   24928232.5924
        36.6004         34.6004
  -7233915.02646  -5617077.94447  21665082.887    21665083.2974   21665085.0794
        46.9004         44.0004
 19 10 18  0 48 30.0000000  0  9G24G25G29G02G14G32G12G06G31
   6603535.89042   5184022.12245  25040068.385    25040065.9184   25040070.5694
        37.0004         34.8004
 -19979111.15147 -15547711.92348  20173669.431    20173668.8534   20173674.4864
        51.2004         48.2004
 -21995525.11046 -17104045.84947  20633368.855    20633368.8394   20633371.9314
        48.8004         45.9004
  -6334218.58244  -4913481.68046  23191261.096    23191260.4354   23191261.9844
        43.4004         40.6004
 -12018160.97844  -9347109.82446  22543464.940    22543464.2714   22543467.3124
        42.3004         39.7004
  -3813024.73444  -2961298.75946  23108832.848    23108833.7514   23108838.6994
        40.8004         38.1004
  -9710306.11445  -6684579.09746  22413686.163    22413685.9454   22413687.9304
        44.1004         41.2004
   2404267.88242   1888703.13045  24943266.270    24943265.9994   24943270.2314
        36.1004         34.3004
  -7297334.89346  -5666496.02547  21653015.469    21653015.2044   21653017.1974
        47.0004         44.2004
 19 10 18  0 49  0.0000000  0  9G24G25G29G02G14G32G12G06G31
   6715878.02142   5271561.45245  25061447.084    25061443.0094   25061448.9794
        37.5004         35.5004
 -19959107.40447 -15532124.59348  20177475.962    20177475.7694   20177481.1114
        51.2004         48.2004
 -22045508.38546 -17142993.84747  20623858.080    20623858.0224   20623860.4144
        48.8004         46.1004
  -6310719.33544  -4895170.57646  23195733.264    23195732.5184   23195734.8604
        43.4004         40.6004
 -11988413.40344  -9323929.91646  22549125.329    22549125.1154   22549128.1444
        42.3004         39.7004
  -3731535.70544  -2897800.83146  23124340.396    23124340.9504   23124345.0044
        40.8004         38.1004
  -9625072.73945  -6618163.49946  22429905.034    22429905.0604   22429908.4384
        44.2004         41.6004
   2483686.57142   1950587.87145  24958379.649    24958380.0444   24958382.1264
        35.6004         33.6004
  -7360356.51846  -5715603.78747  21641022.786    21641022.5794   21641024.0804
        47.0004         44.2004
 19 10 18  0 49 30.0000000  0  9G24G25G29G02G14G32G12G06G31
   6828260.69042   5359132.38945  25082833.205    25082829.3184   25082834.4484
        37.3004         35.2004
 -19938723.53347 -15516241.05948  20181354.948    20181354.7424   20181360.0954
        51.2004         48.2004
 -22094991.66046 -17181552.22947  20614441.644    20614441.5304   20614443.8324
        48.9004         46.1004
  -6286714.71445  -4876465.66546  23200301.993    23200301.2044   23200302.2554
        43.6004         40.9004
 -11958127.88144  -9300330.83046  22554888.621    22554888.2024   22554891.4494
        42.3004         39.5004
  -3649723.26643  -2834050.88246  23139907.876    23139908.1184   23139914.1904
        40.4004         37.6004
  -9539667.50445  -6551613.99346  22446157.911    22446157.6914   22446159.3694
        44.2004         41.2004
   2563490.57042   2012772.86445  24973563.089    24973564.4984   24973571.4894
        34.5004         32.7004
  -7422977.62446  -5764399.45047  21629105.977    21629106.1314   21629108.0034
        47.0004         44.2004
 19 10 18  0 50  0.0000000  0  9G24G25G29G02G14G32G12G06G31
   6940682.25242   5446733.58545  25104227.346    25104222.1864   25104227.8704
        37.1004         35.0004
 -19917959.88147 -15500061.59748  20185306.230    20185305.7544   20185311.1624
        51.2004         48.2004
 -22143974.36646 -17219720.56747  20605119.956    20605120.2594   20605122.3334
        48.9004         45.9004
  -6262205.51245  -4857367.56746  23204965.928    23204964.9884   23204967.6024
        43.6004         40.9004
 -11927305.84144  -9276313.66446  22560753.250    22560753.1334   22560756.6604
        42.2004         39.5004
  -3567590.42844  -2770051.26846  23155537.890    23155538.1184   23155543.0964
        40.6004         37.9004
  -9454090.95145  -6484930.98546  22462442.092    22462442.5584   22462444.2344
        44.1004         41.2004
   2643677.42042   2075256.07545  24988823.478    24988825.6494   24988831.9934
        34.5004         32.9004
  -7485196.44146  -5812881.64447  21617266.519    21617267.0194   21617267.6384
        47.2004         44.2004
 19 10 18  0 50 30.0000000  0  9G24G25G29G02G14G32G12G06G31
   7053141.01442   5534363.78645  25125627.583    25125624.1234   25125627.8904
        37.1004         35.0004
 -19896816.81247 -15483586.48748  20189329.662    20189329.1564   20189334.7004
        51.2004         48.0004
 -22192455.46246 -17257498.03847  20595894.675    20595894.4804   20595896.9564
        48.9004         46.1004
  -6237192.41445  -4837876.84346  23209725.661    23209724.9794   23209726.8704
        43.7004         40.9004
 -11895948.59144  -9251879.46546  22566720.946    22566720.7644   22566723.5224
        42.2004         39.5004
  -3485140.20043  -2705804.35646  23171228.248    23171229.4304   23171233.5094
        40.4004         37.9004
  -9368344.26745  -6418115.41546  22478758.551    22478759.9874   22478761.6584
        44.1004         41.2004
   2724244.58852   2138035.75355  25004156.281    25004154.9594   25004161.1774
        34.7004         33.6004
  -7547010.74646  -5861048.64147  21605503.124    21605503.4404   21605504.3794
        47.0004         43.9004
 19 10 18  0 51  0.0000000  0  9G24G25G29G02G14G32G12G06G31
   7165634.88842   5622021.33545  25147034.874    25147030.0734   25147035.3734
        37.3004         35.3004
 -19875294.67547 -15466815.98948  20193425.237    20193424.8224   20193430.2424
        51.0004         48.0004
 -22240434.30646 -17294884.13747  20586764.734    20586764.9904   20586766.7824
        48.9004         46.1004
  -6211676.17645  -4817994.05046  23214581.344    23214580.2464   23214581.4134
        43.7004         40.7004
 -11864057.33144  -9227029.15546  22572789.999    22572789.7804   22572791.9954
        42.2004         39.3004
  -3402375.58543  -2641312.44846  23186976.519    23186977.8364   23186982.4764
        40.4004         37.6004
  -9282428.45145  -6351168.04646  22495108.707    22495109.0174   22495109.7694
        44.1004         41.2004
   2805189.45741   2201109.64645  25019558.663    25019560.8754   25019562.1384
        34.2004         32.7004
  -7608418.58546  -5908898.90847  21593817.776    21593817.9164   21593818.8204
        46.9004         44.0004
 19 10 18  0 51 30.0000000  0  9G24G25G29G02G14G32G12G06G31
   7278162.15542   5709704.94045  25168446.738    25168442.8064   25168448.3314
        37.1004         35.0004
 -19853393.86647 -15449750.43448  20197592.767    20197592.2294   20197597.6854
        51.0004         48.0004
 -22287910.04946 -17331878.21547  20577730.525    20577730.4584   20577732.5544
        49.1004         46.3004
  -6185657.71644  -4797719.92046  23219531.433    23219531.4274   23219532.2534
        43.4004         40.6004
 -11831633.78244  -9201764.08246  22578959.725    22578959.2344   22578961.6204
        42.0004         39.3004
  -3319299.61444  -2576577.93946  23202787.140    23202786.9274   23202792.3134
        40.6004         38.1004
  -9196344.44645  -6284089.63246  22511488.626    22511489.7874   22511492.9364
        43.9004         41.2004
   2886509.60342   2264476.01145  25035032.090    25035032.4004   25035038.1854
        34.9004         33.4004
  -7669417.92046  -5956430.86247  21582209.850    21582209.8034   21582211.2034
        46.9004         43.9004
 19 10 18  0 52  0.0000000  0  9G24G25G29G02G14G32G12G06G31
   7390721.54042   5797413.53045  25189865.954    25189862.1744   25189866.8814
        37.1004         35.0004
 -19831114.72347 -15432390.06647  20201832.173    20201831.7874   20201837.2414
        51.0004         47.8004
 -22334882.26646 -17368479.93047  20568792.391    20568791.8754   20568793.8424
        49.1004         46.3004
  -6159137.80944  -4777055.05046  23224578.861    23224577.4984   23224579.3184
        43.4004         40.6004
 -11798679.29344  -9176085.26146  22585230.234    22585231.2084   22585232.6994
        42.0004         39.2004
  -3235915.29544  -2511603.16246  23218654.423    23218654.7644   23218658.9794
        40.6004         38.1004
  -9110093.29745  -6216880.96646  22527903.242    22527903.6524   22527904.9304
        43.9004         40.9004
   2968202.49151   2328132.82555  25050577.311    25050574.9924   25050584.8884
        33.5004         31.5004
  -7730006.59246  -6003642.81347  21570679.766    21570680.1414   21570681.7904
        46.9004         44.2004
 19 10 18  0 52 30.0000000  0  9G24G25G29G02G14G32G12G06G31
   7503310.97442   5885145.53745  25211289.297    25211287.4394   25211293.7274
        37.0004         35.0004
 -19808457.59247 -15414735.17147  20206143.534    20206143.2634   20206148.8144
        50.8004         47.8004
 -22381349.93146 -17404688.49347  20559949.084    20559949.1344   20559950.9974
        49.1004         46.1004
  -6132117.26944  -4756000.07346  23229719.056    23229718.6774   23229721.1904
        43.0004         40.2004
 -11765194.99644  -9149993.61646  22591602.881    22591602.7344   22591604.3344
        41.8004         39.2004
  -3152225.68744  -2446390.49846  23234580.305    23234580.6354   23234585.6084
        40.9004         38.6004
  -9023675.85945  -6149542.70246  22544346.211    22544346.7894   22544348.9864
        43.9004         41.1004
   3050265.34941   2392077.97145  25066192.703    25066196.5654   25066204.0544
        33.1004         32.2004
  -7790182.69446  -6050533.28047  21559229.410    21559229.1074   21559231.2784
        47.0004         44.4004
 19 10 18  0 53  0.0000000  0  9G24G25G29G02G14G32G12G06G31
   7615928.53942   5972899.46445  25232722.057    25232716.7364   25232724.2514
        37.0004         34.8004
 -19785422.91447 -15396786.06847  20210527.142    20210526.7724   20210531.9144
        50.8004         47.8004
 -22427312.31546 -17440503.33647  20551202.874    20551202.8854   20551204.8184
        49.1004         46.3004
  -6104596.66844  -4734555.46046  23234956.605    23234956.3744   23234957.0624
        43.0004         40.4004
 -11731182.83844  -9123490.64946  22598075.222    22598074.9114   22598076.9244
        42.0004         39.3004
  -3068233.89344  -2380942.35046  23250563.665    23250562.6504   23250567.2734
        41.1004         38.3004
  -8937093.11545  -6082075.68646  22560824.251    22560823.3174   22560825.9144
        43.9004         40.9004
   3132695.87451   2456309.57755  25081878.668    25081882.0364   25081889.6934
        33.0004         32.2004
  -7849944.36246  -6097100.81447  21547855.849    21547856.9114   21547858.5654
        47.0004         44.4004
 19 10 18  0 53 30.0000000  0  9G24G25G29G02G14G32G12G06G31
   7728572.87042   6060674.24845  25254157.297    25254152.4684   25254159.7354
        37.0004         35.2004
 -19762011.02647 -15378543.04947  20214982.316    20214981.8194   20214987.3364
        50.8004         47.8004
 -22472769.08846 -17475924.18947  20542552.823    20542552.6394   20542554.8464
        49.1004         46.3004
  -6076577.13044  -4712722.02746  23240289.155    23240288.0314   23240288.4094
        42.9004         40.0004
 -11696644.57844  -9096577.73446  22604647.782    22604647.1154   22604649.2154
        42.2004         39.3004
  -2983942.79144  -2315260.99646  23266603.357    23266603.6414   23266608.0174
        41.1004         38.5004
  -8850346.03045  -6014480.55146  22577330.814    22577331.6384   22577333.2354
        43.9004         41.1004
   3215491.25751   2520825.42655  25097635.452    25097635.9374   25097644.0874
        33.1004         32.2004
  -7909289.62446  -6143343.87547  21536564.025    21536563.7514   21536565.5664
        47.4004         44.5004
 19 10 18  0 54  0.0000000  0  9G24G25G29G02G14G32G12G06G31
   7841241.66442   6148468.10245  25275599.413    25275592.6644   25275599.5914
        37.0004         34.8004
 -19738222.33247 -15360006.40747  20219508.929    20219508.4764   20219513.8954
        50.8004         47.8004
 -22517719.28346 -17510950.31047  20533999.033    20533998.8224   20534001.3014
        49.1004         46.3004
  -6048059.57644  -4690500.53646  23245715.211    23245714.5844   23245715.6394
        42.9004         40.0004
 -11661581.45844  -9069255.84346  22611319.457    22611318.8814   22611322.5704
        42.0004         39.2004
  -2899355.56244  -2249348.87346  23282700.105    23282699.7634   23282705.1584
        41.3004         38.8004
  -8763435.34745  -5946757.97246  22593870.163    22593869.4144   22593872.1924
        43.7004         40.9004
   3298649.07051   2585623.74855  25113458.634    25113459.8314
        32.8004         31.9004
  -7968216.36846  -6189260.81947  21525349.813    21525350.2894   21525351.5954
        47.4004         44.4004
 19 10 18  0 54 30.0000000  0  9G24G25G29G02G14G32G12G06G31
   7953933.62542   6236280.02245  25297042.301    25297036.8744   25297043.7744
        36.8004         34.6004
 -19714057.18547 -15341176.43347  20224107.933    20224107.3534   20224112.6304
        50.8004         47.8004
 -22562162.45646 -17545581.34447  20525542.026    20525541.9514   20525543.9724
        49.3004         46.5004
  -6019044.76644  -4667891.58846  23251236.556    23251236.5864   23251236.7874
        42.9004         40.4004
 -11625995.01244  -9041526.17146  22618091.415    22618091.4174   22618093.2664
        41.8004         39.0004
  -2814475.19344  -2183208.33546  23298851.241    23298852.1444   23298856.4484
        41.3004         38.3004
  -8676362.13245  -5878908.74046  22610438.282    22610438.6074   22610440.5584
        43.6004         40.7004
   3382166.84551   2650702.55455  25129348.942    25129346.5154   25129361.2664
        32.8004         31.9004
  -8026722.46246  -6234849.98147  21514216.751    21514216.9254   21514218.7394
        47.4004         44.4004
 19 10 18  0 55  0.0000000  0  9G24G25G29G02G14G32G12G06G31
   8066646.21742   6324107.99845  25318493.934    25318485.7244   25318491.9244
        37.0004         34.8004
 -19689516.01447 -15322053.44347  20228777.400    20228777.0144   20228782.5844
        50.8004         47.8004
 -22606097.37246 -17579816.33647  20517181.357    20517181.3314   20517183.5734
        49.3004         46.5004
  -5989533.61044  -4644895.86946  23256853.540    23256853.1894   23256853.3994
        43.0004         40.2004
 -11589887.03544  -9013390.11146  22624962.450    22624962.3424   22624965.0804
        41.6004         39.0004
  -2729304.75344  -2116841.77446  23315058.619    23315057.5404   23315063.7114
        40.6004         37.8004
  -8589127.09945  -5810933.41146  22627039.566    22627039.6504   22627041.2574
        43.6004         40.9004
   3466041.71251   2716059.59055  25145312.873    25145312.7274   25145321.7264
        33.3004         32.4004
  -8084806.01646  -6280109.90047  21503163.395    21503164.3034   21503165.7334
        47.4004         44.5004
 19 10 18  0 55 30.0000000  0  9G24G25G29G02G14G32G12G06G31
   8179378.50042   6411951.33345  25339946.466    25339937.5244   25339945.3514
        37.0004         35.0004
 -19664599.15547 -15302637.71447  20233519.164    20233518.8854   20233524.1264
        50.8004         47.8004
 -22649523.90146 -17613655.17847  20508917.362    20508917.3604   20508919.8744
        49.3004         46.6004
  -5959527.13544  -4621514.19546  23262563.741    23262563.7564   23262564.0684
        43.4004         40.7004
 -11553258.99144  -8984848.81046  22631932.974    22631931.9284   22631934.6944
        41.6004         39.0004
  -2643847.29843  -2050251.58446  23331321.152    23331321.6774   23331326.0484
        40.4004         37.9004
  -8501731.62844  -5742833.07946  22643668.881    22643669.6834   22643672.4714
        43.4004         40.2004
   3550271.16251   2781693.03155  25161342.385    25161346.5164   25161347.6674
        33.3004         32.4004
  -8142465.13646  -6325039.07547  21492192.104    21492192.0464   21492193.7124
        47.5004         44.4004
 19 10 18  0 56  0.0000000  0  9G24G25G29G02G14G32G12G06G31
   8292128.52042   6499808.48045  25361399.095    25361392.9844   25361400.6404
        36.6004         34.6004
 -19639307.06647 -15282929.59247  20238332.186    20238331.8284   20238337.0734
        50.8004         47.8004
 -22692441.56846 -17647097.50747  20500750.478    20500750.3794   20500753.0114
        49.5004         46.6004
  -5929026.22744  -4597747.24246  23268367.518    23268367.0554   23268368.2364
        43.4004         40.7004
 -11516112.41044  -8955903.43646  22639001.193    22639000.5934   22639004.9024
        41.6004         38.8004
  -2558105.92943  -1983440.14346  23347636.935    23347637.4364   23347642.6834
        40.3004         37.8004
  -8414176.61444  -5674608.41346  22660330.038    22660331.3374   22660332.2814
        43.2004         40.4004
   3634852.81051   2847600.80955  25177439.224    25177437.1394
        32.6004         31.7004
  -8199697.85646  -6369636.00447  21481300.862    21481301.2354   21481302.2754
        47.4004         44.4004
 19 10 18  0 56 30.0000000  0  9G24G25G29G02G14G32G12G06G31
   8404894.56642   6587678.10545  25382853.670    25382852.7454   25382857.8184
        36.6004         34.6004
 -19613640.10147 -15262929.37047  20243216.110    20243215.8154   20243221.4774
        50.8004         47.8004
 -22734849.76446 -17680142.85047  20492680.646    20492680.2924   20492682.6344
        49.3004         46.5004
  -5898031.72044  -4573595.67446  23274266.211    23274265.0414   23274265.7644
        43.4004         40.6004
 -11478448.99244  -8926555.34146  22646168.716    22646168.1644   22646170.9114
        41.6004         39.2004
  -2472083.73443  -1916409.85046  23364006.213    23364006.2004   23364011.4434
        40.1004         37.3004
  -8326462.54744  -5606259.81646  22677022.499    22677022.5014   22677024.7874
        43.2004         40.4004
   3719783.79351   2913780.81355  25193595.722    25193601.1494
        31.9004         31.2004
  -8256502.36146  -6413899.25847  21470491.541    21470491.7474   21470492.8144
        47.4004         44.5004
 19 10 18  0 57  0.0000000  0  9G24G25G29G02G14G32G12G06G31
   8517674.22442   6675558.34245  25404312.732    25404311.7634   25404319.3844
        36.4004         34.3004
 -19587598.69847 -15242637.37647  20248171.963    20248171.5604   20248176.7954
        50.8004         47.8004
 -22776747.51046 -17712790.43447  20484707.371    20484707.1284   20484709.8084
        49.3004         46.5004
  -5866544.63344  -4549060.28646  23280257.372    23280256.9944   23280257.2784
        43.4004         40.7004
 -11440270.57644  -8896805.94746  22653434.545    22653434.2194   22653435.9894
        41.8004         39.3004
  -2385783.65343  -1849163.05346  23380429.252    23380430.2684   23380432.4694
        39.7004         37.3004
  -8238590.67744  -5537788.24046  22693744.223    22693743.8814   22693745.8194
        43.2004         40.4004
                   2980232.10555  25209830.238
                        30.8004
  -8312876.43846  -6457827.10147  21459763.528    21459763.8994   21459765.3494
        47.4004         44.5004
 19 10 18  0 57 30.0000000  0  9G24G25G29G02G14G32G12G06G31
   8630466.92842   6763448.76845  25425778.191    25425776.4714   25425784.4504
        36.1004         34.1004
 -19561183.20647 -15222053.87947  20253198.657    20253198.1764   20253203.7054
        50.8004         47.8004
 -22818134.50446 -17745040.03447  20476831.681    20476831.8214   20476834.5054
        49.3004         46.6004
  -5834566.02444  -4524141.87346  23286342.195    23286341.2924   23286342.8784
        43.4004         40.2004
 -11401578.71844  -8866656.46846  22660796.510    22660795.7504   22660798.9344
        41.8004         38.8004
  -2299208.88643  -1781702.22446  23396904.615    23396904.7904   23396908.0994
        39.9004         37.6004
  -8150561.94544  -5469194.46546  22710496.318    22710496.7724   22710496.8144
        43.2004         40.6004
                     12837.11453  25226119.952
                        23.4004
  -8368818.16246  -6501418.04947  21449118.980    21449118.6354   21449119.8174
        47.5004         44.5004
 19 10 18  0 58  0.0000000  0  9G24G25G29G02G14G32G12G06G31
   8743270.44042   6851347.59945  25447245.142    25447244.3434   25447250.2224
        35.9004         34.1004
 -19534394.09147 -15201179.24747  20258296.579    20258295.9024   20258301.4294
        50.8004         47.8004
 -22859010.13446 -17776891.16547  20469053.363    20469053.5074   20469055.8774
        49.3004         46.6004
  -5802096.88144  -4498841.23246  23292520.996    23292520.3814   23292522.4614
        43.2004         40.4004
 -11362375.28044  -8836108.35246  22668256.005    22668255.0254   22668258.7174
        41.3004         38.5004
  -2212362.52943  -1714029.71546  23413429.797    23413430.0364   23413435.0534
        40.1004         37.6004
  -8062377.09244  -5400478.99946  22727276.415    22727276.7914   22727278.7094
        43.2004         40.6004
                     79824.27754  25242479.305
                        28.4004
  -8424325.50146  -6544670.52347  21438555.807    21438556.0954   21438557.0974
        47.7004         44.9004
 19 10 18  0 58 30.0000000  0  9G24G25G29G02G14G32G12G06G31
   8856082.25942   6939252.89545  25468711.683    25468709.2534   25468718.4234
        35.6004         33.8004
 -19507231.76647 -15180013.80447  20263465.211    20263464.5724   20263470.3014
        50.8004         47.8004
 -22899374.41646 -17808343.83947  20461372.522    20461372.5804   20461374.8394
        49.3004         46.6004
  -5769138.32344  -4473159.22346  23298793.317    23298791.8514   23298793.9524
        43.0004         40.4004
 -11322661.83644  -8805162.81746  22675813.785    22675813.4924   22675815.6774
        40.9004         38.5004
  -2125247.65443  -1646148.01946  23430007.302    23430006.7424   23430013.0084
        40.3004         37.8004
  -7974037.15544  -5331642.71146  22744087.449    22744086.6114   22744088.6034
        43.2004         40.2004
                    147085.52555  25258902.787
                        30.1004
  -8479396.87646  -6587583.28547  21428075.946    21428075.8544   21428077.2574
        47.7004         44.7004
 19 10 18  0 59  0.0000000  0  8G25G29G02G14G32G12G06G31
 -19479696.60947 -15158557.84247  20268704.667    20268704.5214   20268709.7594
        50.8004         47.7004
 -22939226.21446 -17839397.17847  20453789.059    20453788.8834   20453791.1994
        49.3004         46.5004
  -5735691.47544  -4447096.74046  23305156.958    23305156.5914   23305158.0664
        43.0004         40.4004
 -11282439.96044  -8773821.11146  22683467.707    22683467.6834   22683470.0794
        41.1004         38.6004
  -2037867.27044  -1578059.42946  23446635.996    23446635.9414   23446640.0064
        40.6004         38.1004
  -7885542.77544  -5262686.08246  22760927.246    22760927.3374   22760928.7614
        43.2004         40.6004
                      7355.30753  25275392.856
                        23.4004
  -8534030.19346  -6630154.70947  21417679.800    21417680.0564   21417680.9524
        47.9004         45.1004
 19 10 18  0 59 30.0000000  0  8G25G29G02G14G32G12G06G31
 -19451789.05747 -15136811.70247  20274015.681    20274015.2844   20274020.6094
        50.7004         47.8004
 -22978565.28346 -17870050.99147  20446302.900    20446302.9954   20446305.0764
        49.3004         46.5004
  -5701757.21244  -4420654.47346  23311614.937    23311614.4484   23311615.5064
        42.9004         40.2004
 -11241711.92144  -8742084.98946  22691218.862    22691218.0514   22691219.7144
        41.1004         38.3004
  -1950224.55543  -1509766.43946  23463312.017    23463312.5404   23463318.2324
        40.3004         37.4004
  -7796895.22344  -5193610.10646  22777797.400    22777797.4494   22777798.1574
        43.2004         40.6004
                     75145.16354  25291943.661
                        28.9004
  -8588223.24346  -6672383.06047  21407366.774    21407367.1994   21407368.8864
        47.9004         45.1004
 19 10 18  1  0  0.0000000  0  7G25G29G02G14G32G12G31
 -19423509.53347 -15114775.71347  20279396.719    20279396.6174   20279401.9124
        50.7004         47.7004
 -23017391.18246 -17900304.93247  20438914.296    20438914.6324   20438916.7934
        49.3004         46.6004
  -5667336.52444  -4393833.12946  23318164.326    23318164.0064   23318164.4694
        42.9004         40.0004
 -11200479.34444  -8709955.75246  22699064.502    22699064.1874   22699066.3254
        40.9004         38.1004
  -1862322.54243  -1441271.36346  23480040.099    23480040.8934   23480045.9014
        40.3004         37.8004
  -7708095.23544  -5124415.32646  22794694.129    22794694.8784   22794695.8784
        43.0004         40.2004
  -8641974.41346  -6714267.09747  21397138.733    21397139.2544   21397140.4704
        47.9004         45.1004
 19 10 18  1  0 30.0000000  0  7G25G29G02G14G32G12G31
 -19394858.46747 -15092450.20947  20284848.904    20284848.5904   20284854.0274
        50.7004         47.8004
 -23055703.50746 -17930158.68847  20431623.608    20431623.5584   20431625.9034
        49.3004         46.5004
  -5632430.70644  -4366633.79346  23324807.233    23324806.5824   23324807.7464
        42.9004         40.2004
 -11158744.10144  -8677434.79446  22707006.033    22707006.4284   22707008.6774
        41.1004         38.6004
  -1774164.33743  -1372576.68746  23496816.729    23496816.7994   23496821.8624
        40.4004         37.9004
  -7619143.80744  -5055102.55146  22811621.475    22811620.9204   22811623.2634
        43.0004         40.4004
  -8695281.90146  -6755805.40147  21386994.421    21386994.7704   21386995.8544
        48.1004         45.1004
 19 10 18  1  1  0.0000000  0  7G25G29G02G14G32G12G31
 -19365836.25947 -15069835.50847  20290371.926    20290371.3754   20290376.8584
        50.7004         47.7004
 -23093501.61446 -17959611.74747  20424431.131    20424430.8864   20424433.4904
        49.5004         46.6004
  -5597040.63444  -4339057.08746  23331541.265    23331541.2954   23331542.4154
        43.0004         40.4004
 -11116507.70444  -8644523.32646  22715043.992    22715043.4714   22715046.6354
        41.3004         38.6004
  -1685753.08743  -1303684.82446  23513640.256    23513640.3004   23513645.7514
        40.3004         37.4004
  -7530041.52844  -4985672.23346  22828576.562    22828576.8094   22828578.2914
        42.9004         40.0004
  -8748143.81646  -6796996.50247  21376935.123    21376935.5204   21376936.7304
        47.9004         45.1004
 19 10 18  1  1 30.0000000  0  7G25G29G02G14G32G12G31
 -19336443.36647 -15046931.96247  20295965.199    20295964.9614   20295969.9544
        50.7004         47.8004
 -23130785.09846 -17988663.80947  20417335.851    20417336.1714   20417338.5034
        49.5004         46.6004
  -5561167.70344  -4311104.15446  23338367.991    23338367.4754   23338368.6464
        43.0004         40.2004
 -11073772.03544  -8611222.81046  22723175.951    22723175.9914   22723178.2954
        41.1004         38.5004
  -1597091.84243  -1234598.15346  23530511.414    23530512.4234   23530516.9104
        39.9004         37.4004
  -7440789.62244  -4916125.30846  22845561.092    22845561.1644   22845562.7214
        42.9004         40.0004
  -8800558.03046  -6837838.73847  21366960.944    21366960.7704   21366962.5814
        47.9004         44.9004
 19 10 18  1  2  0.0000000  0  7G25G29G02G14G32G12G31
 -19306680.33147 -15023739.99247  20301629.125    20301628.5904   20301633.9124
        50.8004         47.8004
 -23167553.65946 -18017314.62747  20410339.378    20410339.5934   20410341.8184
        49.5004         46.8004
  -5524812.98544  -4282775.79546  23345287.479    23345286.4314   23345285.4704
        42.7004         39.9004
 -11030539.23644  -8577534.93246  22731403.262    22731402.7064   22731404.9324
        40.9004         38.5004
  -1508183.74643  -1165319.13846  23547429.816    23547431.1014   23547437.1534
        40.4004         38.1004
  -7351388.88944  -4846462.43646  22862574.722    22862573.9194   22862575.2784
        42.9004         40.4004
  -8852522.75346  -6878330.73347  21357072.352    21357072.7444   21357074.2754
        47.9004         44.9004
 19 10 18  1  2 30.0000000  0  7G25G29G02G14G32G12G31
 -19276547.39047 -15000259.78247  20307362.926    20307362.9504   20307367.9184
        50.7004         47.8004
 -23203806.92547 -18045563.91647  20403440.953    20403440.5734   20403442.9354
        49.6004         46.8004
  -5487977.54544  -4254072.84546  23352297.075    23352296.0384   23352295.3264
        42.7004         40.0004
 -10986811.02044  -8543461.02946  22739724.974    22739725.0684   22739726.1604
        41.1004         38.6004
  -1419031.89044  -1095850.14646  23564394.762    23564396.0044   23564400.7724
        40.6004         37.9004
  -7261840.28344  -4776684.32446  22879613.175    22879613.5344   22879616.4704
        42.7004         40.0004
  -8904036.20546  -6918471.08547  21347270.072    21347270.1454   21347271.6054
        47.7004         44.9004
 19 10 18  1  3  0.0000000  0  7G25G29G02G14G32G12G31
 -19246045.07347 -14976491.74547  20313167.380    20313166.8764   20313172.3074
        50.7004         47.7004
 -23239544.56647 -18073411.41947  20396639.689    20396640.2124   20396642.5074
        49.6004         47.0004
  -5450662.60144  -4224996.25146  23359396.999    23359396.7344   23359396.5844
        42.7004         40.0004
 -10942589.29844  -8509002.55646  22748139.810    22748138.8324   22748142.1204
        41.3004         38.6004
  -1329639.38243  -1026193.66946  23581405.992    23581406.3084   23581411.5224
        40.4004         37.9004
  -7172144.80744  -4706791.76446  22896682.976    22896683.2074   22896684.4504
        42.7004         39.9004
  -8955096.49246  -6958258.31947  21337553.571    21337553.8924   21337554.9744
        47.7004         44.9004
 19 10 18  1  3 30.0000000  0  7G25G29G02G14G32G12G31
 -19215173.80247 -14952436.21647  20319042.199    20319041.9144   20319046.8714
        50.7004         47.7004
 -23274766.60647 -18100857.15647  20389937.562    20389937.4464   20389939.9834
        49.6004         46.8004
  -5412869.34644  -4195546.96846  23366589.593    23366588.7884   23366587.7054
        42.9004         39.9004
 -10897876.07144  -8474161.09246  22756647.191    22756647.3204   22756650.3654
        41.1004         38.3004
  -1240009.34444   -956352.12046  23598462.928    23598463.2564   23598469.1224
        40.8004         38.3004
  -7082303.13244  -4636785.29046  22913779.283    22913779.4514   22913780.6354
        42.5004         39.9004
  -9005701.75646  -6997691.00447  21327923.833    21327924.1554   21327925.0954
        47.9004         45.1004
 19 10 18  1  4  0.0000000  0  7G25G29G02G14G32G12G31
 -19183934.08747 -14928093.58147  20324986.496    20324986.4824   20324991.6574
        50.7004         47.7004
 -23309472.17147 -18127900.44147  20383332.867    20383332.8934   20383335.5364
        49.6004         46.8004
  -5374599.00444  -4165725.91146  23373871.368    23373870.7234   23373871.0124
        42.9004         40.0004
 -10852673.26644  -8438938.13646  22765249.896    22765249.3904   22765252.4604
        41.1004         38.6004
  -1150144.84544   -886327.82246  23615562.238    23615563.1504   23615569.6884
        40.8004         37.9004
  -6992315.83844  -4566665.34446  22930903.160    22930903.5734   22930906.1434
        42.5004         39.9004
  -9055850.18846  -7036767.71247  21318380.801    21318381.0644   21318381.9514
        47.9004         45.1004
 19 10 18  1  4 30.0000000  0  7G25G29G02G14G32G12G31
 -19152326.32347 -14903464.16347  20331001.729    20331001.0874   20331006.5014
        50.7004         47.7004
 -23343660.79247 -18154540.91547  20376827.112    20376827.1564   20376829.8034
        49.6004         46.8004
  -5335852.70544  -4135533.98446  23381244.012    23381244.0174   23381244.2504
        42.9004         40.0004
 -10806982.91044  -8403335.28746  22773945.501    22773944.0814   22773946.8024
        41.3004         38.8004
  -1060049.08643   -816123.36046  23632706.651    23632707.9764   23632712.5614
        40.4004         37.8004
  -6902184.04744  -4496432.81846  22948054.603    22948055.0944   22948056.0384
        42.5004         39.7004
  -9105539.85146  -7075486.92947  21308925.262    21308925.2434   21308926.5624
        47.9004         45.1004
 19 10 18  1  5  0.0000000  0  7G25G29G02G14G32G12G31
 -19120350.99147 -14878548.32647  20337085.850    20337085.6544   20337091.0994
        50.7004         47.7004
 -23377332.74547 -18180778.79347  20370419.884    20370419.5654   20370422.0594
        49.6004         47.0004
  -5296631.71144  -4104972.18346  23388707.566    23388706.9834   23388707.8224
        42.7004         39.9004
 -10760806.91644  -8367354.01146  22782731.270    22782731.8074   22782733.8594
        41.3004         38.6004
   -969725.05743   -745741.02646  23649896.755    23649897.6234   23649902.4684
        40.3004         37.8004
  -6811908.92244  -4426088.59046  22965232.858    22965232.5684   22965235.9964
        42.3004         39.3004
  -9154768.95346  -7113847.27847  21299557.227    21299557.2134   21299558.6604
        48.1004         45.2004
 19 10 18  1  5 30.0000000  0  7G25G29G02G14G32G12G31
 -19088008.54247 -14853346.42347  20343240.919    20343240.2214   20343245.5204
        50.7004         47.7004
 -23410487.03147 -18206613.29547  20364110.584    20364110.5054   20364113.0614
        49.8004         47.0004
  -5256937.41944  -4074041.55746  23396260.711    23396260.7024   23396261.9114
        42.7004         39.9004
 -10714147.16444  -8330995.78746  22791610.627    22791610.3404   22791613.0854
        41.3004         38.6004
   -879176.03843   -675183.32946  23667127.127    23667126.5324   23667130.5644
        40.3004         37.6004
  -6721491.00244  -4355633.09446  22982438.980    22982438.8124   22982441.9794
        42.2004         39.3004
  -9203535.83646  -7151847.45047  21290276.417    21290276.7724   21290278.4894
        48.1004         45.1004
 19 10 18  1  6  0.0000000  0  7G25G29G02G14G32G12G31
 -19055299.44547 -14827858.82247  20349465.348    20349464.8364   20349470.2354
        50.8004         47.8004
 -23443123.82347 -18232044.55247  20357900.164    20357899.8574   20357902.4454
        49.8004         47.0004
  -5216771.05944  -4042743.07446  23403904.203    23403903.3604   23403905.2954
        42.5004         39.7004
 -10667005.75744  -8294262.24546  22800580.939    22800580.4194   22800584.2444
        41.3004         38.5004
   -788405.03543   -604452.71146  23684400.236    23684400.5114   23684405.4664
        40.1004         37.4004
  -6630931.54844  -4285067.32146  22999670.999    22999672.1974   22999675.4314
        42.0004         39.2004
  -9251838.52946  -7189485.91147  21281084.952    21281085.3794   21281086.8214
        48.1004         45.2004
 19 10 18  1  6 30.0000000  0  7G25G29G02G14G32G12G31
 -19022224.17147 -14802085.87847  20355759.051    20355758.7184   20355763.9184
        50.8004         47.8004
 -23475242.92747 -18257072.41947  20351788.342    20351787.9234   20351790.1604
        49.8004         47.0004
  -5176133.79744  -4011077.67546  23411637.245    23411636.4274   23411637.5544
        42.5004         39.5004
 -10619384.97844  -8257155.15146  22809643.266    22809642.9324   22809645.8554
        40.9004         38.1004
   -697415.20143   -533551.51446  23701716.091    23701716.0184   23701721.0204
        40.1004         37.6004
  -6540231.26444  -4214391.81546  23016930.131    23016931.1764   23016936.0694
        41.6004         38.8004
  -9299675.41746  -7226761.41347  21271981.909    21271982.0524   21271983.9024
        48.1004         45.1004
 19 10 18  1  7  0.0000000  0  7G25G29G02G14G32G12G31
 -18988783.15347 -14776027.95147  20362122.949    20362122.3024   20362128.0044
        50.8004         47.8004
 -23506844.25947 -18281696.83647  20345774.641    20345774.6784   20345776.7724
        49.8004         47.0004
  -5135027.03844  -3979046.42546  23419459.296    23419458.9504   23419460.7594
        42.5004         39.7004
 -10571286.57744  -8219675.89046  22818795.518    22818795.4604   22818798.3524
        40.6004         37.9004
   -606209.67143   -462482.27446  23719069.797    23719070.7164   23719075.4144
        39.7004         37.3004
  -6449390.69144  -4143606.99246  23034218.825    23034217.7834   23034220.7574
        41.5004         38.8004
  -9347044.64746  -7263672.49947  21262968.277    21262968.1674   21262969.6534
        48.1004         45.2004
 19 10 18  1  7 30.0000000  0  7G25G29G02G14G32G12G31
 -18954976.89447 -14749685.42047  20368556.022    20368555.7694   20368560.9554
        50.8004         47.8004
 -23537927.35747 -18305917.42447  20339860.087    20339859.8344   20339861.7114
        49.8004         47.2004
  -5093452.19844  -3946650.42346  23427371.463    23427370.8544   23427372.8714
        42.7004         39.9004
 -10522712.70644  -8181826.15846  22828040.126    22828039.1164   22828042.2864
        40.8004         38.5004
   -514791.54943   -391247.40646  23736466.751    23736467.0574   23736472.4304
        39.6004         37.3004
  -6358411.48144  -4072714.12946  23051529.995    23051530.4794   23051534.0224
        41.5004         38.6004
  -9393944.41946  -7300217.78047  21254043.157    21254043.4354   21254045.0194
        48.1004         45.2004
 19 10 18  1  8  0.0000000  0  7G25G29G02G14G32G12G31
 -18920805.85347 -14723058.63947  20375058.538    20375058.1284   20375063.6364
        50.8004         47.8004
 -23568492.08847 -18329734.09647  20334043.546    20334043.5334   20334045.5424
        50.0004         47.3004
  -5051410.32244  -3913890.52346  23435371.640    23435370.9554   23435372.6814
        42.5004         39.7004
 -10473665.35144  -8143607.48446  22837372.832    22837372.8044   22837375.8154
        41.1004         38.6004
   -423164.01043   -319849.31146  23753903.374    23753903.5474   23753909.7524
        39.7004         37.4004
  -6267293.70944  -4001713.29846  23068870.878    23068870.6784   23068872.5634
        41.5004         38.8004
  -9440372.79246  -7336395.73147  21245208.984    21245208.8454   21245209.8484
        48.1004         45.4004
 19 10 18  1  8 30.0000000  0  7G25G29G02G14G32G12G31
 -18886270.52747 -14696147.99347  20381630.316    20381630.0694   20381635.4194
        50.8004         47.8004
 -23598538.26647 -18353146.69347  20328325.905    20328326.0604   20328328.1094
        50.2004         47.5004
  -5008902.76944  -3880767.74446  23443460.399    23443459.9744   23443460.8974
        42.3004         39.5004
 -10424146.78044  -8105021.56746  22846796.212    22846795.2754   22846797.9464
        40.8004         38.1004
   -331330.09243   -248290.42646  23771378.323    23771378.3824   23771384.1234
        39.7004         37.3004
  -6176038.43144  -3930605.31946  23086235.018    23086236.1244   23086238.1314
        41.5004         38.8004
  -9486328.22846  -7372205.15947  21236463.710    21236463.6444   21236465.0144
        48.2004         45.4004
 19 10 18  1  9  0.0000000  0  7G25G29G02G14G32G12G31
 -18851371.36747 -14668953.84947  20388271.243    20388270.9404   20388276.4074
        50.8004         47.8004
 -23628065.71347 -18376155.08947  20322707.068    20322707.0524   20322709.3394
        50.2004         47.5004
  -4965931.04344  -3847283.27946  23451637.183    23451637.3474   23451637.8664
        42.3004         39.5004
 -10374158.87843  -8066069.95646  22856308.076    22856308.3784   22856309.8054
        40.4004         37.8004
   -239293.00043   -176573.22246  23788892.512    23788893.1894   23788897.8634
        39.6004         37.1004
  -6084646.61444  -3859390.91746  23103626.397    23103626.8704   23103629.1824
        41.5004         38.6004
  -9531809.21646  -7407644.89047  21227808.990    21227808.9054   21227810.3874
        48.4004         45.4004
 19 10 18  1  9 30.0000000  0  7G25G29G02G14G32G12G31
 -18816108.82647 -14641476.55247  20394981.682    20394981.1894   20394986.5704
        50.8004         47.7004
 -23657074.21947 -18398759.11447  20317186.485    20317186.6644   20317189.0924
        50.2004         47.5004
  -4922496.55244  -3813438.21246  23459903.994    23459903.2294   23459903.4004
        42.5004         39.9004
 -10323704.02643  -8026754.51846  22865909.598    22865909.0794   22865911.4784
        40.4004         37.8004
   -147055.80843   -104700.10246  23806445.189    23806445.3614   23806450.3354
        39.6004         37.1004
  -5993118.99144  -3788070.74046  23121045.348    23121044.5984   23121046.3194
        41.6004         39.0004
  -9576813.59346  -7442713.23647  21219244.494    21219244.9304   21219246.5354
        48.4004         45.6004
 19 10 18  1 10  0.0000000  0  7G25G29G02G14G32G12G31
 -18780483.48047 -14613716.54747  20401760.596    20401760.4854   20401765.7834
        50.7004         47.7004
 -23685563.94147 -18420958.88847  20311764.998    20311764.9324   20311767.9864
        50.2004         47.3004
  -4878600.59644  -3779233.56846  23468257.666    23468256.9784   23468256.2034
        42.7004         39.9004
 -10272784.27943  -7987076.81246  22875599.236    22875598.4894   22875600.0324
        40.3004         37.6004
    -54621.61443    -32673.47046  23824034.580    23824034.4954   23824039.0704
        39.7004         37.3004
  -5901456.89144  -3716645.74646  23138486.482    23138486.7574   23138487.3374
        41.5004         38.5004
  -9621339.62246  -7477408.84147  21210771.469    21210771.8624   21210773.2114
        48.4004         45.6004
 19 10 18  1 10 30.0000000  0  7G25G29G02G14G32G12G31
 -18744495.77247 -14585674.18047  20408609.145    20408608.6554   20408613.9324
        50.7004         47.7004
 -23713534.42147 -18442754.05747  20306442.259    20306442.4184   20306445.1144
        50.2004         47.5004
  -4834244.61644  -3744670.47446  23476698.663    23476697.6114   23476696.8774
        42.7004         40.0004
 -10221401.78843  -7947038.49746  22885376.368    22885375.6944   22885379.4174
        39.9004         37.3004
     38006.37143     39504.18746  23841660.340    23841661.6314   23841666.9924
        39.7004         37.3004
  -5809660.49444  -3645116.11846  23155955.103    23155954.7374   23155957.2994
        41.5004         38.8004
  -9665385.90346  -7511730.61447  21202389.659    21202390.0674   21202391.5034
        48.6004         45.8004
 19 10 18  1 11  0.0000000  0  7G25G29G02G14G32G12G31
 -18708146.21847 -14557349.85947  20415526.008    20415525.8074   20415530.9544
        50.7004         47.5004
 -23740985.54547 -18464144.53647  20301218.415    20301218.5504   20301221.3354
        50.2004         47.3004
  -4789430.02344  -3709750.00546  23485225.198    23485224.5574   23485225.3864
        42.7004         39.9004
 -10169558.67343  -7906641.28846  22895242.153    22895242.1014   22895244.8114
        40.1004         37.6004
    130825.04343    111830.42146  23859323.532    23859323.8554   23859328.9754
        39.9004         37.4004
  -5717731.11444  -3573482.85546  23173449.094    23173449.8684   23173450.4414
        41.5004         38.6004
  -9708950.79146  -7545677.28447  21194099.596    21194100.0334   21194101.4414
        48.6004         45.6004
 19 10 18  1 11 30.0000000  0  7G25G29G02G14G32G12G31
 -18671435.27347 -14528743.93547  20422512.107    20422511.7254   20422516.9514
        50.7004         47.7004
 -23767917.84447 -18485130.73747  20296093.608    20296093.8464   20296096.0874
        50.2004         47.5004
  -4744158.19644  -3674473.25046  23493840.706    23493840.4694   23493840.9184
        42.7004         39.7004
 -10117257.20643  -7865886.93746  22905195.515    22905194.3134   22905197.1414
        40.3004         37.8004
    223831.32543    184302.81646  23877023.484    23877023.8364   23877028.4554
        40.1004         37.6004
  -5625669.16544  -3501746.29646  23190968.233    23190967.6974   23190970.1254
        41.3004         38.8004
  -9752032.40646  -7579247.38047  21185901.393    21185901.2684   21185903.3424
        48.6004         45.6004
 19 10 18  1 12  0.0000000  0  7G25G29G02G14G32G12G31
 -18634363.46047 -14499856.81647  20429566.596    20429566.2544   20429571.7634
        50.7004         47.7004
 -23794330.54547 -18505712.05547  20291067.658    20291067.8804   20291069.8494
        50.2004         47.3004
  -4698430.49844  -3638841.26946  23502540.915    23502541.5334   23502542.9684
        42.5004         39.9004
 -10064499.69443  -7824777.20546  22915234.429    22915233.8944   22915236.3514
        39.9004         37.3004
    317022.08143    256918.98146  23894754.910    23894755.4094   23894762.2504
        40.3004         37.8004
  -5533475.94044  -3429907.43846  23208511.820    23208512.4794   23208513.4134
        41.3004         38.6004
  -9794629.11746  -7612439.64047  21177795.363    21177795.6744   21177796.9674
        48.4004         45.4004
 19 10 18  1 12 30.0000000  0  7G25G29G02G14G32G12G31
 -18596931.27747 -14470688.88347  20436690.024    20436689.4724   20436694.9814
        50.7004         47.7004
 -23820223.80447 -18525888.61947  20286140.436    20286140.4384   20286142.4764
        50.2004         47.3004
  -4652248.54444  -3602855.33446  23511328.779    23511328.6604   23511329.3804
        42.3004         39.5004
 -10011288.05043  -7783313.55746  22925360.452    22925361.1544   22925363.1354
        39.9004         37.6004
    410394.11043    329676.39946  23912524.694    23912524.2964   23912530.3064
        40.4004         37.9004
  -5441152.39544  -3357967.03046  23226078.978    23226080.4224   23226081.6584
        41.1004         38.5004
  -9836739.23946  -7645252.73247  21169782.269    21169782.1974   21169783.7194
        48.2004         45.4004
 19 10 18  1 13  0.0000000  0  7G25G29G02G14G32G12G31
 -18559139.25447 -14441240.56147  20443881.426    20443881.2034   20443886.4594
        50.7004         47.7004
 -23845597.68247 -18545660.45947  20281312.014    20281311.9584   20281313.7934
        50.2004         47.5004
  -4605613.80644  -3566516.54246  23520203.838    23520203.1934   23520203.2884
        42.2004         39.3004
  -9957624.87243  -7741498.13146  22935573.393    22935572.2824   22935573.3064
        40.3004         37.6004
    503944.35943    402572.66246  23930325.362    23930326.1844   23930331.7894
        40.4004         37.8004
  -5348699.01144  -3285925.46946  23243675.200    23243674.6854   23243675.6884
        40.9004         38.5004
  -9878361.40646  -7677685.59647  21161861.867    21161862.3384   21161863.5064
        48.2004         45.6004
 19 10 18  1 13 30.0000000  0  7G25G29G02G14G32G12G31
 -18520987.86847 -14411512.21847  20451141.261    20451140.7534   20451146.5384
        50.7004         47.5004
 -23870452.18047 -18565027.58647  20276582.238    20276582.3174   20276584.3534
        50.2004         47.5004
  -4558527.80944  -3529826.15246  23529164.159    23529163.8724   23529163.1704
        42.2004         39.3004
  -9903512.38043  -7699332.59346  22945869.319    22945868.5994   22945871.2354
        39.9004         36.9004
    597669.66343    475605.36346  23948161.445    23948161.5894   23948167.6894
        40.1004         37.6004
  -5256116.64444  -3213783.35746  23261290.004    23261289.7334   23261292.0824
        40.8004         37.8004
  -9919493.50746  -7709736.58447  21154034.663    21154034.8274   21154036.5634
        48.2004         45.4004
 19 10 18  1 14  0.0000000  0  7G25G29G02G14G32G12G31
 -18482477.64047 -14381504.25747  20458469.635    20458469.2174   20458474.8524
        50.7004         47.7004
 -23894787.27347 -18583989.98847  20271951.424    20271951.4544   20271953.5324
        50.3004         47.5004
  -4510991.71244  -3492785.03246  23538211.000    23538209.7724   23538209.1464
        42.3004         39.5004
  -9848952.81843  -7656818.63446  22956249.702    22956249.9874   22956253.8744
        39.2004         36.6004
    691566.93343    548772.06846  23966029.963    23966029.8454   23966035.2604
        40.1004         37.6004
  -5163406.07743  -3141541.38546  23278933.095    23278932.7474   23278934.2504
        40.4004         37.6004
  -9960134.10146  -7741404.57547  21146301.229    21146301.2774   21146302.7694
        48.4004         45.4004
 19 10 18  1 14 30.0000000  0  7G25G29G02G14G32G12G31
 -18443609.10147 -14351217.09447  20465865.596    20465865.3884   20465871.2864
        50.5004         47.5004
 -23918602.91147 -18602547.62247  20267419.792    20267419.9734   20267421.6164
        50.3004         47.7004
  -4463007.30444  -3455394.59446  23547341.059    23547340.4474   23547340.4004
        42.2004         39.5004
  -9793948.39043  -7613958.07546  22966718.534    22966718.8144   22966721.5874
        39.7004         37.6004
    785633.05043    622070.31146  23983929.376    23983930.0184   23983934.2524
        39.6004         36.9004
  -5070568.32943  -3069200.30246  23296598.224    23296598.4444   23296601.9504
        40.3004         37.6004
 -10000281.61746  -7772688.35547  21138661.697    21138661.7124   21138663.1504
        48.2004         45.4004
 19 10 18  1 15  0.0000000  0  7G25G29G02G14G32G12G31
 -18404382.73447 -14320651.10647  20473330.978    20473330.1014   20473336.0334
        50.5004         47.5004
 -23941899.44447 -18620700.75647  20262986.771    20262986.5974   20262988.3514
        50.5004         47.7004
  -4414576.26344  -3417656.10746  23556558.259    23556556.2104   23556557.0654
        42.0004         39.2004
  -9738501.21943  -7570752.54546  22977271.433    22977269.9274   22977272.4174
        40.3004         37.8004
    879864.92743    695497.75346  24001861.746    24001862.4174   24001867.2024
        39.4004         36.7004
  -4977604.37443  -2996760.88946  23314289.941    23314288.8754   23314292.1934
        40.1004         37.4004
 -10039934.66146  -7803586.82847  21131115.714    21131115.8044   21131117.1144
        48.2004         45.4004
 19 10 18  1 15 30.0000000  0  7G25G29G02G14G32G12G31
 -18364799.08647 -14289806.71447  20480862.657    20480862.5044   20480868.3834
        50.5004         47.5004
 -23964676.50347 -18638449.11347  20258652.295    20258652.3234   20258653.9904
        50.5004         47.7004
  -4365699.90444  -3379570.63846  23565857.266    23565856.6404   23565857.7244
        41.8004         39.2004
  -9682613.84743  -7527203.95546  22987905.662    22987905.6444   22987907.6064
        40.1004         37.4004
    974259.26343    769051.79246  24019823.023    24019823.2674   24019829.9904
        39.0004         36.6004
  -4884514.84543  -2924223.62646  23332003.160    23332002.2784   23332006.6604
        39.9004         37.1004
 -10079091.44346  -7834098.61647  21123664.257    21123664.1294   21123665.9804
        48.4004         45.4004
 19 10 18  1 16  0.0000000  0  7G25G29G02G14G32G12G31
 -18324858.67347 -14258684.32247  20488463.257    20488462.8814   20488468.7704
        50.5004         47.3004
 -23986934.26147 -18655792.81147  20254416.609    20254416.5004   20254418.4574
        50.5004         47.7004
  -4316379.89544  -3341139.46646  23575242.394    23575241.9814   23575243.5444
        42.0004         39.2004
  -9626288.87843  -7483314.37446  22998623.624    22998623.7364   22998626.4164
        40.1004         37.8004
   1068813.12243    842730.07246  24037816.945    24037817.6124   24037821.7304
        39.0004         36.6004
  -4791300.46243  -2851589.06146  23349742.469    23349741.6904   23349744.3184
        39.9004         37.6004
 -10117750.39146  -7864222.46947  21116307.349    21116307.8624   21116309.8114
        48.2004         45.4004
 19 10 18  1 16 30.0000000  0  7G25G29G02G14G32G12G31
 -18284562.03347 -14227284.35347  20496131.640    20496131.0924   20496136.9914
        50.3004         47.3004
 -24008672.87547 -18672731.98547  20250279.739    20250279.5984   20250281.9284
        50.3004         47.5004
  -4266617.44844  -3302363.53146  23584712.555    23584712.3594   23584713.4184
        42.0004         39.3004
  -9569528.50943  -7439085.55346  23009425.104    23009423.9664   23009427.4454
        40.3004         37.9004
   1163523.32943    916530.24346  24055840.747    24055841.0384   24055846.0874
        39.2004         36.9004
  -4697962.33743  -2778858.07446  23367504.596    23367503.9094   23367507.7474
        40.1004         37.6004
 -10155909.86146  -7893957.12547  21109045.952    21109045.9294   21109048.2594
        48.2004         45.4004
 19 10 18  1 17  0.0000000  0  7G25G29G02G14G32G12G31
 -18243909.69947 -14195607.22047  20503867.389    20503867.3864   20503872.8834
        50.3004         47.3004
 -24029892.57347 -18689266.80847  20246241.601    20246241.5294   20246243.8924
        50.3004         47.7004
  -4216414.37144  -3263244.24446  23594265.612    23594265.4024   23594265.2304
        41.8004         38.8004
  -9512334.89043  -7394519.15346  23020307.444    23020307.3444   23020310.1924
        39.9004         37.1004
   1258386.71043    990449.75746  24073890.870    24073892.1404   24073898.4424
        39.2004         36.9004
  -4604501.08843  -2706031.16946  23385290.939    23385290.6854   23385291.0174
        40.3004         37.8004
 -10193568.45846  -7923301.49447  21101879.545    21101879.8834   21101881.8854
        48.2004         45.4004
 19 10 18  1 17 30.0000000  0  7G25G29G02G14G32G12G31
 -18202902.18347 -14163653.32147  20511670.906    20511670.3664   20511675.8534
        50.3004         47.3004
 -24050593.77447 -18705397.60247  20242302.331    20242302.4474   20242304.4854
        50.3004         47.7004
  -4165772.59144  -3223783.09946  23603902.863    23603901.8014   23603903.2084
        41.8004         39.2004
  -9454710.74043  -7349617.20946  23031272.621    23031273.3194   23031275.9084
        39.4004         36.7004
   1353400.19643   1064486.22146  24091971.745    24091972.3454   24091977.4124
        39.0004         36.6004
  -4510917.83243  -2633109.15946  23403096.986    23403098.2864   23403099.8824
        40.3004         37.8004
 -10230724.85446  -7952254.53247  21094809.130    21094809.8124   21094810.9724
        48.2004         45.4004
 19 10 18  1 18  0.0000000  0  7G25G29G02G14G32G12G31
 -18161540.04647 -14131423.09947  20519541.909    20519541.6104   20519546.8104
        50.2004         47.2004
 -24070775.86347 -18721123.90047  20238461.744    20238461.8654   20238463.9074
        50.3004         47.7004
  -4114693.20744  -3183980.97646  23613622.989    23613622.5014   23613623.3614
        41.8004         39.3004
  -9396657.84743  -7304381.20246  23042321.326    23042321.0094   23042323.9094
        39.6004         37.3004
   1448560.70443   1138637.25846  24110081.945    24110081.4734   24110087.4474
        39.0004         36.7004
  -4417213.07243  -2560092.48446  23420929.730    23420929.8484   23420932.4054
        40.4004         37.8004
 -10267377.05946  -7980814.69947  21087834.746    21087834.8714   21087836.2604
        48.4004         45.6004
 19 10 18  1 18 30.0000000  0  7G25G29G02G14G32G12G31
 -18119823.80247 -14098916.94347  20527480.162    20527479.7244   20527485.1984
        50.2004         47.0004
 -24090439.27747 -18736446.03447  20234720.170    20234720.1314   20234722.1604
        50.3004         47.7004
  -4063177.90944  -3143839.15646  23623425.026    23623424.8954   23623425.6254
        41.8004         39.0004
  -9338179.11543  -7258813.39546  23053449.365    23053448.5364   23053451.0904
        39.7004         37.3004
   1543865.08943   1212900.42346  24128216.621    24128216.8704   24128222.2644
        38.9004         36.4004
  -4323387.50243  -2486981.68646  23438782.378    23438783.7894   23438786.9634
        40.1004         37.6004
 -10303523.58246  -8008980.83247  21080956.469    21080957.0304   21080957.9974
        48.4004         45.8004
 19 10 18  1 19  0.0000000  0  7G25G29G02G14G32G12G31
 -18077754.01147 -14066135.29047  20535485.824    20535485.3654   20535490.8264
        50.2004         47.2004
 -24109584.18547 -18751364.13747  20231076.805    20231076.8084   20231079.3494
        50.5004         47.8004
  -4011228.42844  -3103359.02446  23633309.916    23633310.1374   23633311.6924
        41.6004         38.6004
  -9279276.62543  -7212915.35746  23064656.123    23064656.9074   23064659.8494
        39.4004         36.7004
   1639310.22943   1287273.25346  24146379.292    24146380.4484   24146384.0674
        38.7004         36.2004
  -4229442.07043  -2413777.45546  23456660.573    23456659.9544   23456662.8834
        40.1004         37.4004
 -10339163.06546  -8036751.85447  21074174.359    21074174.7554   21074176.3814
        48.6004         45.8004
 19 10 18  1 19 30.0000000  0  7G25G29G02G14G32G12G31
 -18035331.21647 -14033078.57247  20543558.767    20543558.2024   20543564.0234
        50.2004         47.2004
 -24128210.97047 -18765878.51047  20227532.169    20227532.1084   20227534.5944
        50.5004         47.7004
  -3958846.45244  -3062541.90946  23643277.880    23643277.9204   23643279.9614
        41.8004         39.2004
  -9219953.22743  -7166689.34846  23075946.912    23075946.1304   23075949.2744
        39.4004         37.1004
   1734893.07543   1361753.37945  24164567.956    24164569.1664   24164574.5414
        38.2004         35.9004
  -4135377.80543  -2340480.64846  23474558.969    23474560.5354   23474564.6874
        39.9004         37.3004
 -10374294.30646  -8064126.85047  21067489.560    21067489.1924   21067490.8044
        48.6004         45.6004
 19 10 18  1 20  0.0000000  0  7G25G29G02G14G32G12G31
 -17992555.98247 -13999747.23247  20551697.980    20551697.8524   20551703.7784
        50.2004         47.2004
 -24146319.57647 -18779989.10047  20224086.202    20224086.3914   20224088.5404
        50.5004         47.8004
  -3906033.45044  -3021388.90846  23653329.393    23653328.7474   23653329.9084
        41.8004         39.0004
  -9160211.13843  -7120137.11246  23087316.266    23087315.5534   23087317.6974
        39.7004         37.4004
   1830610.43243   1436338.35645  24182782.993    24182782.6774   24182787.1064
        37.8004         35.5004
  -4041195.42043  -2267091.81146  23492483.443    23492482.3664   23492484.6584
        39.9004         37.1004
 -10408915.52346  -8091104.42747  21060900.700    21060900.9534   21060902.5664
        48.4004         45.6004
 19 10 18  1 20 30.0000000  0  7G25G29G02G14G32G12G31
 -17949428.83747 -13966141.66547  20559904.992    20559904.9014   20559910.5224
        50.2004         47.2004
 -24163910.54147 -18793696.33147  20220738.940    20220738.7804   20220741.0454
        50.5004         47.8004
  -3852791.27844  -2979901.49446  23663462.999    23663461.2484   23663461.7434
        41.8004         39.3004
  -9100052.84143  -7073260.54146  23098762.787    23098762.9374   23098765.9224
        39.9004         37.4004
   1926459.24143   1511025.74645  24201021.801    24201022.4244   24201027.7324
        37.8004         35.7004
  -3946895.84043  -2193611.62446  23510426.890    23510426.7784   23510430.0754
        39.9004         37.4004
 -10443025.50946  -8117683.63347  21054409.417    21054409.7984   21054411.6344
        48.4004         45.4004
 19 10 18  1 21  0.0000000  0  7G25G29G02G14G32G12G31
 -17905950.34547 -13932262.32747  20568179.136    20568178.6194   20568184.5094
        50.2004         47.3004
 -24180983.62947 -18807000.03247  20217489.930    20217490.0104   20217492.1874
        50.5004         47.8004
  -3799121.60644  -2938080.96046  23673675.147    23673674.3754   23673674.5444
        42.0004         39.2004
  -9039480.48143  -7026061.30146  23110289.577    23110289.4164   23110292.5624
        39.7004         37.1004
   2022436.41542   1585813.16545  24219286.362    24219286.8674   24219291.4194
        37.5004         35.3004
  -3852479.76243  -2120040.66646  23528395.763    23528395.6274   23528397.5854
        40.3004         37.6004
 -10476622.52946  -8143863.13947  21048016.471    21048016.5144   21048018.5384
        48.2004         45.4004
 19 10 18  1 21 30.0000000  0  7G25G29G02G14G32G12G31
 -17862121.08147 -13898109.66147  20576519.330    20576518.9224   20576524.8134
        50.3004         47.3004
 -24197539.65147 -18819900.82047  20214339.775    20214339.4104   20214341.7924
        50.7004         47.8004
  -3745025.86444  -2895928.42746  23683969.259    23683968.7354   23683968.8464
        42.0004         39.2004
  -8978497.23243  -6978541.91246  23121894.969    23121894.1004   23121896.6234
        39.7004         37.4004
   2118538.81342   1660698.15245  24237573.869    24237574.3944   24237579.0704
        37.3004         35.0004
  -3757947.90943  -2046379.48946  23546384.411    23546384.9984   23546385.1874
        40.1004         37.8004
 -10509705.44446  -8169642.03647  21041720.990    21041721.5134   21041723.0444
        48.4004         45.6004
 19 10 18  1 22  0.0000000  0  7G25G29G02G14G32G12G31
 -17817941.58147 -13863684.08647  20584926.608    20584926.3024   20584931.8874
        50.3004         47.3004
 -24213578.73547 -18832398.79847  20211287.381    20211287.4024   20211289.6084
        50.5004         47.8004
  -3690505.97344  -2853445.39146  23694343.357    23694343.7234   23694342.5984
        41.8004         39.0004
  -8917105.59243  -6930704.28946  23133577.485    23133576.7014   23133580.0884
        39.9004         37.4004
   2214763.35542   1735678.31845  24255883.816    24255883.8964   24255889.8744
        37.0004         34.8004
  -3663301.36943  -1972628.97346  23564395.379    23564394.8494   23564396.2734
        40.3004         38.1004
 -10542272.82746  -8195019.22747  21035523.836    21035523.8144   21035526.0304
        48.6004         45.8004
 19 10 18  1 22 30.0000000  0  7G25G29G02G14G32G12G31
 -17773412.44147 -13828986.06547  20593400.056    20593399.8794   20593405.5674
        50.3004         47.3004
 -24229100.69747 -18844493.82647  20208333.508    20208333.7434   20208335.7724
        50.5004         47.8004
  -3635563.67644  -2810633.20846  23704799.207    23704797.5124   23704797.9344
        41.6004         38.8004
  -8855307.53843  -6882549.97246  23145337.683    23145336.2624   23145339.1834
        39.7004         37.1004
   2311106.96442   1810751.29945  24274218.247    24274218.8464   24274222.7694
        37.0004         34.8004
  -3568540.77943  -1898789.57146  23582427.793    23582425.6774   23582428.3844
        40.3004         37.6004
 -10574323.02646  -8219993.41347  21029424.883    21029425.1484   21029426.7054
        48.6004         45.8004
 19 10 18  1 23  0.0000000  0  7G25G29G02G14G32G12G31
 -17728534.19647 -13794016.00947  20601940.581    20601939.8604   20601945.8524
        50.3004         47.3004
 -24244106.63947 -18856186.76147  20205477.879    20205478.1474   20205480.0714
        50.7004         47.8004
  -3580200.67544  -2767493.22546  23715334.329    23715333.7834   23715333.1424
        41.6004         38.6004
  -8793105.52643  -6834080.88546  23157171.765    23157171.7444   23157176.1094
        39.2004         36.7004
   2407566.55642   1885914.57745  24292573.703    24292573.8134   24292580.7904
        37.0004         35.0004
  -3473666.80843  -1824861.81346  23600482.553    23600481.6664   23600482.5104
        40.1004         37.6004
 -10605854.67446  -8244563.52847  21023425.019    21023425.0114   21023426.0624
        48.6004         45.8004
 19 10 18  1 23 30.0000000  0  7G25G29G02G14G32G12G31
 -17683307.46947 -13758774.40847  20610546.033    20610545.7544   20610552.0474
        50.3004         47.3004
 -24258595.92547 -18867477.11247  20202721.056    20202720.7964   20202722.8854
        50.7004         47.8004
  -3524418.43044  -2724026.54046  23725947.917    23725947.6414   23725949.0084
        41.5004         38.6004
  -8730502.49243  -6785299.34346  23169086.468    23169086.0574   23169089.0304
        39.2004         36.9004
   2504138.98342   1961165.85045  24310950.393    24310952.0534   24310957.4244
        37.0004         34.8004
  -3378680.52343  -1750846.54446  23618555.491    23618556.6344   23618559.2834
        39.9004         37.1004
 -10636866.64146  -8268728.70247  21017523.253    21017523.4954   21017524.8994
        48.6004         45.8004
 19 10 18  1 24  0.0000000  0  7G25G29G02G14G32G12G31
 -17637732.72447 -13723261.63847  20619219.664    20619219.2864   20619224.6314
        50.3004         47.3004
 -24272569.34047 -18878365.48648  20200061.778    20200061.8614   20200063.9324
        50.7004         48.0004
  -3468218.84944  -2680234.65446  23736643.018    23736642.3124   23736643.5044
        41.5004         38.8004
  -8667501.01043  -6736207.32846  23181075.419    23181074.8684   23181078.2344
        39.2004         36.7004
   2600821.16542   2036502.61345  24329349.882    24329349.3544   24329352.0304
        37.0004         34.8004
  -3283582.54843  -1676744.26246  23636651.762    23636652.2534   23636654.6994
        39.7004         37.1004
 -10667357.54546  -8292487.85347  21011721.139    21011721.6074   21011722.4014
        48.6004         45.8004
 19 10 18  1 24 30.0000000  0  7G25G29G02G14G32G12G31
 -17591810.65347 -13687478.20747  20627957.995    20627957.7464   20627962.9674
        50.3004         47.3004
 -24286027.38147 -18888852.26048  20197500.833    20197500.7214   20197502.9564
        50.7004         48.0004
  -3411603.75144  -2636118.99546  23747415.862    23747414.4984   23747416.9184
        41.5004         38.6004
  -8604103.26643  -6686806.48746  23193139.227    23193138.5944   23193141.6254
        39.2004         36.9004
   2697610.09942   2111922.55045  24347765.794    24347769.1004   24347772.2984
        36.6004         34.6004
  -3188373.94943  -1602555.79246  23654769.595    23654770.2364   23654770.9664
        39.4004         36.9004
 -10697326.08146  -8315839.96447  21006017.880    21006017.9594   21006019.4784
        48.6004         45.6004
 19 10 18  1 25  0.0000000  0  7G25G29G02G14G32G12G31
 -17545541.79347 -13651424.55647  20636762.562    20636762.1414   20636767.8714
        50.3004         47.3004
 -24298970.36447 -18898937.69347  20195037.744    20195037.6864   20195039.7424
        50.7004         47.8004
  -3354574.81544  -2591680.85146  23758267.221    23758267.1414   23758269.5364
        41.3004         39.0004
  -8540312.39943  -6637099.34146  23205278.101    23205278.0534   23205280.5694
        39.4004         37.1004
   2794502.60342   2187423.20945  24366205.742    24366204.3554   24366211.0954
        36.4004         34.5004
  -3093055.33943  -1528281.58246  23672907.074    23672906.7904   23672911.0734
        39.2004         36.6004
 -10726770.78546  -8338783.89847  21000414.806    21000415.1814   21000416.6994
        48.6004         45.8004
 19 10 18  1 25 30.0000000  0  7G25G29G02G14G32G12G31
 -17498926.73247 -13615101.14647  20645633.322    20645632.8604   20645637.9944
        50.3004         47.2004
 -24311398.50347 -18908621.94648  20192672.226    20192672.6274   20192674.7954
        50.7004         48.0004
  -3297133.87044  -2546921.66246  23769199.255    23769198.1404   23769200.2714
        41.5004         38.6004
  -8476130.47743  -6587087.47946  23217491.880    23217491.1624   23217493.7384
        39.6004         37.1004
   2891495.67242   2263002.28145  24384660.430    24384662.6904   24384665.7854
        35.7004         33.6004
  -2997627.15143  -1453921.99046  23691066.967    23691067.7884   23691069.0284
        39.2004         37.1004
 -10755690.37246  -8361318.64547  20994911.741    20994911.9794   20994913.6254
        48.6004         45.8004
 19 10 18  1 26  0.0000000  0  7G25G29G02G14G32G12G31
 -17451966.07947 -13578508.43547  20654569.084    20654569.0984   20654574.1634
        50.2004         47.0004
 -24323312.39147 -18917905.49148  20190405.430    20190405.4814   20190407.8714
        50.7004         48.0004
  -3239282.68044  -2501842.80046  23780207.164    23780206.7714   23780208.4144
        41.5004         39.0004
  -8411560.17343  -6536772.98946  23229777.963    23229777.3604   23229781.7484
        39.2004         36.6004
   2988586.22542   2338657.25745  24403135.646    24403137.0864   24403142.9954
        35.2004         33.4004
  -2902090.61443  -1379477.96146  23709247.753    23709247.9674   23709249.0044
        39.2004         36.6004
 -10784083.67346  -8383443.29447  20989508.614    20989509.0174   20989510.5174
        48.8004         45.9004
 19 10 18  1 26 30.0000000  0  7G25G29G02G14G32G12G31
 -17404660.36447 -13541646.84947  20663571.064    20663570.9794   20663576.7574
        50.2004         47.0004
 -24334712.31747 -18926788.54148  20188236.199    20188236.0664   20188238.4744
        50.7004         48.0004
  -3181022.95644  -2456445.60646  23791294.952    23791294.0984   23791295.3444
        41.6004         39.0004
  -8346604.25143  -6486157.97346  23242139.015    23242138.6194   23242141.9884
        39.0004         36.6004
   3085771.17542   2414385.75445  24421630.531    24421632.5004   24421636.7174
        35.7004         34.1004
  -2806446.57143  -1304950.17946  23727449.703    23727449.2344   23727451.4474
        39.2004         37.1004
 -10811949.35446  -8405156.81647  20984206.157    20984206.5264   20984207.6964
        48.8004         45.9004
 19 10 18  1 27  0.0000000  0  8G26G25G29G02G14G32G12G31
                   -162351.12056  23422858.777
                        36.6004
 -17357010.24347 -13504516.89747  20672638.958    20672638.5124   20672643.8914
        50.0004         46.8004
 -24345598.42347 -18935271.21248  20186164.360    20186164.4734   20186167.0914
        50.7004         48.0004
  -3122356.72244  -2410731.66546  23802458.440    23802458.0604   23802458.5584
        41.5004         38.8004
  -8281265.45843  -6435244.65446  23254574.514    23254573.6734   23254576.4644
        39.2004         36.9004
   3183047.44742   2490185.44545  24440141.999    24440141.5764   24440146.1894
        35.9004         34.1004
  -2710695.85443  -1230339.25046  23745670.546    23745671.0924   23745670.6424
        39.4004         37.1004
 -10839286.08446  -8426458.16847  20979003.890    20979004.1144   20979005.7644
        48.6004         45.6004
 19 10 18  1 27 30.0000000  0  8G26G25G29G02G14G32G12G31
                   -233541.96546  23405474.201                    23405478.7374
                        36.9004
 -17309016.26647 -13467119.00647  20681772.314    20681771.8944   20681776.9124
        50.0004         47.0004
 -24355971.68447 -18943354.26548  20184190.248    20184190.4654   20184193.0544
        50.7004         48.0004
  -3063285.57044  -2364702.18246  23813699.954    23813699.2904   23813699.5974
        41.5004         38.8004
  -8215546.13143  -6384034.85346  23267078.231    23267078.5684   23267082.7474
        39.0004         36.4004
   3280411.99642   2566053.95045  24458669.088    24458668.4994   24458675.7364
        35.0004         33.3004
  -2614838.87343  -1155645.52946  23763910.340    23763909.9014   23763912.6504
        39.4004         36.7004
 -10866092.70346  -8447346.44947  20973902.928    20973903.1524   20973904.5954
        48.6004         45.8004
 19 10 18  1 28  0.0000000  0  8G26G25G29G02G14G32G12G31
   -403171.87043   -304647.51146  23388108.420    23388108.3194   23388114.5904
        39.0004         37.1004
 -17260679.05147 -13429453.65347  20690970.448    20690970.0664   20690975.3394
        50.0004         47.0004
 -24365832.29347 -18951037.84948  20182314.130    20182314.4614   20182316.8234
        50.8004         48.2004
  -3003811.05444  -2318358.40246  23825015.779    23825014.5464   23825017.5034
        41.1004         38.1004
  -8149449.11443  -6332530.67446  23279655.798    23279655.8784   23279659.8564
        38.7004         36.4004
   3377861.75242   2641988.77345  24477214.881    24477214.0614   24477219.1164
        34.9004         33.4004
  -2518876.69343  -1080869.85046  23782171.920    23782171.1514   23782173.4184
        39.0004         36.9004
 -10892368.03446  -8467820.74047  20968903.149    20968903.1434   20968904.1994
        48.6004         45.8004
 19 10 18  1 28 30.0000000  0  8G26G25G29G02G14G32G12G31
   -494313.48753   -375666.94956  23370764.581    23370764.0834   23370770.8074
        39.6004         37.3004
 -17211999.19047 -13391521.31047  20700234.123    20700233.8114   20700239.0394
        50.0004         47.0004
 -24375180.67947 -18958322.29648  20180535.697    20180535.4134   20180537.6054
        50.8004         48.0004
  -2943935.43044  -2271702.07246  23836410.843    23836409.6304   23836410.5214
        41.1004         38.5004
  -8082976.87043  -6280734.13546  23292306.641    23292306.1284   23292309.0954
        38.7004         36.4004
   3475393.62942   2717987.65545  24495773.146    24495772.3074   24495778.9964
        35.0004         33.6004
  -2422810.02843  -1006012.74846  23800450.747    23800451.4334   23800454.9154
        39.0004         36.6004
 -10918110.78646  -8487880.02647  20964004.606    20964005.0854   20964005.9504
        48.8004         45.9004
 19 10 18  1 29  0.0000000  0  8G26G25G29G02G14G32G12G31
   -585343.52543   -446599.44246  23353441.965    23353442.6284   23353449.0424
        39.9004         37.6004
 -17162977.32247 -13353322.45847  20709562.558    20709562.1404   20709567.7314
        50.0004         47.0004
 -24384017.62547 -18965208.22548  20178853.588    20178853.6374   20178856.0744
        50.8004         48.2004
  -2883660.33444  -2224734.46346  23847880.689    23847879.5214   23847880.8694
        41.1004         38.3004
  -8016132.14743  -6228647.36346  23305026.802    23305026.1894   23305027.9034
        38.5004         36.2004
   3573004.61242   2794048.18545  24514349.086    24514348.4404   24514354.8064
        35.7004         34.1004
  -2326639.91943   -931075.02746  23818751.568    23818753.0704   23818755.0244
        39.2004         36.7004
 -10943319.78846  -8507523.41047  20959207.624    20959207.6374   20959208.9684
        48.8004         45.9004
 19 10 18  1 29 30.0000000  0  8G26G25G29G02G14G32G12G31
   -676260.93443   -517444.16646  23336140.934    23336140.9304   23336147.5314
        40.4004         38.1004
 -17113613.99247 -13314857.53547  20718955.794    20718955.6854   20718960.8614
        50.0004         47.0004
 -24392343.39947 -18971695.84048  20177269.205    20177269.5384   20177271.5804
        50.8004         48.2004
  -2822987.75644  -2177457.11946  23859425.427    23859424.3954   23859427.1354
        41.1004         38.6004
  -7948917.68343  -6176272.44845  23317816.557    23317815.9554   23317818.6014
        38.2004         35.9004
   3670691.58042   2870167.92345  24532938.228    24532938.7804   24532944.9214
        36.3004         34.5004
  -2230366.91843   -856057.12146  23837074.514    23837074.0554   23837074.5904
        39.0004         36.7004
 -10967993.91146  -8526750.00547  20954512.260    20954512.1164   20954513.3214
        48.8004         45.9004
 19 10 18  1 30  0.0000000  0  8G26G25G29G02G14G32G12G31
   -767064.66044   -588200.29746  23318862.501    23318862.4214   23318867.8464
        40.9004         38.6004
 -17063909.87247 -13276127.06647  20728413.953    20728413.9204   20728419.2914
        50.0004         46.8004
 -24400157.96047 -18977785.10548  20175782.443    20175782.3824   20175784.5454
        50.8004         48.2004
  -2761919.45344  -2129871.42846  23871046.075    23871045.8304   23871048.2664
        41.1004         38.5004
  -7881336.10443  -6123611.46345  23330677.289    23330675.9494   23330681.0274
        38.0004         35.7004
   3768451.59042   2946344.54845  24551540.310    24551542.7574   24551546.7774
        36.4004         34.5004
  -2133991.74943   -780959.62146  23855414.711    23855413.5884   23855414.5164
        39.0004         36.7004
 -10992131.93446  -8545558.85947  20949918.255    20949918.6354   20949920.0354
        48.8004         45.8004
 19 10 18  1 30 30.0000000  0  8G26G25G29G02G14G32G12G31
   -857753.61344   -658867.00046  23301604.178    23301604.3564   23301610.3824
        41.3004         38.6004
 -17013865.55047 -13237131.49947  20737937.134    20737937.0494   20737942.3634
        49.8004         46.6004
 -24407462.52447 -18983476.96648  20174392.255    20174392.3454   20174394.3634
        50.8004         48.2004
  -2700457.46844  -2081978.98046  23882742.262    23882742.2104   23882743.7184
        41.1004         38.6004
  -7813390.03743  -6070666.52145  23343605.993    23343604.8124   23343609.5414
        37.8004         35.5004
   3866281.59342   3022575.68245  24570156.266    24570159.3914   24570161.9294
        36.1004         34.1004
  -2037515.35743   -705783.21746  23873770.693    23873772.1334   23873773.2234
        38.9004         36.2004
 -11015732.76446  -8563949.12847  20945427.446    20945427.7114   20945428.7364
        48.8004         45.8004
 19 10 18  1 31  0.0000000  0  8G26G25G29G02G14G32G12G31
   -948326.72444   -729443.43346  23284368.877    23284368.9094   23284374.9404
        41.3004         38.6004
 -16963481.63547 -13197871.32047  20747525.184    20747524.9294   20747530.0274
        49.8004         46.6004
 -24414257.82447 -18988772.00048  20173099.296    20173099.1054   20173101.5744
        51.0004         48.2004
  -2638603.80944  -2033781.33646  23894514.468    23894513.1174   23894513.9234
        41.5004         38.8004
  -7745082.33343  -6017439.77645  23356604.678    23356603.9884   23356608.1544
        37.8004         35.7004
   3964178.50842   3098858.99845  24588784.309    24588785.5754   24588794.6524
        35.9004         34.1004
  -1940938.44343   -630528.49546  23892149.416    23892147.9184   23892149.8054
        38.3004         36.0004
 -11038795.37846  -8581920.00547  20941038.731    20941039.2174   20941040.2424
        48.8004         45.9004
 19 10 18  1 31 30.0000000  0  8G26G25G29G02G14G32G12G31
  -1038782.93544   -799928.78446  23267155.033    23267155.6154   23267161.6944
        41.1004         38.5004
 -16912758.78247 -13158347.03747  20757177.316    20757177.0064   20757182.4264
        49.6004         46.6004
 -24420543.87347 -18993670.21248  20171902.802    20171903.0324   20171905.3814
        51.0004         48.4004
  -2576359.77444  -1985279.50046  23906357.800    23906357.1524   23906358.2444
        41.3004         38.5004
  -7676415.54543  -5963933.18546  23369672.382    23369672.3704   23369674.9774
        38.3004         36.2004
   4062139.27842   3175192.09145  24607428.966    24607427.5864   24607431.4564
        36.1004         34.3004
  -1844261.76043   -555196.03945  23910545.019    23910544.8374   23910549.2024
        38.3004         35.9004
 -11061318.54746  -8599470.53047  20936752.843    20936753.2454   20936754.6194
        48.8004         45.9004
 19 10 18  1 32  0.0000000  0  8G26G25G29G02G14G32G12G31
  -1129121.14644   -870322.18746  23249964.610    23249964.7514   23249970.4084
        41.1004         38.6004
 -16861697.58547 -13118559.10547  20766893.579    20766893.7074   20766899.1404
        49.6004         46.6004
 -24426321.47847 -18998172.23448  20170803.891    20170803.9084   20170805.6024
        51.0004         48.4004
  -2513727.39244  -1936475.05546  23918276.510    23918276.2874   23918277.1124
        41.3004         38.6004
  -7607392.79243  -5910149.24946  23382807.039    23382806.5034   23382809.0014
        38.5004         36.2004
   4160160.89242   3251572.61245  24626080.851    24626081.4454   24626084.2824
        35.9004         34.1004
  -1747486.20243   -479786.58345  23928961.821    23928960.7964   23928964.0774
        38.2004         35.9004
 -11083300.74346  -8616599.51647  20932569.850    20932569.9024   20932571.6004
        48.8004         45.9004
 19 10 18  1 32 30.0000000  0  8G26G25G29G02G14G32G12G31
  -1219340.29244   -940622.81346  23232796.546    23232796.0134   23232802.5054
        41.3004         38.6004
 -16810298.66647 -13078508.01347  20776675.293    20776674.6464   20776679.6264
        49.6004         46.5004
 -24431591.32747 -19002278.60748  20169801.384    20169801.1444   20169803.1384
        51.0004         48.4004
  -2450708.80044  -1887369.66446  23930269.404    23930268.7964   23930269.0034
        41.1004         38.5004
  -7538016.34943  -5856089.69146  23396009.542    23396009.9284   23396011.5424
        38.9004         36.6004
   4258240.36842   3327998.17245  24644746.330    24644746.7754   24644749.6344
        36.1004         34.3004
  -1650612.41343   -404300.51946  23947394.781    23947395.8054   23947400.0584
        38.2004         36.0004
 -11104741.56946  -8633306.65747  20928489.830    20928489.9404   20928491.0754
        48.8004         45.9004
 19 10 18  1 33  0.0000000  0  8G26G25G29G02G14G32G12G31
  -1309439.22544  -1010829.77446  23215651.066    23215651.1014   23215657.5874
        41.6004         39.0004
 -16758562.64747 -13038194.24947  20786520.009    20786519.9624   20786525.2884
        49.6004         46.8004
 -24436353.79847 -19005989.62048  20168894.871    20168894.8624   20168896.7484
        51.0004         48.4004
  -2387305.99144  -1837964.88046  23942334.962    23942333.4204   23942334.4574
        40.9004         38.1004
  -7468288.92143  -5801756.63446  23409277.633    23409276.8464   23409280.7904
        38.9004         36.6004
   4356374.69042   3404466.44445  24663419.775    24663420.2904   24663424.2194
        36.4004         34.5004
  -1553641.48443   -328738.76946  23965846.059    23965847.8314   23965853.3634
        38.5004         36.4004
 -11125639.80646  -8649591.01247  20924512.787    20924513.1244   20924514.1184
        48.8004         45.8004
 19 10 18  1 33 30.0000000  0  8G26G25G29G02G14G32G12G31
  -1399416.96744  -1080942.28646  23198529.233    23198528.9384   23198535.2104
        41.8004         39.3004
 -16706490.18447 -12997618.30847  20796428.926    20796428.7314   20796434.5044
        49.6004         46.6004
 -24440609.47647 -19009305.73148  20168084.645    20168084.9014   20168086.8784
        51.0004         48.4004
  -2323520.68144  -1788262.03846  23954472.278    23954471.7354   23954471.7674
        40.9004         38.5004
  -7398213.57943  -5747152.47946  23422612.708    23422613.3274   23422615.1384
        39.0004         36.6004
   4454560.87042   3480975.12945  24682102.639    24682102.7244   24682106.6444
        36.4004         34.5004
  -1456573.87143   -253101.69146  23984320.308    23984320.7984   23984324.7814
        39.2004         36.9004
 -11145994.37846  -8665451.72247  20920639.302    20920639.5914   20920640.9744
        48.8004         45.9004
 19 10 18  1 34  0.0000000  0  8G26G25G29G02G14G32G12G31
  -1489272.29644  -1150959.41346  23181430.753    23181430.3904   23181436.1634
        42.2004         39.5004
 -16654081.91247 -12956780.71347  20806402.390    20806401.9234   20806407.1404
        49.6004         46.6004
 -24444359.17747 -19012227.57148  20167371.071    20167371.1154   20167373.2614
        51.0004         48.2004
  -2259354.79544  -1738262.64046  23966681.357    23966680.6834   23966682.8334
        40.8004         38.1004
  -7327792.92243  -5692279.25546  23436013.573    23436013.1864   23436016.0854
        38.9004         36.2004
   4552795.75242   3557521.81945  24700797.894    24700798.2734   24700801.1714
        36.3004         34.5004
  -1359410.40743   -177389.93246  24002813.137    24002810.8074   24002814.7094
        39.6004         37.3004
 -11165804.28746  -8680888.02047  20916869.926    20916870.2444   20916871.6214
        48.9004         46.1004
 19 10 18  1 34 30.0000000  0  8G26G25G29G02G14G32G12G31
  -1579004.17644  -1220880.34346  23164355.603    23164355.7044   23164360.6684
        42.3004         39.7004
 -16601338.44247 -12915681.91447  20816438.727    20816438.3364   20816444.1434
        49.6004         46.6004
 -24447603.57747 -19014755.67048  20166754.106    20166753.7894   20166755.9174
        51.0004         48.4004
  -2194810.44544  -1687968.35846  23978964.900    23978964.1854   23978964.9174
        40.8004         38.1004
  -7257029.69443  -5637139.08846  23449478.024    23449477.9054   23449480.5224
        38.3004         36.0004
   4651076.44442   3634104.17945  24719498.448    24719496.8784   24719503.5364
        36.3004         34.5004
  -1262151.82443   -101604.02746  24021316.889    24021317.5764   24021321.4244
        39.6004         37.1004
 -11185068.33246  -8695898.96947  20913204.059    20913204.2774   20913205.6674
        48.9004         46.1004
 19 10 18  1 35  0.0000000  0  8G26G25G29G02G14G32G12G31
  -1668611.45944  -1290704.18146  23147304.264    23147303.9084   23147308.8934
        42.2004         39.5004
 -16548260.45847 -12874322.46847  20826539.401    20826538.6974   20826544.3554
        49.6004         46.6004
 -24450343.31947 -19016890.53348  20166232.698    20166232.8044   20166234.5884
        51.0004         48.4004
  -2129889.55344  -1637380.64246  23991317.656    23991317.4984   23991318.2194
        40.6004         37.8004
  -7185926.76843  -5581734.21846  23463008.215    23463008.0874   23463011.1504
        38.3004         36.2004
   4749399.90642   3710719.90145  24738209.829    24738209.7844   24738214.8154
        36.1004         34.1004
  -1164799.09643    -25744.77846  24039844.883    24039844.1804   24039847.5904
        39.4004         36.9004
 -11203785.68846  -8710483.93147  20909642.146    20909642.3814   20909644.0314
        48.9004         46.1004
 19 10 18  1 35 30.0000000  0  8G26G25G29G02G14G32G12G31
  -1758093.05144  -1360430.09146  23130275.726    23130275.9504   23130280.8464
        42.0004         39.2004
 -16494848.58047 -12832702.83747  20836703.768    20836703.0664   20836708.2134
        49.6004         46.6004
 -24452579.04847 -19018632.65748  20165807.364    20165807.3584   20165809.0304
        51.0004         48.4004
  -2064593.31544  -1586500.46446  24003744.676    24003743.5984   24003744.7514
        40.6004         37.9004
  -7114486.85843  -5526066.77046  23476603.928    23476603.8104   23476606.8364
        38.7004         36.4004
   4847763.20342   3787366.64945  24756928.065    24756927.7494   24756932.4574
        35.7004         34.1004
  -1067352.96343     50187.25346  24058388.388    24058387.2844   24058390.4104
        39.2004         36.7004
 -11221955.25646  -8724642.03747  20906184.623    20906184.8554   20906186.4264
        48.9004         46.1004
 19 10 18  1 36  0.0000000  0  9G26G25G29G02G14G32G12G21G31
  -1847447.81744  -1430057.17646  23113272.433    23113271.7224   23113277.1424
        41.8004         39.0004
 -16441103.45247 -12790823.53047  20846930.917    20846930.8494   20846935.8434
        49.6004         46.6004
 -24454311.38547 -19019982.52648  20165477.632    20165477.5304   20165479.4274
        51.0004         48.4004
  -1998925.00444  -1535330.35546  24016238.917    24016239.2314   24016241.0374
        40.6004         37.8004
  -7042712.96843  -5470139.07046  23490262.261    23490262.5894   23490264.7144
        38.9004         36.6004
   4946163.39242   3864042.12945  24775653.375    24775651.9534   24775658.5144
        35.6004         33.8004
   -969814.17343    126191.47346  24076948.007    24076947.7654   24076950.1684
        39.0004         36.6004
                   -230081.15355  23908012.215                    23908017.9364
                        35.5004
 -11239576.32546  -8738372.74247  20902831.743    20902832.0314   20902833.0644
        48.9004         46.1004
 19 10 18  1 36 30.0000000  0  9G26G25G29G02G14G32G12G21G31
  -1936674.64044  -1499584.54446  23096292.954    23096292.9574   23096297.9214
        41.5004         38.6004
 -16387025.74347 -12748685.06247  20857221.493    20857221.2084   20857226.0564
        49.6004         46.6004
 -24455541.32147 -19020940.91148  20165243.215    20165243.3624   20165245.3254
        51.0004         48.4004
  -1932885.76143  -1483871.20546  24028804.935    24028804.5234   24028807.6904
        40.4004         37.8004
  -6970607.96243  -5413953.36446  23503982.554    23503982.3874   23503986.7174
        38.9004         36.4004
   5044597.35142   3940743.91745  24794383.264    24794385.2794   24794389.4194
        35.6004         33.8004
   -872183.44843    202267.37146  24095524.121    24095525.2104   24095529.1144
        38.7004         36.4004
   -429498.64642   -309903.70545  23888517.743    23888517.7224   23888522.9154
        37.1004         35.3004
 -11256647.76746  -8751675.17047  20899583.072    20899583.1914   20899584.6194
        48.9004         46.1004
 19 10 18  1 37  0.0000000  0  9G26G25G29G02G14G32G12G21G31
  -2025772.46344  -1569011.40846  23079338.720    23079338.0924   23079342.8084
        41.3004         38.6004
 -16332616.10547 -12706287.95647  20867575.183    20867574.8934   20867580.4864
        49.6004         46.6004
 -24456269.12947 -19021508.03248  20165104.744    20165104.8464   20165106.9194
        51.0004         48.4004
  -1866477.80743  -1432124.73946  24041441.784    24041442.0424   24041443.8674
        40.4004         37.8004
  -6898174.09243  -5357511.39446  23517766.108    23517765.7284   23517769.6394
        38.7004         36.2004
   5143062.13842   4017469.71345  24813120.851    24813120.8704   24813126.2774
        36.1004         34.3004
   -774461.43443    278414.35746  24114122.244    24114121.9704   24114125.4204
        38.9004         36.6004
   -531808.47443   -389625.64545  23869050.672    23869049.4754   23869055.1434
        37.6004         35.7004
 -11273168.60746  -8764548.55947  20896439.309    20896439.2754   20896440.9674
        48.9004         45.9004
 19 10 18  1 37 30.0000000  0  9G26G25G29G02G14G32G12G21G31
  -2114740.06144  -1638336.79446  23062407.591    23062407.9034   23062412.3334
        41.3004         38.6004
 -16277875.17746 -12663632.69547  20877990.981    20877991.1574   20877997.1134
        49.5004         46.5004
 -24456495.65547 -19021684.54748  20165061.446    20165061.5954   20165063.9374
        51.0004         48.5004
  -1799702.91143  -1380092.35046  24054149.414    24054149.4654   24054150.8004
        40.4004         37.8004
  -6825414.53043  -5300815.65346  23531612.064    23531611.9354   23531614.8314
        38.5004         36.0004
   5241554.83642   4094217.24745  24831863.001    24831863.3474   24831867.6664
        36.3004         34.5004
   -676648.92543    354631.87146  24132737.699    24132735.4224   24132738.1994
        38.9004         36.4004
   -633986.29753   -469244.72255  23849605.178    23849604.9974   23849607.7874
        37.6004         35.5004
 -11289138.20346  -8776992.40847  20893400.460    20893400.2254   20893402.1244
        48.8004         45.9004
 19 10 18  1 38  0.0000000  0  9G26G25G29G02G14G32G12G21G31
  -2203576.26444  -1707559.81346  23045502.533    23045503.3284   23045507.6584
        41.3004         38.6004
 -16222803.62446 -12620719.81247  20888471.195    20888471.0944   20888476.9104
        49.5004         46.5004
 -24456221.62747 -19021471.01748  20165113.766    20165113.8464   20165115.9684
        51.2004         48.5004
  -1732563.10643  -1327775.63346  24066926.064    24066925.0504   24066926.0384
        40.3004         37.6004
  -6752332.22443  -5243868.41746  23545519.857    23545518.5664   23545522.2714
        38.3004         36.0004
   5340072.43342   4170984.22745  24850610.765    24850610.7034   24850614.8284
        36.8004         35.0004
   -578747.08943    430919.02146  24151364.385    24151364.9964   24151368.0194
        39.2004         37.1004
   -736029.92743   -548759.23545  23830187.864    23830188.2104   23830189.5494
        37.6004         35.3004
 -11304555.49246  -8789005.88547  20890466.159    20890466.5364   20890467.9004
        48.8004         45.8004
 19 10 18  1 38 30.0000000  0  9G26G25G29G02G14G32G12G21G31
  -2292280.00644  -1776679.59946  23028622.965    23028622.5634   23028628.2034
        41.5004         39.0004
 -16167402.10346 -12577549.80947  20899014.300    20899013.5974   20899019.6324
        49.5004         46.5004
 -24455448.33147 -19020868.44148  20165260.852    20165260.9204   20165263.2024
        51.2004         48.4004
  -1665060.71243  -1275176.36646  24079771.942    24079771.0664   24079772.1504
        40.1004         37.6004
  -6678929.64943  -5186671.59745  23559488.093    23559487.0874   23559491.0274
        38.2004         35.9004
   5438612.00842   4247768.33845  24869362.042    24869362.4854   24869367.9254
        37.1004         35.2004
   -480756.41943    507275.38446  24170011.143    24170011.2394   24170015.7214
        38.9004         36.4004
   -837936.75342   -628167.14745  23810794.341    23810794.5074   23810796.2614
        37.5004         35.2004
 -11319419.69046  -8800588.38947  20887637.862    20887637.8094   20887638.8904
        48.6004         45.8004
 19 10 18  1 39  0.0000000  0  9G26G25G29G02G14G32G12G21G31
  -2380850.10544  -1845695.24546  23011768.868    23011768.4954   23011774.5264
        41.8004         39.3004
 -16111671.29746 -12534123.21847  20909618.735    20909618.6234   20909624.6434
        49.5004         46.3004
 -24454175.71547 -19019876.78948  20165502.900    20165503.3014   20165505.2094
        51.2004         48.5004
  -1597197.30843  -1222295.76746  24092685.949    24092685.9654   24092685.4564
        40.1004         37.4004
  -6605209.93043  -5129227.69045  23573516.034    23573515.4684   23573518.1284
        38.0004         35.7004
   5537170.57842   4324567.25945  24888116.297    24888117.9484   24888123.1004
        37.3004         35.2004
   -382677.57543    583700.42046  24188677.308    24188675.3124   24188678.6824
        38.7004         36.0004
   -939703.91042   -707466.24345  23791430.743    23791428.8004   23791430.8124
        37.3004         35.3004
 -11333730.16346  -8811739.41047  20884914.258    20884914.4284   20884916.2094
        48.6004         45.6004
 19 10 18  1 39 30.0000000  0  9G26G25G29G02G14G32G12G21G31
  -2469285.46344  -1914605.91646  22994939.697    22994939.3804   22994945.3034
        42.0004         39.3004
 -16055611.86446 -12490440.56547  20920287.474    20920287.1664   20920292.3884
        49.3004         46.3004
 -24452405.25447 -19018497.20548  20165839.977    20165839.8764   20165841.9974
        51.2004         48.4004
  -1528975.03943  -1169135.55346  24105669.831    24105667.5044   24105668.2964
        40.1004         37.6004
  -6531175.87243  -5071538.83646  23587604.799    23587605.1694   23587607.7824
        38.2004         36.0004
   5635745.21542   4401378.68945  24906876.320    24906877.5584   24906879.0164
        37.1004         34.8004
   -284511.53543    660193.41046  24207357.984    24207356.5574   24207359.0004
        38.5004         36.2004
  -1041329.17243   -786654.74145  23772089.156    23772089.4564   23772092.2554
        37.6004         35.3004
 -11347485.66046  -8822457.97947  20882297.271    20882297.4084   20882298.5064
        48.6004         45.8004
 19 10 18  1 40  0.0000000  0  9G26G25G29G02G14G32G12G21G31
  -2557584.83544  -1983410.61646  22978136.786    22978136.3474   22978142.6414
        42.0004         39.3004
 -15999224.50346 -12446502.36347  20931017.012    20931016.8064   20931022.1904
        49.3004         46.3004
 -24450137.03447 -19016729.75948  20166271.387    20166271.6234   20166273.4474
        51.0004         48.4004
  -1460395.92643  -1115697.29346  24118719.974    24118718.6304   24118718.4104
        40.3004         37.9004
  -6456830.10843  -5013607.07245  23601751.114    23601750.8194   23601755.0734
        38.0004         35.7004
   5734332.88842   4478200.24645  24925634.602    24925634.5664   24925640.0924
        36.4004         34.3004
   -186259.04143    736753.80946  24226053.902    24226053.8584   24226055.5514
        38.5004         36.0004
  -1142809.68943   -865730.48145  23752778.234    23752778.1024   23752782.1194
        37.6004         35.3004
 -11360685.68446  -8832743.71747  20879785.300    20879785.2994   20879786.5174
        48.6004         45.8004
 19 10 18  1 40 30.0000000  0  9G26G25G29G02G14G32G12G21G31
  -2645747.13444  -2052108.50146  22961359.712    22961359.6584   22961365.5954
        42.2004         39.5004
 -15942509.83346 -12402309.12047  20941810.141    20941809.2904   20941814.9744
        49.3004         46.1004
 -24447372.22847 -19014575.36048  20166797.549    20166797.4694   20166799.9284
        51.0004         48.4004
  -1391461.90243  -1061982.47046  24131837.865    24131836.5924   24131837.3864
        40.4004         37.9004
  -6382175.71143  -4955434.84345  23615958.319    23615957.9654   23615961.5044
        37.8004         35.5004
   5832930.74742   4555029.79445  24944398.982    24944400.2584   24944404.6584
        35.7004         33.8004
    -87920.73043    813381.06446  24244769.635    24244768.2924   24244767.7924
        38.5004         36.2004
  -1244142.83142   -944691.36945  23733495.327    23733494.6674   23733499.2644
        37.5004         35.3004
 -11373329.37146  -8842595.94747  20877379.151    20877379.4154   20877380.8424
        48.8004         45.8004
 19 10 18  1 41  0.0000000  0  9G26G25G29G02G14G32G12G21G31
  -2733771.14844  -2120698.64646  22944609.755    22944609.6984   22944615.3274
        42.0004         39.3004
 -15885468.55046 -12357861.37947  20952664.567    20952663.9484   20952669.3044
        49.3004         46.1004
 -24444112.27447 -19012035.13248  20167417.910    20167417.8584   20167420.1144
        51.0004         48.4004
  -1322175.29243  -1007992.89246  24145021.615    24145020.0964   24145022.6224
        40.1004         37.4004
  -6307215.52243  -4897024.33345  23630222.893    23630222.0804   23630224.6684
        37.8004         35.5004
   5931535.81142   4631864.91745  24963161.724    24963160.7884   24963168.2524
        35.4004         33.6004
     10502.52743    890074.49645  24263496.301    24263495.4554   24263499.1374
        38.3004         35.9004
  -1345326.35543  -1023535.67145  23714240.670    23714240.9374   23714244.6844
        37.6004         35.5004
 -11385416.00946  -8852014.11047  20875078.995    20875079.7284   20875080.6124
        48.8004         45.9004
 19 10 18  1 41 30.0000000  0  9G26G25G29G02G14G32G12G21G31
  -2821655.66544  -2189180.08046  22927884.988    22927885.4614   22927891.5764
        42.0004         39.3004
 -15828101.36146 -12313159.68847  20963580.756    20963580.6304   20963585.7704
        49.1004         45.9004
 -24440357.09547 -19009109.01448  20168132.604    20168132.6514   20168134.7334
        51.0004         48.4004
  -1252538.14943   -953730.19546  24158273.866    24158272.3174   24158273.3424
        40.4004         38.1004
  -6231952.47643  -4838377.79445  23644544.956    23644544.1584   23644547.5574
        37.8004         35.7004
   6030145.23942   4708703.43045  24981926.748    24981927.0024   24981929.7224
        34.9004         33.1004
    109009.79043    966833.39946  24282241.487    24282241.0504   24282244.0684
        38.3004         36.0004
  -1446357.80242  -1102261.43145  23695016.143    23695014.3454   23695020.1184
        37.5004         35.3004
 -11396944.77146  -8860997.56747  20872885.479    20872885.9524   20872887.1704
        48.8004         45.9004
 19 10 18  1 42  0.0000000  0  9G26G25G29G02G14G32G12G21G31
  -2909399.59044  -2257551.97146  22911189.283    22911189.1644   22911194.5574
        42.2004         39.5004
 -15770408.96546 -12268204.58547  20974559.770    20974559.0784   20974564.4864
        49.1004         46.1004
 -24436108.18847 -19005798.17548  20168940.945    20168941.0074   20168943.4354
        51.0004         48.4004
  -1182552.21244   -899195.69946  24171591.163    24171590.2174   24171591.0954
        40.6004         38.1004
  -6156389.57043  -4779497.60545  23658924.476    23658924.2294   23658927.0344
        38.0004         35.9004
   6128756.06642   4785543.04745  25000691.808    25000692.1194   25000699.7214
        34.7004         33.1004
    207600.80243   1043657.55645  24301002.749    24301002.4534   24301004.4224
        38.0004         35.7004
  -1547234.87743  -1180866.95845  23675821.762    23675821.4934   23675822.4984
        37.6004         35.5004
 -11407914.91446  -8869545.73147  20870797.469    20870797.7474   20870799.5984
        48.8004         45.9004
 19 10 18  1 42 30.0000000  0  9G26G25G29G02G14G32G12G21G31
  -2997001.71044  -2325813.37046  22894519.401    22894519.0054   22894523.7784
        42.2004         39.5004
 -15712392.03246 -12222996.59847  20985599.399    20985599.5864   20985605.1484
        49.1004         46.1004
 -24431365.59447 -19002102.64248  20169843.587    20169843.4464   20169845.8004
        51.0004         48.4004
  -1112219.45744   -844390.95146  24184973.688    24184973.6404   24184975.4114
        40.6004         37.9004
  -6080529.44143  -4720385.83845  23673360.213    23673359.5344   23673363.1674
        38.2004         35.9004
   6227365.36941   4862381.45645  25019456.916    25019459.2774   25019460.7144
        33.8004         32.4004
    306274.61443   1120546.24445  24319775.964    24319777.7424   24319782.1704
        38.0004         35.5004
  -1647953.93142  -1259349.30845  23656656.190    23656654.0164   23656656.1744
        37.5004         35.2004
 -11418325.67546  -8877658.02147  20868816.442    20868816.6694   20868817.8064
        48.8004         45.8004
 19 10 18  1 43  0.0000000  0  9G26G25G29G02G14G32G12G21G31
  -3084460.82044  -2393963.31546  22877876.165    22877875.6744   22877880.9334
        42.3004         39.7004
 -15654051.20946 -12177536.23447  20996702.060    20996701.3994   20996706.9204
        49.1004         46.1004
 -24426131.02547 -18998023.75348  20170839.478    20170839.9184   20170841.9134
        51.0004         48.4004
  -1041542.04043   -789317.63746  24198424.570    24198423.8194   24198423.0044
        40.4004         37.8004
  -6004375.02643  -4661044.73045  23687850.552    23687849.9164   23687854.9224
        37.6004         35.3004
   6325970.27341   4939216.43745  25038220.323    25038222.8834   25038224.0634
        33.1004         32.2004
    405030.17143   1197498.60045  24338571.728    24338570.1284   24338575.0614
        37.8004         35.3004
  -1748512.92842  -1337706.95445  23637519.803    23637518.5414   23637521.0134
        37.3004         35.2004
 -11428176.38046  -8885333.90747  20866941.961    20866941.9054   20866944.3904
        48.6004         45.9004
 19 10 18  1 43 30.0000000  0  9G26G25G29G02G14G32G12G21G31
  -3171775.70844  -2462000.88546  22861260.149    22861259.8894   22861265.7784
        42.3004         39.7004
 -15595387.24146 -12131824.06347  21007865.196    21007864.8384   21007870.2014
        49.1004         46.1004
 -24420404.91747 -18993561.84948  20171929.511    20171929.6044   20171931.5724
        51.0004         48.4004
   -970521.91243   -733977.28546  24211937.951    24211937.9614   24211938.8354
        40.1004         37.4004
  -5927929.23142  -4601476.58745  23702398.187    23702397.5444   23702400.8364
        37.3004         35.2004
   6424567.79251   5016045.67555  25056981.399    25056983.7544   25056990.9274
        33.0004         31.9004
    503866.91843   1274514.22145  24357380.505    24357379.0184   24357381.1024
        37.8004         35.5004
  -1848909.60342  -1415938.11445  23618415.424    23618413.6924   23618415.8334
        37.5004         35.3004
 -11437466.42646  -8892572.91247  20865173.828    20865174.3064   20865176.3194
        48.6004         45.8004
 19 10 18  1 44  0.0000000  0  9G26G25G29G02G14G32G12G21G31
  -3258945.22344  -2529925.19046  22844672.263    22844672.8224   22844677.6124
        42.5004         40.0004
 -15536400.79046 -12085860.60547  21019089.770    21019089.4724   21019094.8974
        49.1004         46.1004
 -24414188.33647 -18988717.74948  20173112.254    20173112.5034   20173114.3904
        51.0004         48.5004
   -899161.40743   -678371.67246  24225518.221    24225517.3814   24225518.9314
        40.1004         37.4004
  -5851195.03042  -4541683.76545  23717000.263    23716998.9924   23717002.5394
        37.3004         35.2004
   6523155.11141   5092866.96145  25075745.416    25075747.0124
        33.0004         32.0004
    602783.98043   1351592.47745  24376199.859    24376202.1624   24376205.3624
        37.6004         35.5004
  -1949141.07242  -1494040.55645  23599339.122    23599338.3544   23599342.1124
        37.5004         35.3004
 -11446195.24246  -8899374.59947  20863513.137    20863513.1934   20863515.6984
        48.6004         45.9004
 19 10 18  1 44 30.0000000  0  9G26G25G29G02G14G32G12G21G31
  -3345968.17344  -2597735.26546  22828112.707    22828113.0334   22828118.0994
        42.7004         40.0004
 -15477092.59846 -12039646.43847  21030376.064    21030375.5544   21030380.6214
        48.9004         45.9004
 -24407482.33247 -18983492.29148  20174388.869    20174388.8974   20174390.5754
        51.2004         48.5004
   -827463.03243   -622502.83346  24239162.094    24239161.3324   24239161.4684
        40.1004         37.6004
  -5774175.17242  -4481668.29345  23731656.593    23731655.6974   23731659.3564
        37.3004         35.3004
   6621729.18051   5169677.96855  25094498.635    25094500.6964
        32.1004         31.5004
    701780.61043   1428732.70145  24395043.102    24395041.4584   24395043.8744
        37.6004         35.5004
  -2049205.41542  -1572012.76545  23580298.927    23580298.0964   23580300.5684
        37.5004         35.3004
 -11454362.14746  -8905738.43147  20861958.927    20861959.3534   20861961.2024
        48.6004         45.9004
 19 10 18  1 45  0.0000000  0  9G26G25G29G02G14G32G12G21G31
  -3432843.30344  -2665430.15246  22811580.869    22811580.6274   22811586.2634
        42.9004         40.2004
 -15417463.29346 -11993182.06347  21041722.825    21041722.3334   21041727.9194
        48.9004         45.8004
 -24400287.41447 -18977885.85848  20175757.891    20175757.8234   20175759.5584
        51.2004         48.4004
   -755427.95043   -566371.59646  24252869.342    24252869.0944   24252869.6774
        40.1004         37.4004
  -5696872.78842  -4421432.67445  23746366.579    23746367.5014   23746370.7564
        37.5004         35.3004
   6720287.43051   5246476.60555  25113256.252    25113257.1314
        31.7004         31.2004
    800855.75943   1505934.08745  24413897.238    24413894.9354   24413897.5904
        37.8004         35.7004
  -2149099.50643  -1649852.31745  23561290.096    23561289.0664   23561291.2324
        37.6004         35.7004
 -11461966.63046  -8911664.01547  20860511.798    20860511.9494   20860514.2074
        48.6004         45.8004
 19 10 18  1 45 30.0000000  0  8G26G25G29G02G14G12G21G31
  -3519569.44744  -2733008.96346  22795077.552    22795077.0764   22795083.1364
        43.0004         40.6004
 -15357513.65246 -11946468.07247  21053131.277    21053130.5214   21053135.7934
        48.8004         45.8004
 -24392604.91547 -18971899.48648  20177219.644    20177219.8404   20177221.7834
        51.2004         48.5004
   -683058.55543   -509979.86346  24266641.333    24266641.3254   24266642.2514
        40.3004         37.6004
  -5619290.87342  -4360979.26845  23761129.156    23761128.3124   23761133.6984
        37.3004         35.0004
    900009.35043   1583196.63746  24432766.226    24432764.9104   24432765.9414
        38.0004         36.0004
  -2248820.49143  -1727556.97646  23542314.303    23542311.9084   23542315.0094
        38.2004         36.0004
 -11469008.03546  -8917150.83147  20859171.832    20859172.0764   20859174.2894
        48.6004         45.8004
 19 10 18  1 46  0.0000000  0  8G26G25G29G02G14G12G21G31
  -3606145.33544  -2800470.67846  22778602.721    22778602.5904   22778608.2194
        43.2004         40.7004
 -15297244.38746 -11899505.01347  21064599.236    21064599.0244   21064604.7784
        48.8004         45.6004
 -24384435.55347 -18965533.74348  20178774.282    20178774.1444   20178776.1704
        51.2004         48.5004
   -610356.86743   -453329.17546  24280477.875    24280476.5554   24280476.1484
        40.4004         38.1004
  -5541432.17142  -4300310.14245  23775946.741    23775945.8414   23775949.1384
        37.3004         35.3004
    999240.17343   1660519.35446  24451647.577    24451648.7894   24451650.1684
        38.3004         36.0004
  -2348366.44443  -1805125.25345  23523370.860    23523370.2364   23523371.7874
        38.2004         35.9004
 -11475485.64046  -8922198.32347  20857939.634    20857939.9604   20857941.5744
        48.6004         45.9004
 19 10 18  1 46 30.0000000  0  8G26G25G29G02G14G12G21G31
  -3692569.77745  -2867814.40146  22762156.469    22762156.5614   22762162.1044
        43.6004         40.7004
 -15236656.16946 -11852293.43847  21076129.329    21076128.8394   21076134.4724
        48.6004         45.8004
 -24375780.37647 -18958789.44748  20180421.255    20180421.3904   20180423.5324
        51.2004         48.5004
   -537325.22744   -396421.43246  24294374.344    24294373.9994   24294374.2774
        40.6004         37.8004
  -5463299.53342  -4239427.59545  23790814.532    23790814.4594   23790816.3644
        37.3004         35.2004
   1098547.38543   1737901.61646  24470543.077    24470544.4474   24470547.8424
        38.5004         36.2004
  -2447734.64043  -1882555.00946  23504462.476    23504462.2824   23504463.0044
        38.7004         36.4004
 -11481399.05146  -8926806.18147  20856814.156    20856814.6024   20856815.8524
        48.6004         45.8004
 19 10 18  1 47  0.0000000  0  8G26G25G29G02G14G12G21G31
  -3778841.57745  -2935039.16346  22745739.390    22745739.3984   22745745.1174
        43.7004         41.1004
 -15175749.72946 -11804833.88947  21087719.496    21087718.7214   21087724.6794
        48.8004         45.8004
 -24366640.46947 -18951667.44148  20182160.261    20182160.5244   20182162.7664
        51.2004         48.5004
   -463965.75143   -339258.17746  24308334.417    24308334.0084   24308333.2004
        40.3004         37.6004
  -5384896.06642  -4178333.99445  23805734.595    23805734.2254   23805735.9614
        37.1004         34.8004
   1197930.62843   1815343.10046  24489456.682    24489457.5354   24489459.6074
        38.3004         36.0004
  -2546922.37743  -1959844.15546  23485587.186    23485585.8474   23485588.7094
        38.9004         36.4004
 -11486747.65446  -8930973.93447  20855796.347    20855796.5164   20855798.1244
        48.6004         45.8004
 19 10 18  1 47 30.0000000  0  8G26G25G29G02G14G12G21G31
  -3864959.47545  -3002144.00946  22729351.953    22729351.9814   22729357.4474
        43.9004         41.2004
 -15114525.80646 -11757126.95447  21099369.575    21099369.3724   21099375.4764
        48.8004         45.8004
 -24357016.66547 -18944168.37148  20183991.762    20183991.8504   20183994.1454
        51.0004         48.4004
   -390280.03443   -281840.73346  24322356.789    24322356.9934   24322357.5124
        40.3004         37.8004
  -5306224.65742  -4117031.60545  23820704.271    23820703.3574   23820707.4294
        37.1004         35.2004
   1297388.85043   1892843.01346  24508384.036    24508383.2944   24508384.0244
        38.2004         36.0004
  -2645927.65643  -2036991.12046  23466745.867    23466745.9174   23466748.5144
        38.9004         36.6004
 -11491530.93446  -8934701.17047  20854886.344    20854886.2324   20854887.7214
        48.6004         45.6004
 19 10 18  1 48  0.0000000  0  8G26G25G29G02G14G12G21G31
  -3950922.19545  -3069127.93046  22712993.954    22712994.2334   22712999.8364
        43.9004         41.2004
 -15052985.08046 -11709173.16247  21111080.499    21111080.3014   21111086.1014
        48.8004         45.8004
 -24346909.76547 -18936292.86148  20185914.539    20185914.7744   20185917.2724
        51.0004         48.4004
   -316270.86143   -224171.24346  24336439.943    24336439.7184   24336440.7934
        40.3004         37.8004
  -5227288.21042  -4055522.69945  23835725.976    23835725.1104   23835729.3594
        37.0004         35.0004
   1396921.47543   1970400.87945  24527324.858    24527323.3524   24527324.8174
        38.2004         35.7004
  -2744747.30543  -2113993.44246  23447941.335    23447940.8534   23447943.8304
        38.9004         36.6004
 -11495748.47346  -8937987.57847  20854083.674    20854083.8704   20854085.1404
        48.6004         45.8004
 19 10 18  1 48 30.0000000  0  8G26G25G29G02G14G12G21G31
  -4036728.52045  -3135989.99446  22696665.737    22696665.7484   22696670.8304
        44.1004         41.4004
 -14991128.27646 -11660973.06947  21122852.079    21122851.0344   21122857.2344
        48.8004         45.8004
 -24336321.39147 -18928042.18048  20187929.663    20187929.7404   20187932.3914
        51.0004         48.4004
   -241940.08843   -166251.19146  24350585.744    24350584.4084   24350585.4104
        40.1004         37.6004
  -5148089.55342  -3993809.47045  23850795.365    23850794.8714   23850798.2434
        36.6004         34.6004
   1496527.62843   2048016.08245  24546276.538    24546276.9784   24546279.2314
        37.8004         35.5004
  -2843378.97543  -2190849.27446  23429173.249    23429172.2934   23429174.5554
        39.0004         36.6004
 -11499399.89946  -8940832.85347  20853389.050    20853389.2744   20853390.3524
        48.6004         45.8004
 19 10 18  1 49  0.0000000  0  8G26G25G29G02G14G12G21G31
  -4122377.25445  -3202729.24746  22680366.651    22680366.9604   22680373.0464
        44.1004         41.2004
 -14928956.16546 -11612527.28247  21134682.444    21134682.1184   21134688.1824
        48.8004         45.8004
 -24325252.10347 -18919416.75748  20190036.025    20190036.1764   20190038.4734
        51.0004         48.4004
   -167289.56443   -108081.95546  24364790.560    24364789.2224   24364790.1054
        40.1004         37.6004
  -5068631.91242  -3931894.44045  23865916.704    23865917.6194   23865919.9884
        37.0004         35.2004
   1596206.60642   2125688.00945  24565244.129    24565244.4464   24565248.9384
        37.5004         35.2004
  -2941820.55743  -2267556.99546  23410440.278    23410439.5014   23410443.1044
        39.0004         36.7004
 -11502484.65846  -8943236.56447  20852801.539    20852801.8854   20852803.2174
        48.6004         45.6004
 19 10 18  1 49 30.0000000  0  8G26G25G29G02G14G12G21G31
  -4207867.08945  -3269344.70546  22664098.811    22664098.8514   22664104.7254
        44.1004         41.2004
 -14866469.42946 -11563836.33847  21146573.676    21146573.1934   21146579.2024
        48.8004         45.8004
 -24313703.05347 -18910417.49448  20192234.247    20192234.2584   20192236.4394
        51.0004         48.5004
    -92321.40643    -49665.22546  24379055.679    24379055.2024   24379056.1564
        39.7004         37.1004
  -4988918.32142  -3869779.96445  23881087.202    23881085.8554   23881088.9994
        37.0004         34.6004
   1695957.52442   2203415.98045  24584225.825    24584227.5864   24584230.2694
        37.3004         35.3004
  -3040069.10343  -2344114.30846  23391744.689    23391743.3854   23391745.9374
        39.2004         36.7004
 -11505002.24446  -8945198.32447  20852323.124    20852323.1264   20852323.9104
        48.6004         45.6004
 19 10 18  1 50  0.0000000  0  8G26G25G29G02G14G12G21G31
  -4293196.78945  -3335835.36446  22647860.512    22647861.2794   22647866.7644
        43.9004         40.9004
 -14803668.83346 -11514900.83347  21158523.942    21158523.7804   21158529.6944
        48.8004         45.8004
 -24301675.30847 -18901045.22348  20194522.929    20194523.0094   20194525.2524
        51.0004         48.4004
    -17037.95743      8997.21446  24393380.946    24393381.2334   24393381.7874
        39.9004         37.4004
  -4908951.33442  -3807468.02945  23896303.293    23896302.6334   23896305.2594
        36.8004         34.6004
   1795779.56942   2281199.43245  24603221.554    24603221.6974   24603227.4194
        37.3004         35.2004
  -3138122.00943  -2420519.16946  23373084.800    23373084.2484   23373087.1264
        39.2004         36.9004
 -11506952.17046  -8946717.75147  20851951.969    20851952.2944   20851952.6044
        48.6004         45.6004
 19 10 18  1 50 30.0000000  0  8G26G25G29G02G14G12G21G31
  -4378365.08445  -3402200.25646  22631653.711    22631653.9554   22631660.2044
        43.9004         41.1004
 -14740555.09146 -11465721.31047  21170534.536    21170534.1374   21170539.4584
        48.8004         45.6004
 -24289169.64547 -18891300.54748  20196902.669    20196902.7424   20196905.3084
        51.0004         48.4004
     58558.56643     67903.58946  24407766.534    24407765.8904   24407767.3674
        39.7004         37.3004
  -4828734.16342  -3744961.16945  23911569.287    23911567.3054   23911571.0824
        36.6004         34.6004
   1895672.20642   2359037.82045  24622232.020    24622231.4244   24622235.3024
        37.3004         34.8004
  -3235977.20643  -2496769.96946  23354462.270    23354462.3594   23354465.6954
        39.2004         36.9004
 -11508334.24546  -8947794.70447  20851688.758    20851689.1354   20851690.4234
        48.6004         45.8004
 19 10 18  1 51  0.0000000  0  8G26G25G29G02G14G12G21G31
  -4463370.74945  -3468438.42146  22615478.282    22615477.7464   22615484.3654
        43.7004         40.9004
 -14677128.96746 -11416298.37047  21182603.976    21182603.7984   21182609.3324
        48.8004         45.8004
 -24276187.54747 -18881184.62248  20199373.170    20199373.0174   20199375.3844
        51.0004         48.4004
    134466.26343    127052.43746  24422212.428    24422211.7924   24422211.9704
        39.9004         37.6004
  -4748269.79742  -3682261.65845  23926879.775    23926879.8514   23926883.6604
        36.3004         34.3004
   1995634.62442   2436930.59645  24641249.798    24641253.4024   24641257.4344
        37.1004         34.6004
  -3333632.16243  -2572864.74346  23335879.482    23335879.5014   23335882.4614
        39.4004         36.9004
 -11509148.13246  -8948428.90447  20851533.431    20851533.7754   20851535.5584
        48.6004         45.8004
 19 10 18  1 51 30.0000000  0  8G26G25G29G02G14G12G21G31
  -4548212.47645  -3534548.84246  22599332.481    22599332.8754   22599338.8434
        43.6004         40.6004
 -14613391.18646 -11366632.58947  21194732.553    21194732.3024   21194737.9574
        48.6004         45.6004
 -24262729.79147 -18870698.05948  20201933.968    20201933.9384   20201936.1424
        51.0004         48.4004
    210682.72043    186441.90746  24436713.866    24436713.7834   24436716.4594
        39.9004         37.3004
  -4667561.33642  -3619371.98745  23942238.553    23942237.9844   23942239.8544
        36.4004         34.5004
   2095665.83442   2514877.01145  24660288.896    24660288.9234   24660294.1504
        37.1004         35.0004
  -3431084.04143  -2648801.26646  23317336.675    23317336.1584   23317337.9724
        39.4004         37.1004
 -11509393.16346  -8948619.85147  20851487.215    20851487.4074   20851488.9744
        48.8004         45.9004
 19 10 18  1 52  0.0000000  0  8G26G25G29G02G14G12G21G31
  -4632888.99144  -3600530.54046  22583220.014    22583220.0604   22583225.1534
        43.4004         40.6004
 -14549342.49846 -11316724.53447  21206921.108    21206920.6714   21206926.1714
        48.6004         45.6004
 -24248797.34547 -18859841.60148  20204585.287    20204585.2404   20204587.6594
        51.0004         48.4004
    287205.95243    246070.39746  24451276.599    24451276.0804   24451277.2634
        39.9004         37.6004
  -4586611.69042  -3556294.33245  23957643.515    23957642.9834   23957644.3284
        36.3004         34.3004
   2195765.18542   2592876.47945  24679338.868    24679337.7964   24679339.7224
        36.8004         34.6004
  -3528330.31743  -2724577.57046  23298831.206    23298830.2384   23298831.3244
        39.4004         36.7004
 -11509069.39946  -8948367.58547  20851548.813    20851548.8544   20851551.1564
        48.8004         45.9004
 19 10 18  1 52 30.0000000  0  8G26G25G29G02G14G12G21G31
  -4717399.02844  -3666382.50646  22567138.177    22567138.1054   22567143.8604
        43.4004         40.6004
 -14484983.67346 -11266574.81847  21219167.980    21219167.5354   21219173.1974
        48.6004         45.6004
 -24234391.47547 -18848616.24648  20207326.436    20207326.6844   20207328.9574
        50.8004         48.4004
    364034.12343    305936.50346  24465895.444    24465894.7554   24465896.6354
        39.9004         37.4004
  -4505423.64342  -3493030.94045  23973091.631    23973090.6254   23973094.5064
        36.1004         34.0004
   2295932.23042   2670928.74945  24698399.323    24698398.3944   24698402.7794
        37.0004         35.0004
  -3625368.60343  -2800191.81446  23280364.869    23280363.7144   23280367.3194
        39.2004         36.9004
 -11508176.41446  -8947671.76147  20851718.596    20851718.9814   20851720.9494
        48.8004         45.9004
 19 10 18  1 53  0.0000000  0  8G26G25G29G02G14G12G21G31
  -4801741.28344  -3732103.72746  22551088.608    22551088.4494   22551093.6994
        43.2004         40.2004
 -14420315.41046 -11216183.99447  21231473.392    21231473.7104   21231479.0564
        48.6004         45.6004
 -24219513.40347 -18837022.94148  20210157.780    20210157.7204   20210159.9534
        51.0004         48.2004
    441164.66543    366038.25246  24480573.661    24480573.7664   24480573.9814
        39.7004         37.1004
  -4424000.25642  -3429584.14345  23988586.189    23988585.8494   23988587.6414
        35.4004         33.8004
   2396165.86642   2749032.90745  24717474.992    24717473.7144   24717479.5044
        37.1004         34.8004
  -3722196.47143  -2875642.08346  23261936.627    23261937.3314   23261941.8974
        39.0004         36.6004
 -11506713.83246  -8946532.09347  20851997.642    20851997.7994   20851999.0564
        48.9004         46.1004
 19 10 18  1 53 30.0000000  0  8G26G25G29G02G14G12G21G31
  -4885914.49044  -3797693.23346  22535070.916    22535070.4384   22535076.3274
        43.0004         40.2004
 -14355338.50446 -11165552.65247  21243839.296    21243838.2504   21243844.2924
        48.6004         45.6004
 -24204164.32447 -18825062.61848  20213078.235    20213078.4484   20213080.8404
        50.8004         48.2004
    518595.59343    426374.04646  24495308.051    24495306.9124   24495308.9364
        39.4004         36.9004
  -4342344.49842  -3365956.27945  24004125.971    24004126.2964   24004128.0214
        35.6004         33.8004
   2496465.47742   2827188.43445  24736559.050    24736559.3104   24736563.1344
        36.8004         34.8004
  -3818811.20943  -2950926.29446  23243552.383    23243552.7264   23243556.3054
        38.9004         36.6004
 -11504681.23646  -8944948.26247  20852384.128    20852384.1954   20852385.6014
        48.8004         45.9004
 19 10 18  1 54  0.0000000  0  8G26G25G29G02G14G12G21G31
  -4969917.33644  -3863149.99046  22519085.226    22519085.6074   22519090.6094
        42.7004         39.9004
 -14290053.69546 -11114681.40147  21256261.860    21256261.5734   21256267.4374
        48.6004         45.4004
 -24188345.34547 -18812736.13848  20216088.953    20216089.0534   20216091.0834
        51.0004         48.4004
    596324.83043    486942.25946  24510099.187    24510099.5394   24510101.5784
        39.7004         37.4004
  -4260459.70042  -3302150.01745  24019705.788    24019704.9124   24019711.2944
        35.0004         33.3004
   2596830.12542   2905394.67345  24755659.561    24755658.6584   24755662.3254
        36.4004         34.5004
  -3915210.83643  -3026042.86946  23225209.927    23225208.7184   23225210.7274
        38.9004         36.6004
 -11502078.78246  -8942920.38247  20852878.850    20852879.0724   20852880.5404
        48.8004         45.8004
 19 10 18  1 54 30.0000000  0  8G26G25G29G02G14G12G21G31
  -5053748.54144  -3928472.99546  22503133.222    22503133.6144   22503138.0724
        42.3004         39.3004
 -14224461.74646 -11063570.81147  21268744.086    21268743.2144   21268749.0974
        48.4004         45.4004
 -24172057.64547 -18800044.42148  20219188.571    20219188.4464   20219190.5284
        51.0004         48.2004
    674349.95543    547741.08546  24524947.843    24524947.0584   24524948.1654
        39.9004         37.4004
  -4178348.60342  -3238167.31445  24035332.768    24035333.9644   24035335.4724
        34.5004         33.1004
   2697259.21342   2983651.11945  24774767.747    24774768.0354   24774771.8014
        35.9004         33.8004
  -4011392.53043  -3100989.61946  23206906.168    23206905.7914   23206908.6884
        38.9004         36.6004
 -11498906.11146  -8940448.18047  20853483.052    20853483.2464   20853484.3504
        48.6004         45.8004
 19 10 18  1 55  0.0000000  0  8G26G25G29G02G14G12G21G31
  -5137406.77144  -3993661.22346  22487213.365    22487213.4694   22487218.7724
        42.0004         39.2004
 -14158563.42546 -11012221.49547  21281283.399    21281283.5824   21281289.2404
        48.4004         45.4004
 -24155301.88847 -18786987.98748  20222376.691    20222376.9314   20222379.1904
        51.0004         48.4004
    752668.92643    608768.85046  24539851.378    24539850.9664   24539852.2324
        39.9004         37.6004
  -4096013.88042  -3174010.43945  24051001.212    24050999.9204   24051004.4544
        34.5004         33.4004
   2797752.06242   3061957.24945  24793892.149    24793892.1194   24793894.3214
        35.6004         33.8004
  -4107353.88543  -3175764.70046  23188645.818    23188645.0904   23188648.1514
        39.0004         36.6004
 -11495163.01646  -8937531.49147  20854194.649    20854195.0764   20854196.7724
        48.6004         45.6004
 19 10 18  1 55 30.0000000  0  8G26G25G29G02G14G12G21G31
  -5220890.73844  -4058713.65446  22471326.936    22471326.8174   22471332.3464
        41.8004         39.0004
 -14092359.49146 -10960634.03347  21293882.586    21293882.0524   21293887.3264
        48.2004         45.2004
 -24138079.83147 -18773568.20248  20225654.042    20225654.2804   20225656.4084
        51.0004         48.4004
    831279.71943    670024.01246  24554811.388    24554810.3424   24554810.4884
        39.9004         37.3004
  -4013458.88442  -3109681.89045  24066710.334    24066710.7254   24066710.5094
        34.5004         32.7004
   2898307.84542   3140312.41845  24813031.213    24813025.4494   24813026.3914
        35.4004         33.4004
  -4203092.45443  -3250366.17246  23170426.891    23170426.2154   23170430.8154
        39.0004         36.7004
 -11490849.30246  -8934170.17647  20855016.223    20855016.4924   20855017.4224
        48.4004         45.6004
 19 10 18  1 56  0.0000000  0  9G26G25G29G02G14G12G21G05G31
  -5304199.12044  -4123629.27446  22455472.935    22455473.1914   22455478.7454
        41.6004         38.6004
 -14025850.73446 -10908809.04047  21306537.912    21306537.4294   21306543.5164
        48.2004         45.2004
 -24120392.35147 -18759785.74948  20229019.562    20229019.9074   20229022.3254
        51.0004         48.4004
    910180.32643    731505.00446  24569825.823    24569824.2464   24569825.3104
        39.6004         36.9004
  -3930686.62342  -3045184.03645  24082462.054    24082463.8334   24082463.7354
        35.0004         33.8004
   2998925.68342   3218715.92545  24832175.002    24832171.9884   24832175.6134
        35.6004         33.6004
  -4298605.61943  -3324792.00046  23152252.411    23152251.5304   23152254.1934
        39.2004         36.9004
                    -86686.29155  24958126.388
                        30.7004
 -11485964.86546  -8930364.12947  20855945.386    20855945.5354   20855947.3584
        48.6004         45.8004
 19 10 18  1 56 30.0000000  0  8G26G25G29G02G14G12G21G31
  -5387330.64344  -4188407.07046  22439653.103    22439653.6324   22439659.9134
        41.3004         38.5004
 -13959037.89546 -10856747.11847  21319252.550    21319251.9034   21319257.2854
        48.2004         45.2004
 -24102240.31147 -18745641.29848  20232473.897    20232473.9394   20232476.4604
        50.8004         48.2004
    989368.09143    793209.74246  24584893.804    24584893.3194   24584894.4194
        39.2004         36.7004
  -3847700.06742  -2980519.21345  24098253.766    24098252.5934   24098255.6984
        35.4004         33.8004
   3099605.14942   3297167.50145  24851332.265    24851330.6964   24851335.6184
        35.6004         33.8004
  -4393891.23743  -3399040.52046  23134120.170    23134119.4004   23134121.8924
        39.2004         36.7004
 -11480509.44546  -8926113.15547  20856983.569    20856983.9854   20856985.4004
        48.6004         45.8004
 19 10 18  1 57  0.0000000  0  9G26G25G29G02G14G12G21G05G31
  -5470283.94144  -4253045.99546  22423868.784    22423868.1034   22423874.5194
        41.1004         38.5004
 -13891921.77446 -10804448.85747  21332023.528    21332023.3454   21332029.6164
        48.2004         45.2004
 -24083625.05047 -18731135.89748  20236016.170    20236015.9714   20236018.8674
        50.8004         48.2004
   1068841.14743    855136.81846  24600017.266    24600016.5844   24600017.0784
        39.0004         36.6004
  -3764502.51342  -2915689.90645  24114087.197    24114086.1114   24114085.8494
        35.6004         34.0004
   3200345.30842   3375666.31145  24870501.994    24870503.0704   24870505.6864
        35.2004         33.4004
  -4488946.83943  -3473109.80546  23116031.748    23116031.0224   23116033.8634
        39.4004         36.9004
                    -31101.92243  24933092.384
                        23.4004
 -11474482.80046  -8921417.08247  20858130.532    20858130.7914   20858132.4764
        48.6004         45.8004
 19 10 18  1 57 30.0000000  0  8G26G25G29G02G14G12G21G31
  -5553057.69244  -4317545.01746  22408116.389    22408116.8394   22408122.9274
        40.9004         38.3004
 -13824503.13746 -10751914.87347  21344853.924    21344852.9604   21344858.5514
        48.2004         45.2004
 -24064548.07147 -18716270.71848  20239646.690    20239646.5564   20239648.7544
        50.8004         48.0004
   1148597.43643    917284.57346  24615194.606    24615194.1904   24615194.0554
        39.0004         36.6004
  -3681096.51542  -2850698.27045  24129957.448    24129956.2164   24129958.9274
        35.6004         34.0004
   3301145.10042   3454211.67545  24889681.051    24889683.6534   24889687.4124
        35.4004         33.8004
  -4583769.32743  -3546997.45846  23097987.007    23097986.5384   23097989.6134
        39.4004         36.9004
 -11467884.88546  -8916275.85847  20859386.169    20859386.1314   20859387.5954
        48.6004         45.8004
 19 10 18  1 58  0.0000000  0  9G26G25G29G02G14G12G21G05G31
  -5635650.59144  -4381903.11646  22392399.838    22392399.3364   22392405.0504
        40.8004         37.9004
 -13756782.79046 -10699145.78847  21357739.248    21357739.7074   21357745.3874
        48.1004         45.1004
 -24045010.64647 -18701046.75148  20243364.544    20243364.4854   20243366.7134
        50.8004         48.0004
   1228634.39443    979651.03846  24630424.261    24630424.3954   24630425.0354
        39.0004         36.4004
  -3597485.31642  -2785546.69545  24145868.158    24145866.4214   24145871.8484
        35.6004         34.0004
   3402004.03142   3532803.04745  24908877.438    24908876.8534   24908879.1414
        35.4004         33.6004
  -4678356.69543  -3620701.88446  23079987.306    23079986.3944   23079989.8204
        39.4004         36.9004
                   -132562.55644  24908311.853
                        29.6004
 -11460715.69546  -8910689.48247  20860750.155    20860750.1994   20860751.9244
        48.6004         45.8004
 19 10 18  1 58 30.0000000  0  9G26G25G29G02G14G12G21G05G31
  -5718061.26244  -4446119.21646  22376716.870    22376717.5704   22376724.1754
        40.8004         38.1004
 -13688761.47246 -10646142.18947  21370684.304    21370683.7484   21370689.5614
        48.1004         45.1004
 -24025013.99847 -18685464.95048  20247169.927    20247169.8714   20247171.8654
        50.7004         48.0004
   1308949.99143   1042234.62046  24645709.575    24645708.6674   24645708.7464
        38.7004         36.2004
  -3513671.92942  -2720237.56045  24161818.214    24161818.7954   24161819.0464
        35.9004         34.1004
   3502921.22842   3611439.86945  24928081.896    24928083.4854   24928082.8854
        35.2004         33.4004
  -4772706.79243  -3694221.43646  23062032.596    23062032.2664   23062035.9334
        39.6004         37.3004
                    -26422.14343  24896022.809
                        23.4004
 -11452975.23246  -8904657.95947  20862223.097    20862223.3114   20862224.7094
        48.6004         45.6004
 19 10 18  1 59  0.0000000  0  9G26G25G29G02G14G12G21G05G31
  -5800288.37244  -4510192.26946  22361070.745    22361069.8094   22361076.5654
        40.9004         38.5004
 -13620440.04146 -10592904.72347  21383684.918    21383684.8384   21383690.4994
        47.9004         45.1004
 -24004559.32347 -18669526.24048  20251062.326    20251062.2954   20251064.0934
        50.8004         48.0004
   1389542.28943   1105033.81246  24661045.659    24661044.1584   24661045.8404
        38.3004         36.0004
  -3429659.09742  -2654773.02545  24177804.325    24177805.2034   24177805.2344
        35.7004         33.8004
   3603896.17242   3690121.65645  24947296.805    24947296.6444   24947297.3364
        35.2004         33.6004
  -4866816.75643  -3767553.86246  23044124.754    23044124.2884   23044126.8184
        39.9004         37.4004
                    -76487.05245  24883797.506
                        34.3004
 -11444663.49246  -8898181.28547  20863804.550    20863804.9724   20863806.3824
        48.6004         45.6004
 19 10 18  1 59 30.0000000  0  8G26G25G29G02G14G12G21G31
  -5882330.59644  -4574121.26746  22345458.168    22345458.5994   22345465.0574
        41.1004         38.6004
 -13551819.22246 -10539433.96747  21396742.925    21396743.0804   21396748.6534
        47.9004         44.9004
 -23983647.51347 -18653231.32348  20255041.382    20255041.6094   20255043.5924
        50.7004         48.0004
   1470408.79543   1168046.67745  24676433.309    24676431.8724   24676431.4604
        38.2004         35.7004
  -3345449.82042  -2589155.42945  24193829.491    24193828.3154   24193831.8534
        35.4004         33.8004
   3704928.16242   3768847.85945  24966524.291    24966521.8444   24966523.9074
        35.6004         33.8004
  -4960684.38743  -3840697.46046  23026261.819    23026261.6564   23026264.7624
        40.1004         37.8004
 -11435780.54546  -8891259.51847  20865495.194    20865495.6624   20865496.6224
        48.6004         45.8004
 19 10 18  2  0  0.0000000  0  9G26G25G29G02G14G12G21G05G31
  -5964186.60744  -4637905.17146  22329881.900    22329881.8824   22329888.2864
        41.3004         38.5004
 -13482899.84346 -10485730.57147  21409858.425    21409858.0024   21409863.7494
        47.9004         44.9004
 -23962279.58147 -18636580.99348  20259107.897    20259108.0094   20259109.7784
        50.7004         48.0004
   1551547.65743   1231271.78245  24691872.710    24691871.8404   24691871.3214
        37.8004         35.7004
  -3261047.63142  -2523387.50445  24209890.427    24209890.7104   24209892.1174
        35.4004         33.8004
   3806016.00942   3847617.67845  24985757.948    24985756.9294   24985761.3554
        35.7004         34.1004
  -5054307.12143  -3913650.22546  23008445.690    23008445.3754   23008449.3024
        40.3004         37.8004
   -639877.71742   -175801.76845  24859537.928    24859539.6614   24859542.4084
        35.6004         34.5004
 -11426326.16246  -8883892.46847  20867294.566    20867295.0744   20867296.4504
        48.6004         45.9004
 19 10 18  2  0 30.0000000  0  9G26G25G29G02G14G12G21G05G31
  -6045854.98844  -4701542.86546  22314341.039    22314341.1244   22314347.5224
        41.5004         39.0004
 -13413682.77646 -10431795.20647  21423029.494    21423029.1674   21423034.8844
        47.7004         44.7004
 -23940457.27447 -18619576.59548  20263260.657    20263260.5894   20263262.2004
        50.7004         48.0004
   1632956.59442   1294707.32545  24707364.161    24707362.5174   24707363.6704
        37.5004         35.0004
  -3176455.37742  -2457471.46345  24225987.757    24225987.8624   24225991.1174
        35.6004         34.0004
   3907159.34742   3926430.68145  25005003.957    25005004.6014   25005007.8044
        35.9004         34.1004
  -5147682.48143  -3986410.22346  22990678.791    22990677.4684   22990679.9854
        40.3004         37.8004
   -703075.44242   -225046.69345  24847509.737    24847513.2564   24847518.1924
        36.3004         34.6004
 -11416300.62446  -8876080.37447  20869202.574    20869202.3954   20869204.0414
        48.6004         45.8004
 19 10 18  2  1  0.0000000  0  9G26G25G29G02G14G12G21G05G31
  -6127334.39044  -4765033.31546  22298836.748    22298836.3144   22298841.9234
        41.6004         39.0004
 -13344168.64846 -10377628.38147  21436258.190    21436257.6524   21436263.9644
        47.7004         44.7004
 -23918181.86647 -18602219.14148  20267499.640    20267499.6214   20267501.3164
        50.8004         48.0004
   1714633.35742   1358351.52745  24722903.441    24722903.7304   24722905.5404
        37.3004         35.2004
  -3091675.92942  -2391409.56445  24242120.996    24242119.3864   24242123.5714
        35.6004         33.8004
   4008357.19042   4005286.16145  25024263.185    25024263.2664   25024265.0754
        35.7004         33.8004
  -5240808.32143  -4058975.78946  22972956.980    22972955.1344   22972958.7844
        40.3004         37.8004
   -765917.51552   -274014.49955  24835553.836    24835557.3894   24835559.9464
        36.8004         35.0004
 -11405703.69246  -8867823.03347  20871219.088    20871219.1414   20871220.3954
        48.6004         45.8004
 19 10 18  2  1 30.0000000  0  9G26G25G29G02G14G12G21G05G31
  -6208623.45844  -4828375.44346  22283367.698    22283367.4254   22283372.7824
        41.6004         39.0004
 -13274358.36946 -10323230.77247  21449542.409    21449541.8944   21449548.2814
        47.7004         44.7004
 -23895454.94347 -18584509.84448  20271824.351    20271824.2774   20271826.1384
        50.7004         48.0004
   1796575.91142   1422202.87045  24738498.447    24738497.6154   24738497.9944
        37.0004         35.0004
  -3006712.24542  -2325204.11145  24258286.779    24258287.4904   24258290.9604
        35.4004         33.6004
   4109608.73142   4084183.51045  25043530.027    25043530.5024   25043532.1964
        35.9004         34.1004
  -5333682.01543  -4131344.89046  22955280.763    22955281.6534   22955286.2254
        40.1004         37.4004
   -828400.67242   -322702.66645  24823665.267    24823665.7974   24823669.8564
        36.8004         34.5004
 -11394535.82746  -8859120.80947  20873343.952    20873344.2904   20873345.5784
        48.6004         45.8004
 19 10 18  2  2  0.0000000  0  9G26G25G29G02G14G12G21G05G31
  -6289720.87844  -4891568.23846  22267935.250    22267934.6084   22267940.9344
        41.8004         39.2004
 -13204252.70646 -10268603.00447  21462883.668    21462883.1094   21462889.0774
        47.7004         44.9004
 -23872277.32447 -18566449.35748  20276234.841    20276234.7154   20276236.8274
        50.7004         48.0004
   1878781.88042   1486259.47245  24754142.511    24754141.7544   24754142.5064
        37.1004         35.0004
  -2921567.29942  -2258857.39945  24274491.478    24274490.3994   24274491.5534
        35.0004         33.4004
   4210913.61542   4163122.40845  25062808.546    25062810.5874   25062809.0044
        35.7004         33.8004
  -5426301.22943  -4203515.70046  22937657.046    22937657.5984   22937660.4554
        40.1004         37.4004
   -890521.85442   -371108.72845  24811844.688    24811844.8124   24811846.4794
        35.7004         33.8004
 -11382796.69646  -8849973.43947  20875577.709    20875577.7264   20875579.8304
        48.6004         45.8004
 19 10 18  2  2 30.0000000  0  9G26G25G29G02G14G12G21G05G31
  -6370625.20944  -4954610.58746  22252538.730    22252539.5754   22252545.1884
        42.2004         39.9004
 -13133852.51146 -10213745.72247  21476279.349    21476279.6014   21476285.4914
        47.7004         44.7004
 -23848650.10247 -18548038.53847  20280730.467    20280730.4034   20280732.8594
        50.7004         47.8004
   1961249.01842   1550519.58845  24769833.837    24769835.1394   24769834.8684
        37.0004         35.0004
  -2836244.31642  -2192372.00445  24290726.224    24290727.0034   24290728.7104
        34.5004         32.9004
   4312270.73442   4242101.96445  25082098.665    25082096.0974   25082097.3484
        35.7004         34.1004
  -5518663.91743  -4275486.60346  22920082.893    22920081.8814   22920084.6564
        40.1004         37.6004
   -952278.39242   -419230.65945  24800088.069    24800089.6684   24800095.4724
        35.2004         33.4004
 -11370486.47446  -8840381.07247  20877920.217    20877920.2914   20877922.4834
        48.6004         45.6004
 19 10 18  2  3  0.0000000  0  9G26G25G29G02G14G12G21G05G31
  -6451335.11144  -5017501.41646  22237180.719    22237180.7874   22237185.7874
        42.2004         39.3004
 -13063158.59546 -10158659.57447  21489732.820    21489732.3714   21489738.3654
        47.7004         44.5004
 -23824574.62647 -18529278.42048  20285312.019    20285312.1384   20285314.1174
        50.7004         48.0004
   2043974.99842   1614981.41745  24785578.365    24785577.0164   24785579.5854
        37.1004         35.2004
  -2750746.33841  -2125750.22045  24306997.292    24306996.5334   24306997.3274
        34.3004         32.9004
   4413679.35842   4321121.70545  25101389.010    25101391.6044   25101394.4354
        35.6004         34.0004
  -5610766.88143  -4347255.13146  22902556.228    22902554.7794   22902558.0664
        40.1004         37.8004
  -1013667.39242   -467066.24745  24788402.308    24788409.3824   24788412.0314
        35.2004         33.6004
 -11357605.51646  -8830343.97147  20880371.360    20880371.9454   20880373.5354
        48.6004         45.8004
 19 10 18  2  3 30.0000000  0  9G26G25G29G02G14G12G21G05G31
  -6531849.21044  -5080239.67446  22221859.235    22221858.4994   22221863.6534
        42.0004         39.2004
 -12992171.71746 -10103345.13347  21503241.185    21503240.5694   21503246.8784
        47.5004         44.5004
 -23800052.39847 -18510170.19647  20289978.539    20289978.7364   20289980.6304
        50.7004         47.8004
   2126957.94242   1679643.42845  24801370.394    24801369.0414   24801369.4364
        37.5004         35.3004
  -2665076.27441  -2058994.28045  24323300.075    24323295.1144   24323301.8004
        34.2004         32.7004
   4515138.95042   4400181.18445  25120699.415    25120699.3344   25120705.4234
        35.7004         34.1004
  -5702608.39143  -4418819.93646  22885078.218    22885078.0174   22885081.0324
        40.1004         37.8004
  -1074686.42242   -514613.49045  24776801.286    24776796.8184   24776801.2574
        35.4004         33.8004
 -11344153.93546  -8819862.23047  20882931.164    20882931.2764   20882933.2884
        48.4004         45.6004
 19 10 18  2  4  0.0000000  0  9G26G25G29G02G14G12G21G05G31
  -6612166.23644  -5142824.36846  22206575.495    22206575.3704   22206580.9744
        42.3004         39.7004
 -12920892.75846 -10047803.10547  21516805.054    21516804.7704   21516810.1934
        47.5004         44.4004
 -23775084.74647 -18490714.88447  20294729.403    20294729.4454   20294731.9774
        50.7004         47.8004
   2210195.52742   1744503.94945  24817207.156    24817207.7094   24817208.0994
        37.3004         35.3004
  -2579237.30841  -1992106.75445  24339633.526    24339633.1624   24339637.7434
        34.2004         33.1004
   4616648.68042   4479279.64145  25140018.560    25140017.7574   25140018.6144
        35.7004         34.0004
  -5794185.82143  -4490178.96946  22867651.282    22867651.1744   22867653.8154
        40.3004         37.8004
  -1135332.49042   -561870.05845  24765259.447    24765256.1964   24765262.4184
        35.7004         34.3004
 -11330131.86646  -8808935.94847  20885599.911    20885599.7134   20885601.2744
        48.4004         45.4004
 19 10 18  2  4 30.0000000  0  9G26G25G29G02G14G12G21G05G31
  -6692284.52444  -5205254.19346  22191329.209    22191328.8324   22191335.4774
        42.5004         40.0004
 -12849322.52446  -9992034.09947  21530424.905    21530424.2264   21530429.5364
        47.4004         44.4004
 -23749673.01547 -18470913.53247  20299565.475    20299565.5744   20299567.6064
        50.5004         47.8004
   2293685.70042   1809561.20445  24833097.255    24833094.5884   24833096.8574
        37.3004         35.0004
  -2493232.23541  -1925089.86445  24356001.238    24355999.7814   24356000.3714
        34.3004         33.1004
   4718207.51042   4558416.40845  25159344.024    25159345.2194   25159346.2714
        35.6004         33.8004
  -5885496.86944  -4561330.43646  22850276.378    22850276.1824   22850277.8814
        40.6004         38.1004
  -1195602.95042   -608834.07745  24753789.578    24753789.1004   24753790.5904
        36.4004         34.6004
 -11315539.43846  -8797565.23547  20888376.638    20888376.4354   20888378.2034
        48.4004         45.6004
 19 10 18  2  5  0.0000000  0  9G26G25G29G02G14G12G21G05G31
  -6772202.82544  -5267528.20046  22176121.028    22176121.1964   22176126.9944
        42.7004         39.9004
 -12777461.82246  -9936038.75647  21544098.682    21544098.4354   21544104.4874
        47.4004         44.2004
 -23723818.89247 -18450767.45847  20304485.051    20304484.9734   20304487.7344
        50.5004         47.8004
   2377426.27642   1874813.57745  24849032.594    24849030.1064   24849030.5944
        37.3004         35.3004
  -2407064.11751  -1857945.86555  24372396.326    24372395.1184   24372398.2324
        34.0004         32.6004
   4819814.88742   4637591.01145  25178675.854    25178680.5564   25178681.3164
        35.0004         33.4004
  -5976539.10044  -4632272.42246  22832951.957    22832951.3564   22832953.5054
        40.8004         38.3004
  -1255494.56342   -655502.85945  24742391.332    24742391.4134   24742394.5364
        36.8004         34.8004
 -11300376.90646  -8785750.28647  20891261.914    20891262.0204   20891263.5534
        48.4004         45.6004
 19 10 18  2  5 30.0000000  0  9G26G25G29G02G14G12G21G05G31
  -6851919.71544  -5329645.25046  22160951.543    22160951.2464   22160957.2044
        42.7004         40.0004
 -12705311.47546  -9879817.71647  21557829.057    21557828.3874   21557834.4204
        47.2004         44.2004
 -23697523.04147 -18430277.18247  20309489.163    20309489.1134   20309491.3324
        50.5004         47.7004
   2461414.82742   1940259.21945  24865012.785    24865012.5454   24865013.9544
        37.1004         34.8004
  -2320736.04051  -1790677.24655  24388824.898    24388823.5824   24388829.0784
        33.8004         32.7004
   4921470.05342   4716802.83645  25198024.368    25198022.7264   25198022.9274
        34.5004         32.9004
  -6067310.53344  -4703003.40946  22815678.783    22815677.5744   22815680.3394
        41.1004         38.3004
  -1315005.17142   -701874.72645  24731065.786    24731067.0314   24731070.2924
        37.1004         35.2004
 -11284644.78546  -8773491.50947  20894255.375    20894255.4964   20894257.2484
        48.4004         45.6004
 19 10 18  2  6  0.0000000  0  9G26G25G29G02G14G12G21G05G31
  -6931433.81944  -5391604.29646  22145820.558    22145819.8404   22145826.2764
        42.9004         40.0004
 -12632872.32746  -9823371.64447  21571613.384    21571613.0884   21571618.7364
        47.2004         44.0004
 -23670786.91647 -18409443.83947  20314576.973    20314577.0484   20314579.1474
        50.5004         47.8004
   2545649.35142   2005896.49445  24881042.993    24881041.9404   24881043.2154
        37.3004         35.3004
  -2234251.08941  -1723286.38845  24405282.066    24405280.3234   24405282.8964
        33.7004         32.7004
   5023172.53541   4796051.56545  25217379.496    25217372.8664   25217379.0914
        34.2004         32.9004
  -6157808.00144  -4773520.91746  22798458.053    22798457.5254   22798459.4274
        41.3004         38.6004
  -1374132.33042   -747947.83245  24719812.602    24719816.3034   24719817.6584
        37.5004         35.3004
 -11268343.04846  -8760788.86147  20897357.832    20897358.2604   20897359.4984
        48.4004         45.8004
 19 10 18  2  6 30.0000000  0  9G26G25G29G02G14G12G21G05G31
  -7010743.72344  -5453404.22746  22130727.397    22130727.9094   22130734.1354
        43.2004         40.6004
 -12560145.23046  -9766701.18947  21585452.663    21585452.3074   21585459.0444
        47.0004         44.0004
 -23643612.49347 -18388268.96347  20319748.210    20319748.1704   20319750.2054
        50.5004         47.8004
   2630127.64142   2071723.72945  24897116.846    24897117.0724   24897119.2634
        37.1004         34.8004
  -2147612.40641  -1655775.66345  24421769.451    24421768.7214   24421775.3724
        33.8004         32.7004
   5124921.38242   4875336.40445  25236743.926    25236736.9194   25236740.0704
        34.5004         33.4004
  -6248029.89344  -4843823.67046  22781290.542    22781288.4924   22781290.3024
        41.3004         38.6004
  -1432872.79543   -793719.59445  24708637.873    24708637.9334   24708641.1204
        38.0004         35.9004
 -11251472.07946  -8747642.66447  20900568.185    20900568.5594   20900570.0884
        48.6004         45.6004
 19 10 18  2  7  0.0000000  0  8G26G25G29G02G14G21G05G31
  -7089848.00345  -5515043.91646  22115675.056    22115675.3074   22115681.2864
        43.6004         41.1004
 -12487130.99946  -9709807.00947  21599347.635    21599347.0754   21599352.3414
        47.0004         43.9004
 -23616000.21247 -18366752.90247  20325002.984    20325002.5894   20325004.5364
        50.5004         47.8004
   2714847.64242   2137739.34445  24913241.400    24913241.1324   24913240.9724
        37.5004         35.5004
  -2060822.59251  -1588147.23755  24438285.165    24438283.7274   24438286.9544
        33.7004         32.4004
  -6337974.06544  -4913910.03446  22764172.546    22764172.1104   22764174.6634
        41.3004         38.6004
  -1491223.88143   -839187.96645  24697535.626    24697534.8334   24697537.3474
        37.6004         35.5004
 -11234031.95146  -8734052.95647  20903887.260    20903887.3094   20903888.9954
        48.6004         45.8004
 19 10 18  2  7 30.0000000  0  9G23G26G25G29G02G14G21G05G31
                    -16328.24753  25330365.038
                        23.4004
  -7168745.27045  -5576522.30446  22100662.070    22100661.7234   22100667.6324
        44.2004         41.8004
 -12413830.49046  -9652689.74747  21613295.465    21613295.3654   21613301.1664
        46.9004         43.7004
 -23587951.96147 -18344897.12447  20330339.713    20330339.9894   20330341.8174
        50.5004         47.7004
   2799806.67942   2203941.16145  24929407.678    24929407.9644   24929409.1544
        37.5004         35.3004
  -1973884.81851  -1520403.55255  24454830.175    24454828.3444   24454832.0184
        33.5004         32.4004
  -6427637.38044  -4983777.55346  22747111.123    22747109.9494   22747112.6664
        41.3004         38.6004
  -1549182.96943   -884350.87645  24686506.166    24686505.5924   24686509.0204
        37.8004         35.7004
 -11216023.21046  -8720020.18947  20907314.581    20907314.3444   20907315.6264
        48.6004         45.8004
 19 10 18  2  8  0.0000000  0  9G23G26G25G29G02G14G21G05G31
                    -40185.58745  25324540.227
                        32.0004
  -7247434.06845  -5637838.24546  22085687.618    22085687.6524   22085693.2674
        44.6004         41.9004
 -12340244.52246  -9595350.05247  21627298.833    21627298.6794   21627303.9344
        46.7004         43.5004
 -23559469.05347 -18322702.65347  20335759.980    20335759.9414   20335762.2504
        50.5004         47.7004
   2885002.70042   2270327.68245  24945622.927    24945621.1954   24945621.3594
        37.5004         35.3004
  -1886802.40451  -1452547.18855  24471401.432    24471401.5184   24471403.1984
        33.3004         32.6004
  -6517017.92144  -5053424.70746  22730102.389    22730101.4494   22730104.3214
        41.5004         38.8004
  -1606747.35843   -929206.19445  24675548.987    24675550.9354   24675553.7934
        37.6004         35.5004
 -11197446.28746  -8705544.66847  20910849.422    20910849.7324   20910850.7154
        48.8004         45.8004
 19 10 18  2  8 30.0000000  0  8G26G25G29G02G14G21G05G31
  -7325912.98345  -5698990.65147  22070753.918    22070753.6044   22070759.8764
        44.9004         42.3004
 -12266373.97446  -9537788.59447  21641355.142    21641355.0494   21641360.7844
        46.7004         43.5004
 -23530552.98847 -18300170.65247  20341262.582    20341262.6834   20341264.7184
        50.5004         47.7004
   2970433.77243   2336897.34545  24961877.031    24961875.3324   24961878.9904
        37.6004         35.3004
  -1799578.37351  -1384580.37355  24487998.135    24487997.6884   24488004.1484
        33.3004         32.6004
  -6606113.28144  -5122849.64846  22713147.551    22713146.9184   22713149.3434
        41.5004         38.8004
  -1663914.60842   -973752.08245  24664672.216    24664671.9554   24664675.9024
        37.3004         35.2004
 -11178301.45746  -8690626.62747  20914492.250    20914492.3784   20914493.7054
        48.6004         45.6004
 19 10 18  2  9  0.0000000  0  8G26G25G29G02G14G21G05G31
  -7404180.60045  -5759978.40247  22055860.337    22055860.0554   22055865.3774
        45.1004         42.5004
 -12192219.65146  -9480006.02447  21655467.087    21655465.6934   21655471.7244
        46.5004         43.3004
 -23501204.98647 -18277302.07647  20346847.124    20346847.0054   20346849.4614
        50.3004         47.7004
   3056097.50842   2403648.31645  24978179.759    24978178.6284   24978179.0314
        37.0004         34.8004
  -1712215.56341  -1316505.44945  24504622.368    24504621.4174   24504624.4834
        33.7004         32.4004
  -6694921.22744  -5192050.65046  22696248.042    22696247.3874   22696250.1784
        41.5004         39.0004
  -1720681.98142  -1017986.35645  24653866.016    24653867.4124   24653872.7804
        36.8004         34.6004
 -11158589.13646  -8675266.38947  20918242.978    20918243.4854   20918244.9484
        48.4004         45.6004
 19 10 18  2  9 30.0000000  0  8G26G25G29G02G14G21G05G31
  -7482235.47745  -5820800.38247  22041007.333    22041006.8594   22041012.2234
        45.5004         43.0004
 -12117782.44745  -9422003.02847  21669631.523    21669631.2264   21669636.8694
        46.3004         43.3004
 -23471426.37447 -18254097.96247  20352513.691    20352513.7904   20352516.1604
        50.3004         47.5004
   3141991.87742   2470579.00945  24994524.485    24994523.4364   24994523.6444
        37.1004         35.0004
  -1624716.92041  -1248324.66645  24521273.488    24521276.1054   24521276.6144
        33.3004         32.4004
  -6783439.74844  -5261026.10446  22679404.985    22679403.5184   22679405.5674
        41.6004         39.0004
  -1777046.62142  -1061906.81845  24643139.672    24643143.2324   24643147.0344
        35.9004         33.8004
 -11138309.77346  -8659464.30047  20922102.240    20922102.6304   20922104.6354
        48.4004         45.6004
 19 10 18  2 10  0.0000000  0  8G26G25G29G02G14G21G05G31
  -7560076.18845  -5881455.46947  22026194.561    22026194.4114   22026199.8174
        45.8004         43.2004
 -12043063.19645  -9363780.25247  21683850.445    21683850.0134   21683854.8874
        46.3004         43.3004
 -23441218.58347 -18230559.42447  20358262.239    20358262.0244   20358264.5114
        50.3004         47.5004
   3228114.52142   2537687.53145  25010914.051    25010912.7744   25010913.5524
        37.0004         34.8004
  -1537085.75941  -1180040.61245  24537948.864    24537945.6324   24537950.9814
        33.8004         32.6004
  -6871666.20244  -5329773.98646  22662615.656    22662613.1064   22662616.6704
        41.6004         38.8004
  -1833006.09442  -1105511.56145  24632496.735    24632495.6264   24632499.2284
        35.6004         33.8004
 -11117463.70346  -8643220.61947  20926069.399    20926069.2034   20926071.6194
        48.4004         45.6004
 19 10 18  2 10 30.0000000  0  8G26G25G29G02G14G21G05G31
  -7637701.27245  -5941942.55247  22011422.848    22011422.8454   22011428.1854
        46.0004         43.2004
 -11968062.79245  -9305338.39047  21698122.561    21698121.9544   21698127.7004
        46.3004         43.3004
 -23410583.23347 -18206687.72747  20364092.242    20364092.1474   20364094.2684
        50.3004         47.5004
   3314463.24442   2604972.24645  25027342.847    25027343.0474   25027345.1394
        36.6004         34.5004
  -1449324.61941  -1111655.34145  24554650.960    24554650.4314   24554653.5564
        34.3004         32.9004
  -6959598.29044  -5398292.48146  22645881.129    22645880.7474   22645883.5684
        41.6004         38.8004
  -1888557.87242  -1148798.60745  24621927.456    24621923.3794   24621926.0104
        35.9004         34.5004
 -11096051.42846  -8626535.73647  20930143.192    20930143.5784   20930145.6834
        48.2004         45.4004
 19 10 18  2 11  0.0000000  0  8G26G25G29G02G14G21G05G31
  -7715109.29245  -6002260.48747  21996692.586    21996692.0754   21996698.2894
        46.3004         43.7004
 -11892782.05745  -9246678.09547  21712447.825    21712448.0794   21712453.2174
        46.3004         43.5004
 -23379521.30547 -18182483.62647  20370003.184    20370002.9174   20370005.0854
        50.3004         47.5004
   3401035.94342   2672431.51245  25043820.005    25043819.3304   25043819.0304
        37.0004         35.0004
  -1361436.53141  -1043171.15045  24571373.668    24571372.9574   24571375.9244
        34.2004         33.1004
  -7047233.66244  -5466579.78246  22629205.154    22629204.9124   22629207.5584
        41.5004         39.0004
  -1943699.26242  -1191765.95545  24611433.321    24611430.8064   24611433.7724
        36.4004         34.6004
 -11074073.40146  -8609410.01547  20934326.212    20934326.0784   20934328.1104
        48.4004         45.4004
 19 10 18  2 11 30.0000000  0  8G26G25G29G02G14G21G05G31
  -7792298.81246  -6062408.16147  21982004.113    21982004.1234   21982009.7574
        46.5004         43.9004
 -11817221.89145  -9187800.05647  21726826.872    21726826.6184   21726832.0614
        46.3004         43.5004
 -23348034.89847 -18157948.76647  20375995.270    20375995.0734   20375996.7314
        50.3004         47.5004
   3487830.29642   2740063.48845  25060334.513    25060334.4394   25060335.7004
        36.8004         34.8004
  -1273425.17941   -974590.85345  24588121.559    24588123.3854   24588124.1754
        33.7004         32.4004
  -7134570.28444  -5534634.26346  22612585.604    22612585.3634   22612587.9134
        41.6004         39.0004
  -1998427.64442  -1234411.42145  24601020.109    24601016.2194   24601018.9864
        36.3004         34.5004
 -11051530.35246  -8591844.01647  20938615.639    20938615.5404   20938617.6124
        48.2004         45.4004
 19 10 18  2 12  0.0000000  0  8G26G25G29G02G14G21G05G31
  -7869268.34946  -6122384.42047  21967357.074    21967356.6444   21967362.7534
        46.7004         43.9004
 -11741383.10545  -9128704.92247  21741258.995    21741258.3304   21741264.2794
        46.3004         43.5004
 -23316124.73747 -18133083.71247  20382067.211    20382067.1474   20382069.0044
        50.3004         47.5004
   3574844.12842   2807866.50245  25076892.965    25076890.1494   25076892.6944
        36.8004         34.6004
  -1185293.08541   -905916.47445  24604891.837    24604897.2974   24604893.3054
        32.8004         32.0004
  -7221605.80844  -5602454.12146  22596023.252    22596022.4324   22596025.3374
        41.6004         39.0004
  -2052740.44542  -1276733.03145  24590683.489    24590679.3874   24590683.1174
        37.1004         35.3004
 -11028422.42146  -8573837.84647  20943012.667    20943012.9984   20943014.9324
        48.2004         45.2004
 19 10 18  2 12 30.0000000  0  8G26G25G29G02G14G21G05G31
  -7946016.47346  -6182188.15347  21952751.560    21952752.3454   21952758.2494
        46.7004         43.7004
 -11665266.61045  -9069393.38247  21755742.875    21755742.2054   21755748.5714
        46.3004         43.5004
 -23283792.37247 -18107889.66347  20388219.568    20388219.8064   20388221.6634
        50.3004         47.5004
   3662075.21142   2875838.76745  25093491.184    25093491.4704   25093491.1144
        36.3004         34.3004
  -1097043.52741   -837150.56645  24621685.052    24621686.3984   24621690.1434
        32.8004         32.0004
  -7308337.95644  -5670037.59646  22579519.124    22579517.6224   22579521.0144
        42.0004         39.5004
  -2106635.08442  -1318728.82145  24580419.553    24580423.0204   24580427.6614
        37.0004         34.8004
 -11004750.38346  -8555392.10747  20947517.696    20947517.7514   20947519.6234
        48.2004         45.4004
 19 10 18  2 13  0.0000000  0  8G26G25G29G02G14G21G05G31
  -8022541.72946  -6241818.21147  21938189.729    21938189.6284   21938195.5834
        46.7004         43.9004
 -11588873.27545  -9009866.13847  21770279.784    21770280.1274   21770285.6164
        46.3004         43.5004
 -23251039.64847 -18082368.05547  20394452.321    20394452.3074   20394454.3704
        50.2004         47.3004
   3749521.44042   2943978.70845  25110133.307    25110131.5194   25110131.6294
        36.6004         34.6004
  -1008679.09841   -768295.16245  24638501.784    24638499.3144   24638502.5064
        33.1004         32.4004
  -7394764.62644  -5737383.04146  22563072.875    22563071.4894   22563074.2864
        42.2004         39.5004
  -2160109.02242  -1360396.80445  24570243.982    24570247.6354   24570253.2534
        37.0004         35.0004
 -10980514.64446  -8536507.13147  20952130.449    20952130.3874   20952131.9094
        48.2004         45.4004
 19 10 18  2 13 30.0000000  0  8G26G25G29G02G14G21G05G31
  -8098842.62946  -6301273.45047  21923669.581    21923669.9834   21923676.0994
        46.5004         43.5004
 -11512203.95745  -8950123.82547  21784869.182    21784869.1934   21784874.7814
        46.3004         43.3004
 -23217867.99247 -18056520.00947  20400764.586    20400764.5854   20400766.7894
        50.2004         47.3004
   3837180.88442   3012284.77045  25126813.635    25126813.1964   25126815.2634
        36.8004         34.8004
   -920203.07541   -699352.84245  24655337.743    24655336.3984   24655337.0224
        33.5004         32.2004
  -7480883.47044  -5804488.61546  22546684.163    22546683.5214   22546686.6034
        42.3004         39.7004
  -2213160.13142  -1401735.28445  24560152.323    24560152.1254   24560157.2314
        36.8004         34.8004
 -10955715.84446  -8517183.39447  20956848.983    20956848.8814   20956850.5234
        48.2004         45.4004
 19 10 18  2 14  0.0000000  0  8G26G25G29G02G14G21G05G31
  -8174917.70045  -6360552.71147  21909192.756    21909193.0544   21909199.7304
        46.3004         43.3004
 -11435259.57745  -8890167.19347  21799511.402    21799511.6414   21799516.9684
        46.3004         43.5004
 -23184278.34147 -18030346.25847  20407156.570    20407156.5644   20407158.3914
        50.2004         47.3004
   3925050.98742   3080754.98645  25143534.984    25143534.5164   25143533.4044
        36.6004         34.5004
   -831618.58442   -630325.97345  24672195.028    24672194.9684   24672199.7524
        34.7004         33.4004
  -7566692.11044  -5871352.48846  22530355.530    22530354.7324   22530357.3034
        42.5004         39.7004
  -2265785.18642  -1442741.78345  24550138.126    24550139.5874   24550140.5404
        36.8004         35.0004
 -10930354.75046  -8497421.52447  20961675.218    20961675.2904   20961676.4604
        48.2004         45.4004
 19 10 18  2 14 30.0000000  0  8G26G25G29G02G14G21G05G31
  -8250765.50345  -6419654.89247  21894759.616    21894760.2164   21894765.8094
        46.0004         43.2004
 -11358041.00545  -8829996.89347  21814206.368    21814205.5974   21814211.6164
        46.3004         43.3004
 -23150272.54647 -18003848.23447  20413627.756    20413627.8284   20413629.6504
        50.2004         47.3004
   4013129.45542   3149387.58145  25160296.947    25160296.6494   25160297.2004
        36.4004         34.5004
   -742928.44342   -561216.77045  24689072.469    24689070.9784   24689075.1704
        35.0004         33.8004
  -7652188.97044  -5937973.40546  22514086.050    22514084.7874   22514087.6464
        42.5004         39.5004
  -2317982.11242  -1483414.68145  24540204.096    24540205.6384   24540210.0984
        37.0004         35.2004
 -10904431.90246  -8477221.90847  20966607.689    20966608.2234   20966609.8704
        48.2004         45.4004
 19 10 18  2 15  0.0000000  0  8G26G25G29G02G14G21G05G31
  -8326384.52645  -6478578.79447  21880369.834    21880370.4794   21880375.7654
        45.8004         42.6004
 -11280549.10545  -8769613.61947  21828952.577    21828951.7174   21828958.0214
        46.3004         43.3004
 -23115852.29647 -17977027.25947  20420177.438    20420177.3504   20420179.7854
        50.0004         47.3004
   4101414.30642   3218180.96845  25177098.301    25177095.2894   25177095.4734
        36.4004         34.5004
   -654135.56242   -492027.49845  24705969.354    24705968.4694   24705971.3124
        35.6004         34.0004
  -7737371.00844  -6004349.00646  22497876.418    22497875.8774   22497878.3584
        42.3004         39.7004
  -2369748.43342  -1523752.05445  24530356.195    24530355.3154   24530360.2644
        37.3004         35.3004
 -10877947.91446  -8456585.05247  20971648.089    20971647.8924   20971649.3644
        48.4004         45.6004
 19 10 18  2 15 30.0000000  0  8G26G25G29G02G14G21G05G31
  -8401773.32945  -6537323.30347  21866024.026    21866023.9684   21866030.7494
        45.5004         42.5004
 -11202784.77645  -8709018.05747  21843749.000    21843750.0854   21843756.0644
        46.3004         43.3004
 -23081018.66747 -17949884.17547  20426806.428    20426806.3934   20426808.3644
        50.0004         47.3004
   4189903.43242   3287133.56145  25193936.018    25193935.7454   25193935.7404
        36.3004         34.1004
   -565242.97842   -422760.54345  24722883.979    24722883.1784   24722887.6804
        35.4004         33.8004
  -7822236.33044  -6070477.81546  22481728.308    22481726.3914   22481728.1874
        42.5004         39.7004
  -2421081.43543  -1563751.75745  24520589.462    24520588.6374   24520591.6824
        37.6004         35.5004
 -10850903.30346  -8435511.34347  20976793.852    20976793.6564   20976795.7374
        48.2004         45.4004
 19 10 18  2 16  0.0000000  0  8G26G25G29G02G14G21G05G31
  -8476930.36545  -6595887.22047  21851722.043    21851722.2344   21851728.1524
        45.5004         42.5004
 -11124748.92445  -8648210.91447  21858600.599    21858599.3934   21858605.2394
        46.3004         43.3004
 -23045772.97847 -17922420.00247  20433513.429    20433513.5854   20433515.3524
        50.0004         47.3004
   4278594.73742   3356243.66145  25210814.014    25210813.7674   25210812.3634
        36.4004         34.6004
   -476253.82242   -353418.33145  24739818.165    24739819.0694   24739819.7194
        35.7004         34.1004
  -7906782.66244  -6136358.06046  22465638.724    22465638.0464   22465640.2364
        42.5004         39.9004
  -2471978.71243  -1603411.93845  24510904.426    24510903.2824   24510905.7174
        38.0004         35.9004
 -10823298.98246  -8414001.49347  20982047.011    20982047.0054   20982048.9334
        48.4004         45.6004
 19 10 18  2 16 30.0000000  0  8G26G25G29G02G14G21G05G31
  -8551854.21545  -6654269.42647  21837465.193    21837465.4294   21837470.6734
        45.5004         42.8004
 -11046442.44545  -8587192.90247  21873500.737    21873500.4334   21873506.5234
        46.3004         43.3004
 -23010116.97047 -17894636.10447  20440298.309    20440298.4014   20440300.5364
        50.0004         47.2004
   4367485.61942   3425509.28145  25227727.664    25227726.3384   25227728.2634
        36.3004         34.5004
   -387171.28642   -284003.35345  24756769.832    24756768.7534   24756772.2934
        35.7004         34.0004
  -7991007.99044  -6201988.17446  22449609.632    22449609.5984   22449613.8484
        42.7004         40.0004
  -2522437.77443  -1642730.67046  24501300.796    24501301.6424   24501303.3864
        38.2004         36.0004
 -10795135.62046  -8392056.02647  20987406.225    20987406.6814   20987408.0224
        48.4004         45.6004
 19 10 18  2 17  0.0000000  0  8G26G25G29G02G14G21G05G31
  -8626543.33945  -6712468.73847  21823252.339    21823252.3994   21823257.7724
        45.6004         42.8004
 -10967866.19145  -8525964.67147  21888454.442    21888453.2134   21888459.3134
        46.3004         43.5004
 -22974052.29447 -17866533.75647  20447160.842    20447161.3234   20447163.5454
        50.0004         47.2004
   4456573.94642   3494928.76345  25244681.342    25244680.7684   25244677.2464
        36.3004         34.3004
   -297998.20142   -214517.80845  24773739.431    24773742.0674   24773742.5204
        35.4004         33.6004
  -8074910.04844  -6267366.38946  22433644.150    22433643.9164   22433646.9954
        42.7004         39.9004
  -2572456.44743  -1681706.24846  24491785.938    24491783.4484   24491785.1454
        38.2004         36.0004
 -10766413.97946  -8369675.53847  20992871.866    20992871.9134   20992873.4944
        48.4004         45.4004
 19 10 18  2 17 30.0000000  0  8G26G25G29G02G14G21G05G31
  -8700996.27245  -6770483.99747  21809084.487    21809084.3784   21809090.3174
        45.8004         43.0004
 -10889021.13045  -8464526.98047  21903457.195    21903457.3554   21903462.8224
        46.3004         43.3004
 -22937579.86347 -17838113.68247  20454101.559    20454101.7544   20454103.8344
        49.8004         47.0004
   4545857.77942   3564500.60545  25261669.943    25261668.6324   25261669.8884
        36.1004         34.1004
   -208737.57942   -144964.05645  24790724.844    24790724.0264   24790728.6844
        35.4004         33.8004
  -8158486.84844  -6332491.14546  22417740.156    22417740.4474   22417742.2654
        42.7004         39.9004
  -2622031.93643  -1720336.46145  24482351.003    24482348.2244   24482349.8724
        38.0004         35.7004
 -10737134.71846  -8346860.53847  20998442.949    20998443.2154   20998444.9524
        48.2004         45.2004
 19 10 18  2 18  0.0000000  0  8G26G25G29G02G14G21G05G31
  -8775211.49745  -6828314.03547  21794961.855    21794961.4074   21794967.6594
        46.0004         43.2004
 -10809908.12546  -8402880.50547  21918511.597    21918511.9484   21918517.7494
        46.5004         43.5004
 -22900701.51647 -17809377.30947  20461119.337    20461119.3454   20461121.4974
        49.8004         47.0004
   4635334.81142   3634222.95745  25278696.562    25278697.0854   25278696.2914
        35.7004         34.0004
   -119392.08942    -75344.19845  24807727.105    24807726.8964   24807730.3504
        34.7004         33.1004
  -8241735.99044  -6397360.60246  22401899.265    22401897.9734   22401900.3414
        42.7004         39.9004
  -2671162.10243  -1758619.67945  24472997.723    24472999.6414   24473001.8364
        37.6004         35.5004
 -10707298.74746  -8323611.74747  21004121.145    21004121.2564   21004122.8394
        48.1004         45.2004
 19 10 18  2 18 30.0000000  0  8G26G25G29G02G14G21G05G31
  -8849187.51045  -6885957.68247  21780884.444    21780884.6694   21780890.3164
        46.0004         43.3004
 -10730528.09646  -8341025.95647  21933616.954    21933617.0454   21933623.2074
        46.5004         43.5004
 -22863418.88247 -17780325.90447  20468213.961    20468213.7644   20468216.0384
        49.8004         47.0004
   4725003.00842   3704094.27945  25295761.288    25295758.9144   25295757.7514
        35.9004         34.1004
    -29965.03341     -5660.78045  24824743.809    24824745.3684   24824749.3764
        34.2004         32.6004
  -8324655.29844  -6461973.02946  22386119.862    22386118.1854   22386121.1174
        42.5004         39.7004
  -2719844.45142  -1796553.92745  24463734.688    24463734.9974   24463738.6494
        37.3004         34.8004
 -10676906.62346  -8299929.58347  21009904.167    21009904.7034   21009906.3364
        48.1004         45.2004
 19 10 18  2 19  0.0000000  0  8G26G25G29G02G14G21G05G31
  -8922922.81445  -6943413.75947  21766853.366    21766852.9814   21766858.3574
        46.2004         43.2004
 -10650881.95846  -8278964.05147  21948773.534    21948773.4124   21948779.0634
        46.5004         43.5004
 -22825733.39947 -17750960.59547  20475385.243    20475385.4954   20475387.2304
        49.8004         47.0004
   4814860.03842   3774112.76445  25312857.771    25312858.7534   25312860.8354
        35.9004         34.0004
     59540.78541     64084.02945  24841776.306    24841772.8794   24841776.5554
        33.5004         32.4004
  -8407242.77344  -6526326.89446  22370404.003    22370402.5884   22370404.7394
        42.5004         39.7004
  -2768076.57242  -1834137.35645  24454560.338    24454556.9904   24454557.6714
        37.3004         35.2004
 -10645959.23846  -8275814.75547  21015793.681    21015793.8544   21015795.2224
        48.1004         45.2004
 19 10 18  2 19 30.0000000  0  8G26G25G29G02G14G21G05G31
  -8996415.89545  -7000681.09247  21752868.355    21752867.9994   21752873.3534
        46.2004         43.2004
 -10570970.63146  -8216695.49947  21963980.191    21963979.9374   21963986.1794
        46.5004         43.7004
 -22787646.51147 -17721282.49947  20482633.366    20482633.3394   20482635.4874
        49.8004         47.2004
   4904903.71142   3844276.64645  25329993.744    25329993.5684   25329994.5284
        35.6004         33.8004
    149122.40841    133887.90345  24858824.007    24858823.7544   24858827.0664
        33.0004         32.0004
  -8489496.56144  -6590420.73846  22354750.815    22354750.3684   22354752.9544
        42.5004         39.9004
  -2815856.19842  -1871368.19745  24445462.731    24445463.2324   24445467.9834
        37.1004         35.2004
 -10614457.63446  -8251268.06147  21021788.217    21021788.6504   21021789.9954
        48.1004         45.1004
 19 10 18  2 20  0.0000000  0  8G26G25G29G02G14G21G05G31
  -9069665.24145  -7057758.49847  21738928.567    21738929.0784   21738933.9584
        46.2004         43.2004
 -10490795.02746  -8154221.01847  21979238.052    21979236.7834   21979243.1394
        46.7004         43.9004
 -22749159.61347 -17691292.70847  20489956.936    20489956.7374   20489958.7234
        49.8004         47.0004
   4995131.79742   3914584.26745  25347164.501    25347164.5374   25347165.9674
        35.7004         34.0004
    238776.52841    203748.29045  24875885.322    24875886.1244   24875888.3954
        33.0004         32.2004
  -8571414.14744  -6654252.61346  22339162.552    22339162.0504   22339164.3284
        42.5004         39.9004
  -2863181.23142  -1908244.85345  24436458.855    24436458.5344   24436460.0974
        37.0004         35.0004
 -10582402.43846  -8226289.98947  21027887.599    21027888.1074   21027890.0384
        48.1004         45.2004
 19 10 18  2 20 30.0000000  0  8G26G25G29G02G14G21G05G31
  -9142669.36245  -7114644.83547  21725037.016    21725036.8034   21725042.4094
        46.3004         43.5004
 -10410356.04046  -8091541.30747  21994544.608    21994544.5294   21994550.1354
        46.7004         43.9004
 -22710274.13647 -17660992.34147  20497356.595    20497356.2524   20497358.5544
        49.8004         47.0004
   5085542.30442   3985034.02945  25364368.440    25364368.5944   25364367.0554
        35.4004         33.8004
    328500.49441    273663.06145  24892958.467    24892956.2194   24892960.6194
        32.8004         31.7004
  -8652993.34844  -6717820.80946  22323638.368    22323638.5404   22323640.6584
        42.7004         39.9004
  -2910049.16342  -1944765.27145  24427540.739    24427540.3524   24427542.3654
        37.0004         35.0004
 -10549794.66746  -8200881.36047  21034093.572    21034093.7124   21034094.5904
        48.1004         45.2004
 19 10 18  2 21  0.0000000  0  8G26G25G29G02G14G21G05G31
  -9215426.71245  -7171338.87047  21711191.215    21711191.3494   21711196.4724
        46.3004         43.5004
 -10329654.61046  -8028657.09847  22009901.289    22009901.2064   22009906.8764
        46.7004         43.7004
 -22670991.93847 -17630382.83647  20504831.621    20504831.7134   20504833.7834
        49.8004         47.0004
   5176133.03142   4055624.19545  25381607.075    25381604.5534   25381610.5914
        35.6004         34.0004
    418291.12151    343629.80955  24910043.737    24910049.8764   24910045.3264
        32.8004         32.0004
  -8734232.59744  -6781124.10846  22308179.826    22308178.6934   22308181.7944
        42.9004         40.0004
  -2956457.50642  -1980927.60745  24418705.051    24418707.5384   24418711.0004
        37.0004         35.0004
 -10516635.17246  -8175042.80947  21040402.978    21040403.0824   21040405.0224
        48.1004         45.1004
 19 10 18  2 21 30.0000000  0  8G26G25G29G02G14G21G05G31
  -9287935.79346  -7227839.45247  21697393.342    21697392.9134   21697398.6704
        46.5004         43.5004
 -10248691.70746  -7965569.13147  22025309.106    22025307.9974   22025313.4634
        46.7004         43.7004
 -22631314.48747 -17599465.34347  20512381.959    20512381.8994   20512384.2764
        49.6004         46.8004
   5266901.63942   4126352.94745  25398882.345    25398881.4124   25398877.2824
        35.4004         33.8004
    508145.51051    413646.25255  24927144.380    24927143.3394   24927145.3454
        33.1004         32.0004
  -8815129.74144  -6844160.82646  22292785.207    22292784.4914   22292787.5074
        42.9004         40.0004
  -3002404.14242  -2016730.15945  24409964.799    24409966.0104   24409967.2494
        37.5004         35.7004
 -10482924.91346  -8148775.08847  21046818.092    21046818.3234   21046819.8444
        48.1004         45.2004
 19 10 18  2 22  0.0000000  0  8G26G25G29G02G14G21G05G31
  -9360195.05346  -7284145.36147  21683642.887    21683642.9964   21683648.2034
        46.5004         43.7004
 -10167468.18946  -7902278.09047  22040764.710    22040764.3514   22040770.1594
        46.5004         43.5004
 -22591242.97347 -17568240.78847  20520007.007    20520007.0934   20520009.4414
        49.6004         46.8004
   5357846.04242   4197218.80345  25416186.527    25416185.7224   25416187.2584
        35.4004         33.8004
    598060.83951    483710.17155  24944254.556    24944255.2674
        32.8004         31.9004
  -8895681.96644  -6906928.78146  22277455.945    22277455.4904   22277459.1114
        42.9004         40.0004
  -3047886.48943  -2052170.92345  24401310.694    24401310.2354   24401312.0224
        37.6004         35.5004
 -10448664.78546  -8122078.89347  21053337.595    21053337.8924   21053339.4494
        48.1004         45.4004
 19 10 18  2 22 30.0000000  0  8G26G25G29G02G14G21G05G31
  -9432202.96246  -7340255.42247  21669939.999    21669939.9444   21669945.7214
        46.5004         43.5004
 -10085985.05246  -7838784.74447  22056270.866    22056269.5754   22056275.4944
        46.5004         43.5004
 -22550779.23547 -17536710.59747  20527707.321    20527707.0264   20527709.4594
        49.6004         46.8004
   5448964.22142   4268219.96945  25433525.410    25433524.8564   25433525.7944
        35.6004         34.0004
    688034.12451    553819.24455  24961375.651    24961373.2944
        32.4004         31.7004
  -8975887.95044  -6969426.93846  22262194.604    22262193.6084   22262196.4004
        42.9004         40.2004
  -3092902.81443  -2087248.54246  24392743.585    24392745.7884   24392746.2744
        38.2004         36.0004
 -10413855.77546  -8094955.00747  21059962.112    21059962.2074   21059963.4534
        48.2004         45.4004
 19 10 18  2 23  0.0000000  0  8G26G25G29G02G14G21G05G31
  -9503957.96346  -7396168.41347  21656285.588    21656285.1524   21656291.2074
        46.5004         43.5004
 -10004243.17946  -7775089.79447  22071825.282    22071824.9834   22071830.4574
        46.5004         43.7004
 -22509924.95647 -17504876.09347  20535482.014    20535481.8304   20535483.7644
        49.6004         46.6004
   5540253.71542   4339354.61545  25450898.724    25450899.6704   25450897.5704
        36.1004         34.5004
    778062.27951    623971.03455  24978506.707    24978510.0344
        31.7004         31.2004
  -9055745.08344  -7031653.25346  22246997.495    22246997.1474   22246999.6114
        43.0004         40.4004
  -3137450.63643  -2121961.13146  24384271.468    24384267.8764   24384269.2744
        38.3004         36.2004
 -10378498.66746  -8067404.02647  21066689.721    21066690.1314   21066691.4224
        48.2004         45.2004
 19 10 18  2 23 30.0000000  0  8G26G25G29G02G14G21G05G31
  -9575458.59246  -7451883.19747  21642679.400    21642679.2404   21642685.2694
        46.7004         43.7004
  -9922243.53846  -7711193.99147  22087429.142    22087429.3294   22087434.9574
        46.5004         43.5004
 -22468681.13746 -17472738.05547  20543329.874    20543330.0944   20543332.2954
        49.5004         46.6004
   5631712.58342   4410621.29645  25468303.005    25468302.5514   25468299.4454
        36.3004         34.3004
                    694163.49355  24995648.701
                        31.3004
  -9135251.54544  -7093606.33046  22231866.885    22231867.4784   22231870.3874
        43.4004         40.6004
  -3181527.16943  -2156306.45846  24375878.012    24375879.9094   24375880.8554
        38.7004         36.4004
 -10342594.69146  -8039426.91147  21073521.996    21073521.8164   21073523.8654
        48.1004         44.9004
 19 10 18  2 24  0.0000000  0  8G26G25G29G02G14G21G05G31
  -9646703.29146  -7507398.53847  21629121.638    21629121.6694   21629128.2324
        46.5004         43.5004
  -9839987.07046  -7647098.05947  22103082.177    22103081.2194   22103087.4764
        46.5004         43.5004
 -22427049.60346 -17440297.89147  20551252.608    20551252.4724   20551254.4784
        49.5004         46.8004
   5723338.60742   4482018.24645  25485740.680    25485740.2934   25485737.7054
        36.3004         34.5004
                     56814.78853  25012801.248
                        23.4004
  -9214405.31245  -7155284.58546  22216807.362    22216805.9084   22216807.0374
        43.7004         41.1004
  -3225130.83443  -2190283.31946  24367583.197    24367582.4614   24367584.1584
        38.9004         36.6004
 -10306144.82646  -8011024.42647  21080458.136    21080458.4784   21080459.5314
        47.9004         44.9004
 19 10 18  2 24 30.0000000  0  8G26G25G29G02G14G21G05G31
  -9717690.53046  -7562713.27247  21615613.360    21615613.2464   21615619.6154
        46.5004         43.7004
  -9757474.68546  -7582802.70047  22118783.536    22118783.6094   22118789.3744
        46.7004         43.7004
 -22385031.97846 -17407556.89647  20559248.260    20559248.3074   20559249.9674
        49.5004         46.6004
   5815129.53042   4553543.62245  25503204.644    25503206.3414   25503205.3384
        36.6004         34.6004
                    127061.34355  25029955.936
                        30.0004
  -9293204.29645  -7216686.37946  22201811.726    22201810.5464   22201812.7324
        43.9004         41.2004
  -3268259.36943  -2223889.94546  24359374.022    24359373.4584   24359377.7224
        38.3004         36.0004
 -10269149.96346  -7982197.27847  21087498.016    21087498.1354   21087499.8694
        47.9004         44.9004
 19 10 18  2 25  0.0000000  0  8G26G25G29G02G14G21G05G31
  -9788418.72846  -7617826.14747  21602153.869    21602154.6444   21602160.3014
        46.5004         43.9004
  -9674707.39046  -7518308.71647  22134534.983    22134534.1374   22134539.6284
        46.7004         43.7004
 -22342629.55746 -17374516.04747  20567316.650    20567316.7174   20567318.9784
        49.5004         46.6004
   5907083.36542   4625195.94045  25520703.141    25520704.4924   25520702.2764
        36.3004         34.1004
                    197341.03054  25047126.124
                        29.3004
  -9371646.89745  -7277810.47946  22186884.070    22186883.3544   22186886.1694
        44.2004         41.4004
  -3310910.45143  -2257124.52946  24351257.124    24351258.3194   24351261.6584
        38.3004         36.2004
 -10231611.40846  -7952946.46647  21094641.572    21094641.8184   21094643.1904
        47.7004         44.9004
 19 10 18  2 25 30.0000000  0  7G26G25G29G02G21G05G31
  -9858886.36146  -7672735.98947  21588744.769    21588744.6194   21588750.9804
        46.7004         43.9004
  -9591686.07646  -7453616.80247  22150332.760    22150332.0924   22150338.0674
        46.7004         43.5004
 -22299844.18546 -17341176.78747  20575458.308    20575458.2304   20575460.8144
        49.3004         46.5004
   5999197.95242   4696973.60145  25538232.559    25538231.2774   25538231.7664
        36.8004         35.0004
  -9449730.78345  -7338655.05046  22172025.919    22172024.3594   22172027.4554
        44.2004         41.4004
  -3353081.91343  -2289985.35846  24343233.477    24343232.6734   24343236.5294
        38.5004         36.2004
 -10193529.79046  -7923272.48147  21101887.827    21101888.6254   21101890.3354
        47.7004         44.9004
 19 10 18  2 26  0.0000000  0  7G26G25G29G02G21G05G31
  -9929091.90046  -7727441.59947  21575385.327    21575384.7524   21575390.8764
        46.9004         44.0004
  -9508411.76646  -7388727.75047  22166179.712    22166179.1074   22166184.1084
        46.5004         43.3004
 -22256677.40546 -17307540.33747  20583672.661    20583672.7104   20583674.8494
        49.3004         46.5004
   6091471.14742   4768874.80445  25555792.342    25555791.1674   25555791.6374
        36.6004         34.6004
  -9527454.25245  -7399218.77846  22157233.617    22157233.3994   22157237.0124
        44.2004         41.2004
  -3394771.58043  -2322470.76446  24335300.914    24335299.7104   24335303.1964
        38.3004         36.0004
 -10154906.65046  -7893176.53747  21109237.595    21109237.8324   21109239.6634
        47.9004         44.9004
 19 10 18  2 26 30.0000000  0  7G26G25G29G02G21G05G31
  -9999033.74446  -7781941.74247  21562076.535    21562076.0144   21562081.4434
        47.0004         44.2004
  -9424885.32845  -7323642.23247  22182073.386    22182072.7224   22182079.0394
        46.3004         43.3004
 -22213130.78546 -17273607.90847  20591959.264    20591959.1814   20591961.6354
        49.1004         46.5004
   6183900.72342   4840897.85045  25573380.458    25573380.9964   25573379.5504
        36.4004         34.3004
  -9604814.62345  -7459499.56746  22142514.229    22142512.5994   22142515.8634
        44.2004         41.2004
  -3435977.37143  -2354579.13645  24327456.815    24327458.0804   24327462.9864
        38.3004         35.9004
 -10115743.10646  -7862659.51047  21116690.932    21116691.0584   21116692.4204
        47.9004         45.1004
 19 10 18  2 27  0.0000000  0  7G26G25G29G02G21G05G31
 -10068710.36246  -7836235.21547  21548817.053    21548817.0764   21548822.3274
        47.0004         44.2004
  -9341107.81245  -7258361.05947  22198015.421    22198015.2594   22198021.4654
        46.3004         43.2004
 -22169205.55146 -17239380.45247  20600318.321    20600318.1774   20600320.4794
        49.3004         46.5004
   6276484.52042   4913041.11945  25590999.490    25590997.9604   25591000.7004
        35.9004         34.1004
  -9681810.50145  -7519496.33246  22127862.125    22127860.1714   22127863.8044
        44.2004         41.4004
  -3476697.09343  -2386308.76045  24319710.254    24319708.9124   24319712.1904
        38.0004         35.7004
 -10076040.25546  -7831722.23347  21124245.862    21124246.1524   21124247.8134
        47.9004         45.1004
 19 10 18  2 27 30.0000000  0  7G26G25G29G02G21G05G31
 -10138120.18846  -7890320.78647  21535608.685    21535608.2824   21535614.3794
        47.2004         44.4004
  -9257080.07645  -7192884.93047  22214005.931    22214005.4454   22214012.3314
        46.2004         43.2004
 -22124903.76346 -17204859.58247  20608748.696    20608748.6144   20608751.1764
        49.3004         46.6004
   6369220.60742   4985303.01145  25608645.557    25608645.4304   25608646.8834
        35.9004         34.3004
  -9758439.72545  -7579207.41346  22113278.778    22113278.4214   22113282.0094
        44.2004         41.4004
  -3516928.68443  -2417658.01845  24312054.152    24312052.1924   24312056.2384
        38.0004         35.7004
 -10035799.00646  -7800365.43047  21131903.524    21131903.7364   21131905.2554
        47.9004         45.1004
 19 10 18  2 28  0.0000000  0  7G26G25G29G02G21G05G31
 -10207261.68146  -7944197.27147  21522451.855    21522451.5934   21522457.1174
        47.4004         44.4004
  -9172803.20345  -7127214.65647  22230043.629    22230042.7594   22230048.6014
        46.0004         43.2004
 -22080226.54646 -17170046.16147  20617250.383    20617250.5524   20617252.8584
        49.3004         46.5004
   6462106.49542   5057681.67145  25626321.167    25626319.6054   25626321.0534
        35.6004         33.6004
  -9834700.52145  -7638631.39746  22098767.752    22098767.1374   22098770.0944
        44.4004         41.6004
  -3556670.37043  -2448625.53445  24304489.503    24304490.1024   24304495.2314
        38.0004         35.7004
  -9995020.66446  -7768590.11147  21139663.354    21139663.3504   21139665.5114
        47.9004         45.1004
 19 10 18  2 28 30.0000000  0  7G26G25G29G02G21G05G31
 -10276133.26146  -7997863.43747  21509345.897    21509345.5444   21509351.3724
        47.4004         44.4004
  -9088278.10145  -7061350.95747  22246127.956    22246127.4004   22246134.0204
        46.0004         43.0004
 -22035175.56246 -17134941.49947  20625824.079    20625823.9134   20625825.8474
        49.5004         46.6004
   6555140.09442   5130175.36145  25644024.135    25644025.2774   25644024.9214
        35.9004         34.1004
  -9910590.64645  -7697766.55446  22084325.636    22084325.1304   22084327.7324
        44.4004         41.4004
  -3595919.86143  -2479209.54345  24297022.408    24297022.9424   24297025.1854
        37.8004         35.5004
  -9953706.37846  -7736397.17747  21147525.111    21147525.4894   21147527.1544
        47.9004         45.1004
 19 10 18  2 29  0.0000000  0  8G23G26G25G29G02G21G05G31
                     -9679.15254  25165055.448
                        29.6004
 -10344733.39946  -8051318.09247  21496291.713    21496291.3884   21496296.5574
        47.2004         44.2004
  -9003505.74545  -6995294.58647  22262259.309    22262259.2854   22262264.8374
        46.0004         42.8004
 -21989752.23746 -17099546.70647  20634467.365    20634467.4584   20634469.5324
        49.5004         46.5004
   6648319.36942   5202782.60545  25661755.958    25661755.0844   25661757.8484
        36.3004         34.5004
  -9986108.35345  -7756611.52246  22069955.812    22069955.2454   22069956.9974
        44.4004         41.6004
  -3634675.04143  -2509408.38245  24289648.279    24289646.5184   24289649.1434
        37.8004         35.3004
  -9911857.51446  -7703787.69247  21155488.562    21155488.6804   21155490.5874
        47.9004         44.9004
 19 10 18  2 29 30.0000000  0  8G23G26G25G29G02G21G05G31
                    -16816.09344  25163312.776
                        28.9004
 -10413060.48646  -8104559.97347  21483289.199    21483289.1594   21483295.1664
        47.2004         44.2004
  -8918487.10145  -6929046.30047  22278438.449    22278437.0404   22278443.7274
        45.8004         42.8004
 -21943958.44746 -17063863.23347  20643181.695    20643181.8414   20643183.5064
        49.3004         46.5004
   6741642.26642   5275501.77345  25679516.685    25679516.1994   25679515.7744
        36.1004         34.3004
 -10061251.93845  -7815164.94846  22055655.764    22055655.7554   22055658.4664
        44.4004         41.6004
  -3672934.18143  -2539220.69745  24282365.531    24282368.2454   24282369.7064
        37.8004         35.9004
  -9869475.22746  -7670762.55247  21163553.778    21163554.3034   21163555.8154
        47.9004         44.9004
 19 10 18  2 30  0.0000000  0  8G23G26G25G29G02G21G05G31
                     -1377.08743  25161665.115
                        23.4004
 -10481112.98846  -8157587.87847  21470338.879    21470339.1004   21470345.0224
        47.0004         44.2004
  -8833223.15845  -6862606.87347  22294662.934    22294662.2154   22294669.4914
        45.6004         42.6004
 -21897795.55746 -17027892.15347  20651966.700    20651966.0054   20651968.1534
        49.3004         46.5004
   6835106.73442   5348331.26445  25697302.161    25697300.7844   25697300.7734
        36.4004         34.3004
 -10136019.37845  -7873425.28646  22041428.648    22041427.6044   22041430.6424
        44.4004         41.6004
  -3710695.01243  -2568644.69545  24275181.985    24275181.7364   24275183.7934
        37.8004         35.5004
  -9826561.16246  -7637323.02847  21171720.024    21171720.2044   21171722.3824
        47.7004         44.9004
 19 10 18  2 30 30.0000000  0  8G23G26G25G29G02G21G05G31
                     -7723.99345  25160116.621
                        34.6004
 -10548889.34246  -8210400.62447  21457441.719    21457441.4894   21457447.4524
        47.2004         44.4004
  -8747714.91145  -6795977.09847  22310934.881    22310934.5384   22310939.9174
        45.5004         42.5004
 -21851265.26346 -16991634.78947  20660820.507    20660820.3664   20660822.4484
        49.3004         46.3004
   6928710.58142   5421269.32845  25715113.125    25715112.9084   25715111.9874
        36.3004         34.3004
 -10210408.68145  -7931390.95646  22027271.293    22027271.0494   22027274.3534
        44.4004         41.8004
  -3747955.64443  -2597678.92445  24268090.322    24268090.2234   24268093.1824
        37.8004         35.7004
  -9783115.81746  -7603469.52647  21179987.774    21179987.7994   21179988.9024
        47.9004         44.9004
