     2.11           OBSERVATION DATA    G (GPS)             RINEX VERSION / TYPE
teqc  2019Feb25     IGN-RGP             20191104 08:50:17UTCPGM / RUN BY / DATE
Linux 2.6.32-573.12.1.x86_64|x86_64|gcc|Linux 64|=+         COMMENT
teqc  2019Feb25     IGN-RGP             20191023 08:50:06UTCCOMMENT
teqc  2019Feb25     Administrateur RGP  20191023 08:50:06UTCCOMMENT
teqc  2019Feb25     Observatoire de Pari20191020 00:52:28UTCCOMMENT
Linux 2.6.32-573.12.1.x86_64|x86_64|gcc -static|Linux 64|=+ COMMENT
BIT 2 OF LLI FLAGS DATA COLLECTED UNDER A/S CONDITION       COMMENT
OPMT                                                        MARKER NAME
10001S006                                                   MARKER NUMBER
Automatic           OP                                      OBSERVER / AGENCY
02942               ASHTECH Z-XII3T     1L01-1D04           REC # / TYPE / VERS
00019               3S-02-TSADM     NONE                    ANT # / TYPE
  4202777.6220   171367.7610  4778659.9840                  APPROX POSITION XYZ
        0.0000        0.0000        0.0000                  ANTENNA: DELTA H/E/N
     1     1                                                WAVELENGTH FACT L1/2
     7    L1    L2    C1    P1    P2    S1    S2            # / TYPES OF OBSERV
    30.0000                                                 INTERVAL
 SNR is mapped to RINEX snr flag value [0-9]                COMMENT
  L1 & L2: min(max(int(snr_dBHz/6), 0), 9)                  COMMENT
pseudorange smoothing corrections not applied               COMMENT
Forced Modulo Decimation to 30 seconds                      COMMENT
teqc_2019 edited: GLONASS # 25 - 30 excluded                COMMENT
teqc_2019 edited: GLONASS # 25 - 30 excluded                COMMENT
  2019    10    19     0     0    0.0000000     GPS         TIME OF FIRST OBS
                                                            END OF HEADER
 19 10 19  0  0  0.0000000  0  8G25G24G29G14G12G02G06G32
 -20097865.33547 -15637765.58547  20130156.803    20130156.5084   20130161.7634
        50.8004         47.8004
  -3346878.09244  -2581535.36446  23212358.113    23212359.7054   23212367.2154
        42.3004         39.3004
 -16711273.71445 -12998884.27947  21831831.687    21831832.0754   21831834.5384
        45.6004         42.8004
  -9344761.12944  -7267768.37146  22470410.420    22470409.9744   22470411.9794
        43.0004         40.4004
 -16479590.83946 -12818354.03147  21130526.724    21130526.8004   21130529.0124
        47.7004         44.9004
  -6555539.83945  -5091357.65946  23185124.055    23185123.0284   23185123.4584
        43.6004         40.6004
  -7578066.44143  -5885767.00246  23945902.232    23945901.3824   23945908.4214
        39.4004         36.9004
  -8972710.24645  -6970006.37247  22041091.708    22041092.4704   22041096.5054
        45.5004         42.5004
 19 10 19  0  0 30.0000000  0  8G25G24G29G14G12G02G06G32
 -20112560.10747 -15649216.05847  20127360.626    20127360.1404   20127365.4634
        50.8004         47.8004
  -3245069.20144  -2502203.77946  23231733.444    23231734.1914   23231739.2934
        42.2004         39.5004
 -16800645.84145 -13068524.88447  21814824.870    21814825.6034   21814827.0754
        45.8004         43.2004
  -9365621.40144  -7284023.14546  22466440.563    22466440.0394   22466442.8864
        43.0004         40.4004
 -16413761.78146 -12767058.67147  21143052.546    21143053.1574   21143055.6684
        47.7004         44.9004
  -6577383.00544  -5108378.28146  23180966.509    23180965.6244   23180967.7654
        43.4004         40.7004
  -7541562.14843  -5857322.13046  23952847.925    23952848.1174   23952854.4594
        39.6004         37.1004
  -8930701.66845  -6937272.42747  22049085.529    22049086.4774   22049090.9984
        45.3004         42.5004
 19 10 19  0  1  0.0000000  0  9G25G24G29G14G12G02G06G32G31
 -20126858.54547 -15660357.70248  20124639.833    20124639.3064   20124644.5534
        50.8004         48.0004
  -3143067.75244  -2422722.16646  23251144.995    23251143.8044   23251149.6574
        42.0004         39.3004
 -16889647.38545 -13137876.73247  21797888.659    21797888.3524   21797891.4004
        46.0004         43.0004
  -9385913.04144  -7299834.79946  22462579.910    22462579.3794   22462581.2414
        43.2004         40.6004
 -16347663.82646 -12715553.78447  21155630.625    21155631.3064   21155633.6034
        47.7004         44.9004
  -6598734.67544  -5125015.92146  23176904.190    23176903.3594   23176904.1424
        43.4004         40.7004
  -7504498.96243  -5828441.70046  23959901.284    23959902.8554   23959906.8824
        39.4004         37.1004
  -8888147.40145  -6904113.26947  22057184.256    22057184.0874   22057189.2404
        45.5004         42.6004
                   -202074.71356  22941139.120                    22941140.4124
                        38.8004
 19 10 19  0  1 30.0000000  0  9G25G24G29G14G12G02G06G32G31
 -20140760.67147 -15671190.53247  20121993.927    20121993.6304   20121999.1184
        50.8004         47.8004
  -3040875.22044  -2343091.62246  23270590.535    23270590.1024   23270597.1204
        42.0004         39.3004
 -16978276.58745 -13206938.45047  21781023.939    21781023.5334   21781026.1624
        46.0004         43.2004
  -9405635.33944  -7315202.82146  22458826.040    22458826.4604   22458828.3934
        43.2004         40.2004
 -16281298.00746 -12663840.17847  21168260.377    21168260.6994   21168262.5344
        47.7004         44.9004
  -6619593.36545  -5141269.43546  23172934.113    23172934.0814   23172934.7804
        43.6004         40.9004
  -7466878.06843  -5799126.70246  23967061.755    23967061.0724   23967065.8614
        39.7004         37.4004
  -8845049.20545  -6870530.28647  22065385.531    22065385.3044   22065390.0094
        45.3004         42.3004
   -363274.85244   -272023.39346  22924057.928    22924057.0944   22924057.8474
        41.3004         39.0004
 19 10 19  0  2  0.0000000  0  9G25G24G29G14G12G02G06G32G31
 -20154266.51347 -15681714.56647  20119423.985    20119423.6134   20119428.8604
        50.8004         47.7004
  -2938493.08344  -2263313.36046  23290072.485    23290072.7764   23290079.3344
        42.2004         39.3004
 -17066531.04645 -13275708.14647  21764229.014    21764228.7954   21764231.2494
        46.0004         43.2004
  -9424787.81644  -7330126.85146  22455181.635    22455181.1874   22455183.5174
        43.0004         40.0004
 -16214665.16446 -12611918.49047  21180940.162    21180940.5084   21180942.6884
        47.7004         44.9004
  -6639958.60045  -5157138.41746  23169059.895    23169058.8484   23169060.4674
        43.7004         41.1004
  -7428700.60343  -5769378.04646  23974325.275    23974326.9684   23974330.7674
        39.9004         37.4004
  -8801408.92445  -6836524.91047  22073689.042    22073689.4484   22073694.5544
        45.1004         42.1004
   -452824.82044   -341802.57646  22907016.229    22907016.0054   22907018.1454
        41.8004         39.5004
 19 10 19  0  2 30.0000000  0  9G25G24G29G14G12G02G06G32G31
 -20167376.02047 -15691929.77548  20116929.737    20116929.4304   20116934.4444
        50.8004         48.0004
  -2835923.03544  -2183388.64746  23309591.387    23309591.3694   23309598.3784
        42.2004         39.5004
 -17154408.90745 -13344184.39447  21747506.097    21747506.0724   21747508.7274
        46.0004         43.2004
  -9443369.78044  -7344606.29346  22451645.660    22451645.4224   22451648.2354
        43.0004         40.4004
 -16147766.94046 -12559790.02047  21193670.307    21193670.9334   21193672.4404
        47.7004         44.9004
  -6659829.08045  -5172621.88946  23165276.715    23165277.3504   23165279.1954
        43.7004         40.9004
  -7389967.87843  -5739196.69246  23981698.053    23981697.0834   23981702.9594
        40.1004         37.6004
  -8757228.39745  -6802098.55947  22082095.752    22082096.3114   22082102.5464
        44.9004         42.1004
   -542155.37754   -411410.77556  22890017.476    22890017.5454   22890018.7694
        42.2004         39.7004
 19 10 19  0  3  0.0000000  0  9G25G24G29G14G12G02G06G32G31
 -20180089.24247 -15701836.18647  20114510.006    20114509.5374   20114515.0844
        50.8004         47.8004
  -2733166.32744  -2103318.50146  23329144.126    23329145.9504   23329152.4504
        42.3004         39.7004
 -17241908.24445 -13412365.68347  21730856.196    21730855.8534   21730858.3624
        46.2004         43.3004
  -9461380.63244  -7358640.71946  22448218.498    22448218.3874   22448221.0274
        43.0004         40.4004
 -16080604.35546 -12507455.54347  21206451.594    21206451.7814   21206453.0154
        47.7004         44.9004
  -6679203.85845  -5187719.10246  23161591.471    23161590.1664   23161592.0774
        43.6004         40.9004
  -7350681.06843  -5708583.59146  23989172.599    23989172.8654   23989179.0284
        39.9004         37.6004
  -8712509.48845  -6767252.65947  22090606.129    22090606.2544   22090611.9374
        45.1004         42.3004
   -631264.30944   -480846.31246  22873059.867    22873060.4244   22873061.3494
        42.3004         39.7004
 19 10 19  0  3 30.0000000  0  9G25G24G29G14G12G02G06G32G31
 -20192406.14647 -15711433.77447  20112165.923    20112165.7804   20112171.2864
        50.8004         47.8004
  -2630225.21344  -2023104.65046  23348734.912    23348734.6024   23348741.1514
        42.5004         39.9004
 -17329027.21845 -13480250.59547  21714277.143    21714277.3194   21714279.5384
        46.2004         43.3004
  -9478819.74744  -7372229.66646  22444899.699    22444899.7154   22444903.4164
        43.0004         40.6004
 -16013179.01246 -12454916.33447  21219282.018    21219282.2144   21219284.3054
        47.7004         44.9004
  -6698082.09945  -5202429.40246  23157998.606    23157998.0514   23157998.6024
        43.6004         40.7004
  -7310841.49543  -5677539.76946  23996752.764    23996753.7484   23996759.8344
        39.9004         37.4004
  -8667254.03645  -6731988.69747  22099218.253    22099219.1194   22099224.0054
        45.1004         42.3004
   -720149.60144   -550107.56346  22856146.010    22856145.5834   22856147.0624
        42.3004         39.5004
 19 10 19  0  4  0.0000000  0  9G25G24G29G14G12G02G06G32G31
 -20204326.80747 -15720722.60547  20109897.729    20109897.2124   20109902.7124
        50.8004         47.7004
  -2527100.83844  -1942748.00146  23368358.763    23368359.3504   23368365.1474
        42.7004         40.0004
 -17415764.05345 -13547837.73647  21697771.806    21697771.8804   21697774.3764
        46.2004         43.3004
  -9495686.78844  -7385372.81646  22441690.013    22441689.6154   22441693.2784
        43.2004         40.4004
 -15945491.55646 -12402172.87447  21232162.683    21232162.5594   21232164.4114
        47.7004         44.9004
  -6716462.74845  -5216751.97346  23154500.922    23154500.1694   23154501.5654
        43.6004         40.7004
  -7270450.45943  -5646066.22846  24004441.552    24004440.4994   24004446.1734
        40.3004         37.9004
  -8621463.97145  -6696308.16047  22107931.392    22107931.7864   22107936.8554
        45.3004         42.3004
   -808809.40844   -619193.12246  22839273.998    22839274.5584   22839275.9514
        42.3004         39.7004
 19 10 19  0  4 30.0000000  0  9G25G24G29G14G12G02G06G32G31
 -20215851.21947 -15729702.67147  20107704.852    20107704.5474   20107709.5504
        50.8004         47.8004
  -2423794.98044  -1862249.93546  23388017.386    23388017.7344   23388023.4084
        42.7004         39.9004
 -17502116.56845 -13615125.39947  21681339.999    21681339.7024   21681341.9794
        46.3004         43.5004
  -9511980.72544  -7398069.39546  22438589.133    22438589.0144   22438591.8674
        43.0004         40.2004
 -15877543.31346 -12349226.19647  21245093.546    21245093.3844   21245094.5464
        47.9004         44.9004
  -6734345.15945  -5230686.28646  23151097.892    23151097.4414   23151099.1764
        43.6004         40.9004
  -7229509.25643  -5614163.97046  24012232.963    24012231.9054   24012237.4944
        40.4004         37.9004
  -8575141.19345  -6660212.52147  22116747.113    22116747.6234   22116752.3194
        45.3004         42.6004
   -897241.65344   -688101.35246  22822446.087    22822446.6734   22822448.1374
        42.3004         39.5004
 19 10 19  0  5  0.0000000  0  9G25G24G29G14G12G02G06G32G31
 -20226979.42647 -15738374.00047  20105587.290    20105586.8324   20105592.1924
        50.8004         47.8004
  -2320309.17044  -1781611.63946  23407710.357    23407710.2504   23407716.2874
        42.7004         39.9004
 -17588082.42946 -13682111.78447  21664980.384    21664981.0894   21664983.8154
        46.5004         43.7004
  -9527701.21644  -7410319.14746  22435598.297    22435597.3124   22435599.6194
        43.0004         40.2004
 -15809335.57246 -12296077.31947  21258072.580    21258072.2104   21258074.2704
        47.9004         44.9004
  -6751728.22545  -5244231.52446  23147789.172    23147789.1154   23147791.1544
        43.6004         40.7004
  -7188019.24443  -5581834.10646  24020126.681    24020126.7214   24020132.9634
        40.4004         37.6004
  -8528287.66845  -6623703.28547  22125663.355    22125663.8194   22125668.2474
        45.5004         42.6004
   -985444.04744   -756830.48546  22805661.961    22805662.6404   22805663.6254
        42.2004         39.3004
 19 10 19  0  5 30.0000000  0  9G25G24G29G14G12G02G06G32G31
 -20237711.42947 -15746736.60547  20103545.156    20103544.5494   20103549.7654
        50.8004         47.7004
  -2216645.53944  -1700834.79246  23427435.499    23427436.5804   23427443.0264
        42.7004         40.0004
 -17673660.14346 -13748795.70347  21648696.158    21648696.2214   21648699.2534
        46.7004         43.9004
  -9542847.82044  -7422121.70146  22432715.651    22432715.2264   22432717.9644
        43.0004         40.4004
 -15740869.52446 -12242727.15847  21271100.925    21271101.1504   21271102.4044
        47.9004         44.9004
  -6768611.28545  -5257387.15046  23144577.558    23144576.7904   23144579.2954
        43.7004         41.1004
  -7145981.77743  -5549077.62746  24028125.865    24028125.8754   24028131.4994
        40.1004         37.3004
  -8480905.31945  -6586781.99547  22134679.768    22134680.8854   22134685.7154
        45.5004         42.6004
  -1073414.53544   -825378.90246  22788921.414    22788921.4884   22788923.0174
        41.8004         38.6004
 19 10 19  0  6  0.0000000  0  9G25G24G29G14G12G02G06G32G31
 -20248047.27347 -15754790.51747  20101578.267    20101577.8614   20101582.9554
        50.8004         47.8004
  -2112805.42644  -1619920.41346  23447195.410    23447196.3074   23447202.8724
        42.7004         39.9004
 -17758847.91846 -13815175.77347  21632485.557    21632485.3904   21632488.1654
        46.9004         44.0004
  -9557420.05244  -7433476.70646  22429942.987    22429942.6324   22429945.4534
        43.2004         40.6004
 -15672146.64846 -12189176.88847  21284178.795    21284178.7294   21284180.6124
        47.9004         44.9004
  -6784993.18045  -5270152.24046  23141460.092    23141459.7054   23141460.9254
        43.7004         41.1004
  -7103398.25043  -5515895.67446  24036228.883    24036229.2014   24036234.3074
        39.7004         37.4004
  -8432996.15045  -6549450.20246  22143797.167    22143797.4274   22143801.4594
        45.1004         41.9004
  -1161151.36444   -893745.25146  22772225.651    22772225.5424   22772226.4484
        41.3004         38.3004
 19 10 19  0  6 30.0000000  0  9G25G24G29G14G12G02G06G32G31
 -20257987.06247 -15762535.80348  20099686.680    20099686.3124   20099692.0064
        50.8004         48.0004
  -2008790.36944  -1538869.73746  23466990.634    23466990.3514   23466995.9464
        42.7004         39.9004
 -17843643.95746 -13881250.59547  21616349.491    21616349.3304   21616352.0944
        46.9004         43.9004
  -9571417.57144  -7444383.88346  22427278.881    22427278.6294   22427281.0364
        43.0004         40.4004
 -15603167.75046 -12135427.10547  21297303.791    21297304.4144   21297307.3674
        47.9004         44.9004
  -6800873.14945  -5282526.22146  23138438.076    23138437.8544   23138439.1474
        43.7004         40.9004
  -7060270.04443  -5482289.23646  24044437.110    24044436.3374   24044441.7694
        39.9004         37.4004
  -8384562.14345  -6511709.43446  22153012.447    22153013.7224   22153018.0814
        44.6004         41.6004
  -1248651.97744   -961927.52746  22755574.762    22755575.2174   22755577.6294
        41.1004         38.6004
 19 10 19  0  7  0.0000000  0  9G25G24G29G14G12G02G06G32G31
 -20267530.77347 -15769972.46548  20097870.747    20097870.1544   20097875.5474
        51.0004         48.0004
  -1904602.14244  -1457684.10646  23486814.441    23486815.7854   23486821.6684
        42.3004         39.5004
 -17928045.95946 -13947018.37547  21600288.071    21600287.4664   21600290.1664
        46.9004         44.0004
  -9584839.88244  -7454842.84846  22424725.022    22424724.6704   22424728.1484
        42.9004         40.4004
 -15533934.01246 -12081478.75047  21310479.380    21310479.6894   21310482.1164
        47.7004         44.9004
  -6816250.13745  -5294508.27246  23135513.217    23135511.0824   23135512.6284
        43.7004         40.9004
  -7016598.58843  -5448259.52046  24052746.085    24052746.1964   24052753.7314
        39.7004         37.3004
  -8335605.27545  -6473561.24646  22162329.222    22162330.1714   22162334.2834
        44.4004         41.6004
  -1335914.97344  -1029924.66646  22738968.532    22738967.9194   22738971.9414
        40.6004         37.9004
 19 10 19  0  7 30.0000000  0  9G25G24G29G14G12G02G06G32G31
 -20276678.50047 -15777100.56547  20096129.670    20096129.3034   20096135.1094
        51.0004         47.8004
  -1800242.53044  -1376364.93146  23506673.942    23506675.1224   23506681.1914
        42.3004         39.5004
 -18012052.31046 -14012477.84647  21584301.181    21584301.3454   21584304.6524
        46.9004         44.0004
  -9597686.35344  -7464853.09546  22422279.625    22422279.4324   22422282.6524
        42.9004         39.9004
 -15464446.95046 -12027333.00347  21323702.183    21323701.7694   21323704.4674
        47.7004         44.7004
  -6831123.76944  -5306098.10046  23132680.629    23132679.8424   23132681.0954
        43.4004         40.6004
  -6972385.29843  -5413807.61146  24061159.187    24061159.9664   24061166.2424
        39.4004         36.7004
  -8286127.63445  -6435007.27146  22171744.151    22171744.3194   22171749.2264
        44.2004         41.2004
  -1422937.92043  -1097734.73046  22722410.562    22722408.8044   22722410.3834
        40.1004         37.6004
 19 10 19  0  8  0.0000000  0  9G25G24G29G14G12G02G06G32G31
 -20285430.25947 -15783920.11648  20094464.218    20094464.1094   20094469.4504
        51.0004         48.0004
  -1695712.89344  -1294913.27346  23526566.208    23526566.5764   23526571.4904
        42.2004         39.5004
 -18095661.09546 -14077627.54347  21568391.559    21568391.7984   21568394.3964
        47.0004         44.2004
  -9609956.92144  -7474414.58246  22419945.548    22419945.0854   22419947.8434
        42.9004         40.2004
 -15394707.69146 -11972990.72847  21336973.432    21336972.9474   21336975.9144
        47.5004         44.7004
  -6845493.29444  -5317295.11246  23129946.353    23129945.5264   23129947.0934
        43.2004         40.2004
  -6927631.70843  -5378934.67746  24069677.766    24069676.8294   24069680.0934
        39.4004         36.9004
  -8236131.27245  -6396049.07746  22181257.928    22181258.5594   22181263.6504
        44.1004         41.4004
  -1509718.61543  -1165356.03946  22705894.878    22705894.8444   22705898.2134
        40.1004         37.4004
 19 10 19  0  8 30.0000000  0  9G25G24G29G14G12G02G06G32G31
 -20293786.13947 -15790431.19148  20092874.373    20092874.0494   20092879.3804
        51.0004         48.0004
  -1591014.91344  -1213330.43546  23546488.936    23546489.8614   23546495.4004
        42.2004         39.7004
 -18178870.57546 -14142466.08147  21552558.040    21552557.8224   21552560.3644
        47.2004         44.4004
  -9621650.89744  -7483526.77946  22417720.157    22417719.9104   22417722.5224
        42.9004         40.2004
 -15324717.79346 -11918453.15347  21350291.600    21350291.3774   21350294.0094
        47.5004         44.5004
  -6859357.86144  -5328098.63946  23127308.248    23127307.0694   23127309.5994
        43.0004         40.2004
  -6882339.21643  -5343641.83046  24078296.275    24078296.5644   24078299.1324
        39.2004         36.6004
  -8185618.23745  -6356688.28846  22190871.635    22190871.2194   22190875.5754
        44.4004         41.8004
  -1596255.11543  -1232787.05546  22689426.438    22689427.9604   22689430.4534
        40.1004         37.8004
 19 10 19  0  9  0.0000000  0  9G25G24G29G14G12G02G06G32G31
 -20301746.21347 -15796633.85048  20091359.478    20091359.1034   20091364.7054
        51.0004         48.0004
  -1486150.06044  -1131617.56646  23566444.911    23566444.8014   23566450.5184
        42.3004         39.7004
 -18261678.76546 -14206991.93547  21536799.677    21536799.5644   21536802.9224
        47.2004         44.2004
  -9632768.02344  -7492189.47046  22415604.869    22415604.6974   22415607.3214
        42.9004         40.0004
 -15254477.36146 -11863720.37247  21363658.214    21363657.9874   21363660.7144
        47.4004         44.4004
  -6872716.66244  -5338508.07446  23124767.093    23124765.0904   23124768.1244
        43.0004         40.6004
  -6836509.37943  -5307930.25646  24087017.212    24087016.5214   24087022.1654
        39.0004         36.7004
  -8134590.65045  -6316926.55946  22200580.910    22200581.2804   22200586.0644
        44.4004         41.6004
  -1682545.16843  -1300026.05746  22673006.843    22673007.2064   22673009.4824
        40.3004         37.8004
 19 10 19  0  9 30.0000000  0  9G25G24G29G14G12G02G06G32G31
 -20309310.52947 -15802528.12648  20089919.929    20089919.5664   20089925.3464
        51.0004         48.0004
  -1381120.65944  -1049776.47946  23586432.211    23586432.0074   23586436.8104
        42.3004         39.7004
 -18344083.95046 -14271203.75147  21521118.363    21521118.4254   21521121.0724
        47.2004         44.2004
  -9643308.03144  -7500402.46046  22413599.557    22413598.6124   22413601.8244
        43.0004         40.6004
 -15183988.20246 -11808793.76747  21377071.650    21377071.6714   21377074.2314
        47.4004         44.5004
  -6885569.10144  -5348522.93646  23122320.624    23122319.6714   23122321.6254
        43.4004         40.6004
  -6790143.66643  -5271801.13646  24095837.789    24095838.0734   24095843.1954
        38.9004         36.4004
  -8083050.62045  -6276765.51746  22210387.968    22210389.1244   22210393.6774
        44.4004         41.6004
  -1768586.83644  -1367071.52146  22656634.676    22656634.7184   22656636.0584
        40.6004         38.1004
 19 10 19  0 10  0.0000000  0  9G25G24G29G14G12G02G06G32G31
 -20316479.16347 -15808114.07348  20088556.211    20088555.5484   20088561.3324
        51.2004         48.2004
  -1275928.15244   -967808.29646  23606451.145    23606449.7084   23606454.3734
        42.3004         39.7004
 -18426084.26846 -14335100.07647  21505514.287    21505514.1094   21505517.1734
        47.2004         44.2004
  -9653270.45444  -7508165.39546  22411703.663    22411703.2454   22411706.0904
        43.4004         40.9004
 -15113251.55146 -11753674.32947  21390532.423    21390532.2314   21390535.2544
        47.2004         44.2004
  -6897914.04245  -5358142.35646  23119971.605    23119970.9314   23119972.8814
        43.6004         41.1004
  -6743243.68243  -5235255.67546  24104764.761    24104764.7324   24104767.8894
        38.9004         36.6004
  -8031000.25145  -6236206.80846  22220294.118    22220294.2534   22220298.6744
        44.8004         41.9004
  -1854378.19344  -1433921.94646  22640308.515    22640308.9334   22640310.6194
        40.9004         38.6004
 19 10 19  0 10 30.0000000  0  9G25G24G29G14G12G02G06G32G31
 -20323252.20447 -15813391.77248  20087267.270    20087267.0254   20087272.1294
        51.2004         48.2004
  -1170574.08944   -885714.21146  23626495.180    23626497.0904   23626503.0324
        42.5004         39.9004
 -18507678.19346 -14398679.75547  21489987.445    21489987.7014   21489989.9504
        47.2004         44.4004
  -9662655.58845  -7515478.49146  22409917.437    22409917.8964   22409919.2364
        43.6004         40.9004
 -15042268.85946 -11698363.14347  21404040.467    21404040.0664   21404042.3134
        47.2004         44.4004
  -6909751.01345  -5367365.96746  23117719.529    23117719.5124   23117720.6894
        43.7004         41.1004
  -6695810.90943  -5198295.08246  24113789.304    24113789.7544   24113795.5784
        38.7004         36.4004
  -7978441.68445  -6195252.10247  22230295.607    22230296.0474   22230300.6484
        44.9004         42.1004
  -1939917.11744  -1500575.67146  22624031.313    22624031.2524   22624034.4234
        41.5004         39.2004
 19 10 19  0 11  0.0000000  0  9G25G24G29G14G12G02G06G32G31
 -20329629.73547 -15818361.27748  20086053.546    20086053.2244   20086058.3574
        51.0004         48.0004
  -1065060.23944   -803495.64846  23646575.054    23646576.7114   23646580.8884
        42.5004         39.9004
 -18588863.29346 -14461940.85347  21474538.824    21474538.8374   21474541.2024
        47.2004         44.4004
  -9671462.88645  -7522341.32946  22408241.941    22408241.5824   22408243.2634
        43.7004         40.7004
 -14971040.91646 -11642860.87047  21417593.781    21417593.9854   21417596.5494
        47.2004         44.2004
  -6921079.58145  -5376193.39946  23115564.682    23115564.2134   23115563.8164
        43.7004         40.9004
  -6647846.95343  -5160920.59446  24122918.059    24122917.5354   24122923.0844
        39.0004         36.7004
  -7925377.12245  -6153903.10146  22240392.580    22240393.3834   22240398.5644
        44.8004         41.9004
  -2025201.39644  -1567030.96946  22607802.411    22607802.7984   22607804.6364
        42.0004         39.3004
 19 10 19  0 11 30.0000000  0  9G25G24G29G14G12G02G06G32G31
 -20335611.79747 -15823022.61848  20084915.878    20084914.9524   20084920.4034
        51.2004         48.0004
   -959388.03644   -721153.67246  23666686.735    23666685.6484   23666690.4744
        42.5004         39.9004
 -18669638.08646 -14524882.23347  21459167.611    21459167.7874   21459170.0154
        47.4004         44.5004
  -9679691.60345  -7528753.33346  22406676.012    22406675.3744   22406677.2864
        43.6004         40.6004
 -14899568.92846 -11587168.43847  21431195.542    21431195.5014   21431197.0084
        47.2004         44.4004
  -6931899.07545  -5384624.17746  23113505.355    23113504.5254   23113505.1624
        43.6004         40.7004
  -6599353.43543  -5123133.40246  24132146.045    24132146.1994   24132149.6004
        39.0004         36.7004
  -7871808.73045  -6112161.52446  22250586.907    22250587.0864   22250592.6754
        44.6004         41.8004
  -2110228.58744  -1633285.92146  22591621.412    22591621.9244   22591624.9644
        42.3004         40.0004
 19 10 19  0 12  0.0000000  0  9G25G24G29G14G12G02G06G32G31
 -20341198.53747 -15827375.91148  20083851.675    20083851.4544   20083857.0194
        51.0004         48.0004
   -853559.51144   -638689.89446  23686823.510    23686824.3334   23686828.3564
        42.7004         39.9004
 -18750000.98246 -14587502.65347  21443875.489    21443874.9254   21443877.6794
        47.4004         44.5004
  -9687342.12144  -7534714.79646  22405220.277    22405219.9834   22405221.4404
        43.2004         40.2004
 -14827854.06246 -11531286.73747  21444841.786    21444842.2894   21444844.0174
        47.2004         44.2004
  -6942208.85844  -5392657.76146  23111542.747    23111541.6274   23111543.1514
        43.4004         40.4004
  -6550331.93343  -5084934.82646  24141472.004    24141473.3134   24141478.1054
        38.9004         36.6004
  -7817738.70045  -6070029.05846  22260875.438    22260877.0324   22260880.7924
        44.6004         41.4004
  -2194996.69144  -1699339.00446  22575492.427    22575491.7624   22575493.7104
        42.9004         40.4004
 19 10 19  0 12 30.0000000  0  9G25G24G29G14G12G02G06G32G31
 -20346390.04147 -15831421.24048  20082864.395    20082863.9664   20082869.3494
        51.0004         48.0004
   -747576.09444   -556105.41646  23706990.417    23706991.9564   23706996.7514
        42.7004         39.9004
 -18829950.06446 -14649800.62747  21428661.102    21428661.1494   21428663.5124
        47.5004         44.5004
  -9694413.97544  -7540225.34746  22403874.414    22403874.4954   22403875.2034
        42.9004         39.9004
 -14755897.69846 -11475216.84947  21458534.349    21458534.9024   21458536.9364
        47.0004         44.2004
  -6952008.21544  -5400293.59946  23109677.314    23109676.6724   23109678.0314
        43.2004         40.2004
  -6500784.15243  -5046326.17346  24150902.897    24150902.8374   24150908.3244
        39.0004         36.9004
  -7763169.26745  -6027507.45346  22271260.402    22271260.9644   22271265.0014
        44.4004         41.6004
  -2279504.04544  -1765188.89846  22559410.383    22559410.4984   22559412.7224
        43.2004         40.6004
 19 10 19  0 13  0.0000000  0  9G25G24G29G14G12G02G06G32G31
 -20351186.41147 -15835158.67048  20081950.891    20081950.4774   20081956.7474
        51.0004         48.0004
   -641439.54844   -473401.61646  23727190.363    23727188.8044   23727193.8114
        42.7004         40.0004
 -18909483.55546 -14711774.75447  21413526.272    21413526.2644   21413529.1714
        47.4004         44.5004
  -9700907.08044  -7545284.92946  22402637.842    22402638.7324   22402640.3714
        42.5004         39.7004
 -14683701.21246 -11418959.85147  21472273.053    21472272.8514   21472275.1244
        47.0004         44.0004
  -6961296.63744  -5407531.30446  23107909.827    23107909.6644   23107910.2894
        43.0004         40.6004
  -6450711.61843  -5007308.61146  24160430.853    24160432.2724   24160435.7764
        39.2004         36.7004
  -7708102.65345  -5984598.42546  22281739.111    22281739.3734   22281744.0734
        44.4004         41.2004
  -2363748.48744  -1830833.93246  22543380.053    22543379.8414   22543381.3324
        43.4004         40.7004
 19 10 19  0 13 30.0000000  0  9G25G24G29G14G12G02G06G32G31
 -20355587.73947 -15838588.27247  20081113.538    20081113.2914   20081118.9334
        50.8004         47.8004
   -535151.42244   -390579.70546  23747416.815    23747415.2294   23747419.3634
        42.7004         39.9004
 -18988599.56546 -14773423.57347  21398470.432    21398470.5514   21398473.7054
        47.4004         44.4004
  -9706821.39844  -7549893.49046  22401513.463    22401512.1734   22401515.6444
        42.5004         39.9004
 -14611264.81346 -11362515.91247  21486057.089    21486057.7604   21486059.9134
        47.0004         44.2004
  -6970073.56644  -5414370.45446  23106239.726    23106239.4444   23106240.9164
        43.4004         40.6004
  -6400116.07843  -4967883.52746  24170060.203    24170059.1884   24170063.8054
        38.7004         36.2004
  -7652541.13845  -5941303.75446  22292310.700    22292311.5754   22292317.3454
        44.1004         41.2004
  -2447727.49545  -1896272.11146  22527398.141    22527398.3484   22527400.6234
        43.9004         41.1004
 19 10 19  0 14  0.0000000  0  9G25G24G29G14G12G02G06G32G31
 -20359594.13747 -15841710.14548  20080351.374    20080350.9304   20080356.6314
        50.8004         48.0004
   -428713.36344   -307640.95946  23767668.989    23767668.4904   23767673.8004
        42.5004         39.7004
 -19067296.35346 -14834745.72447  21383495.966    21383496.0134   21383498.3234
        47.4004         44.5004
  -9712156.60244  -7554050.80846  22400497.932    22400497.4564   22400499.7364
        42.7004         39.9004
 -14538590.02246 -11305886.23947  21499887.540    21499886.8224   21499889.6184
        47.0004         44.0004
  -6978338.49345  -5420810.64946  23104668.273    23104667.5604   23104668.0244
        43.6004         40.9004
  -6348999.24643  -4928052.24645  24179786.879    24179786.3274   24179790.8774
        38.3004         35.9004
  -7596486.95145  -5897625.18146  22302978.033    22302978.0394   22302984.7914
        44.2004         41.2004
  -2531439.20745  -1961502.01946  22511468.550    22511468.7724   22511471.0904
        44.1004         41.4004
 19 10 19  0 14 30.0000000  0  9G25G24G29G14G12G02G06G32G31
 -20363205.73647 -15844524.37547  20079664.025    20079663.6634   20079669.1394
        50.8004         47.8004
   -322127.72244   -224587.22046  23787952.190    23787952.2474   23787956.7734
        42.3004         39.5004
 -19145572.59646 -14895740.18247  21368600.142    21368599.9914   21368602.9434
        47.4004         44.5004
  -9716912.86344  -7557756.98746  22399591.986    22399592.4374   22399594.9324
        42.7004         40.2004
 -14465678.43246 -11249072.02947  21513762.112    21513762.3644   21513763.4654
        47.0004         44.2004
  -6986090.85545  -5426851.43646  23103193.166    23103191.5614   23103192.8674
        43.6004         40.9004
  -6297362.80243  -4887816.02146  24189609.746    24189611.3884   24189616.3844
        38.2004         36.0004
  -7539942.37545  -5853564.50146  22313738.651    22313739.6034   22313744.1674
        44.2004         41.6004
  -2614881.54445  -2026522.03146  22495590.836    22495590.6024   22495592.3954
        44.2004         41.8004
 19 10 19  0 15  0.0000000  0  9G25G24G29G14G12G02G06G32G31
 -20366422.61947 -15847031.04047  20079052.084    20079051.6034   20079056.9304
        50.8004         47.8004
   -215395.37744   -141419.16046  23808260.902    23808261.5114   23808266.7574
        42.2004         39.3004
 -19223426.49846 -14956405.55247  21353784.972    21353784.9984   21353787.6284
        47.4004         44.5004
  -9721090.04444  -7561011.93546  22398798.349    22398797.9674   22398800.1784
        43.0004         40.6004
 -14392531.74346 -11192074.63347  21527681.220    21527681.1894   21527683.2134
        47.0004         44.0004
  -6993330.16645  -5432492.44646  23101814.742    23101813.6914   23101815.2494
        43.6004         40.7004
  -6245208.54543  -4847176.36246  24199537.047    24199537.3144   24199541.0054
        38.3004         36.2004
  -7482909.76145  -5809123.50646  22324591.366    22324592.5614   22324596.7234
        44.1004         41.2004
  -2698052.26645  -2091330.36946  22479763.532    22479763.8334   22479766.2154
        44.6004         41.9004
 19 10 19  0 15 30.0000000  0  9G25G24G29G14G12G02G06G32G31
 -20369244.94447 -15849230.25547  20078514.780    20078514.4604   20078519.9044
        50.8004         47.8004
   -108518.95444    -58138.83046  23828600.089    23828600.3124   23828603.9804
        42.2004         39.3004
 -19300856.40446 -15016740.52947  21339050.835    21339050.7084   21339052.8974
        47.4004         44.5004
  -9724687.98544  -7563815.52146  22398112.695    22398112.9954   22398115.0814
        43.2004         40.4004
 -14319149.63546 -11134893.79047  21541644.804    21541645.4234   21541647.1374
        46.9004         43.9004
  -7000055.81545  -5437733.19546  23100534.220    23100533.9414   23100534.6584
        43.6004         40.9004
  -6192538.11943  -4806134.43246  24209559.526    24209560.1644   24209564.4234
        38.7004         36.4004
  -7425391.41145  -5764304.03246  22335537.967    22335538.3394   22335542.8204
        44.2004         41.6004
  -2780949.54845  -2155925.64146  22463988.302    22463988.8714   22463990.8674
        44.8004         41.9004
 19 10 19  0 16  0.0000000  0  9G25G24G29G14G12G02G06G32G31
 -20371672.78247 -15851122.07348  20078053.360    20078052.6984   20078058.1584
        50.8004         48.0004
     -1499.26844     25253.10846  23848965.849    23848965.7034   23848970.5264
        42.2004         39.5004
 -19377860.59046 -15076743.77847  21324397.016    21324397.0924   21324399.7274
        47.5004         44.7004
  -9727706.87144  -7566167.91046  22397538.109    22397537.8144   22397539.3884
        43.0004         40.2004
 -14245533.77746 -11077530.79447  21555653.708    21555653.9554   21555655.8494
        46.9004         43.9004
  -7006267.53445  -5442573.48146  23099352.174    23099351.7574   23099352.7514
        43.6004         40.7004
  -6139353.33443  -4764691.76346  24219680.486    24219680.7714   24219684.4864
        38.5004         36.2004
  -7367389.65245  -5719107.88546  22346574.775    22346575.2824   22346580.4684
        44.6004         41.8004
  -2863571.06245  -2220306.06246  22448266.770    22448266.6364   22448268.3514
        44.8004         41.9004
 19 10 19  0 16 30.0000000  0  9G25G24G29G14G12G02G06G32G31
 -20373706.30747 -15852706.64147  20077666.538    20077665.8804   20077670.8784
        51.0004         47.8004
    105661.72944    108755.18446  23869357.717    23869357.3404   23869361.7874
        42.2004         39.3004
 -19454437.29046 -15136413.93047  21309824.997    21309825.1384   21309827.4584
        47.7004         44.9004
  -9730146.85244  -7568069.20546  22397073.841    22397073.9704   22397077.0014
        42.9004         39.9004
 -14171685.50246 -11019986.70747  21569707.108    21569706.9504   21569709.2244
        46.7004         43.9004
  -7011965.17145  -5447013.18746  23098267.826    23098267.5684   23098268.5434
        43.6004         40.9004
  -6085655.94843  -4722849.61645  24229896.785    24229896.8104   24229902.6404
        38.0004         35.7004
  -7308906.85445  -5673536.88846  22357703.593    22357704.0834   22357709.0984
        44.4004         41.6004
  -2945914.80645  -2284470.01346  22432596.709    22432596.8284   22432598.7494
        44.8004         41.8004
 19 10 19  0 17  0.0000000  0  9G25G24G29G14G12G02G06G32G31
 -20375345.68247 -15853984.07148  20077353.712    20077353.5204   20077359.3624
        50.8004         48.0004
    212962.39544    192366.09646  23889774.788    23889775.8104   23889780.6794
        42.2004         39.3004
 -19530584.74846 -15195749.60047  21295335.124    21295334.7304   21295336.9304
        47.7004         44.7004
  -9732007.89844  -7569519.38646  22396719.473    22396718.6834   22396721.8664
        42.3004         39.0004
 -14097605.96646 -10962262.41847  21583803.949    21583804.0514   21583805.6564
        46.7004         43.7004
  -7017147.88845  -5451051.66046  23097281.546    23097280.3044   23097283.4524
        43.6004         40.7004
  -6031447.78043  -4680609.47745  24240212.966    24240213.5794   24240218.2894
        38.0004         35.9004
  -7249945.36245  -5627592.90546  22368924.116    22368924.2134   22368928.5104
        44.4004         41.4004
  -3027978.48745  -2348415.73246  22416980.552    22416980.6654   22416982.8384
        44.6004         41.9004
 19 10 19  0 17 30.0000000  0  9G25G24G29G14G12G02G06G32G31
 -20376590.97947 -15854954.43547  20077117.329    20077116.7084   20077122.1294
        51.0004         47.8004
    320400.79844    276084.32346  23910220.085    23910220.6254   23910226.8334
        42.2004         39.5004
 -19606301.50546 -15254749.65847  21280926.485    21280926.3384   21280928.9984
        47.7004         44.9004
  -9733289.72444  -7570518.22146  22396475.275    22396474.4554   22396477.5904
        41.8004         38.8004
 -14023296.27646 -10904358.79147  21597944.960    21597944.6794   21597946.8224
        46.7004         43.9004
  -7021815.15245  -5454688.46846  23096393.268    23096392.6944   23096394.9074
        43.6004         40.9004
  -5976730.63843  -4637972.72246  24250626.175    24250626.5324   24250631.1174
        38.5004         36.2004
  -7190507.56945  -5581277.76746  22380234.797    22380234.5574   22380239.6434
        44.2004         41.4004
  -3109759.78445  -2412141.40346  22401418.652    22401418.1994   22401419.3264
        44.6004         41.9004
 19 10 19  0 18  0.0000000  0  9G25G24G29G14G12G02G06G32G31
 -20377442.38747 -15855617.87047  20076955.208    20076954.6544   20076959.9834
        50.8004         47.8004
    427975.32244    359908.60646  23930691.977    23930691.1834   23930696.6744
        42.0004         39.2004
 -19681585.87346 -15313412.78247  21266599.772    21266600.2494   21266602.8594
        47.7004         44.9004
  -9733992.44544  -7571065.80346  22396341.599    22396341.0734   22396343.5234
        41.5004         39.0004
 -13948757.55846 -10846276.69947  21612128.826    21612128.7224   21612130.8814
        46.5004         43.7004
  -7025967.02845  -5457923.68546  23095603.446    23095603.1544   23095604.6114
        43.6004         40.9004
  -5921506.35643  -4594940.78746  24261135.657    24261134.8004   24261140.4624
        38.3004         36.2004
  -7130595.90545  -5534593.34246  22391634.891    22391635.1854   22391639.3374
        44.1004         41.1004
  -3191256.77945  -2475645.55447  22385909.376    22385910.0204   22385912.0164
        44.8004         42.1004
 19 10 19  0 18 30.0000000  0  9G25G24G29G14G12G02G06G32G31
 -20377900.01047 -15855974.46048  20076868.117    20076867.2684   20076873.3154
        50.8004         48.0004
    535684.21044    443837.59746  23951187.686    23951187.3164   23951194.3584
        42.0004         39.3004
 -19756436.35946 -15371737.81347  21252356.783    21252356.6304   21252359.3984
        47.9004         44.9004
  -9734115.92644  -7571162.02546  22396318.163    22396318.1444   22396320.7844
        41.8004         39.3004
 -13873991.76246 -10788017.65747  21626356.240    21626356.7624   21626358.2554
        46.5004         43.7004
  -7029602.98145  -5460756.85546  23094912.208    23094911.6804   23094913.0034
        43.6004         40.7004
  -5865776.74643  -4551515.13246  24271740.909    24271740.7714   24271745.6924
        38.3004         36.0004
  -7070212.74845  -5487541.54846  22403125.541    22403126.2994   22403130.2914
        44.1004         41.4004
  -3272467.58545  -2538926.70547  22370456.106    22370455.1144   22370457.1804
        44.9004         42.1004
 19 10 19  0 19  0.0000000  0  9G25G24G29G14G12G02G06G32G31
 -20377964.05247 -15856024.35748  20076855.073    20076855.1364   20076860.9644
        50.8004         48.0004
    643525.79944    527869.99846  23971709.102    23971708.3984   23971715.4944
        42.0004         39.2004
 -19830851.36246 -15429723.49947  21238195.967    21238196.4914   21238198.5354
        47.9004         45.1004
  -9733661.03644  -7570807.57146  22396406.417    22396405.4304   22396408.5224
        42.7004         40.4004
 -13798998.42946 -10729581.31647  21640626.370    21640626.6964   21640628.8244
        46.5004         43.3004
  -7032722.73145  -5463187.82946  23094318.893    23094318.0754   23094319.3004
        43.6004         40.9004
  -5809543.71643  -4507697.18446  24282443.782    24282443.1184   24282446.5794
        38.5004         36.2004
  -7009360.52345  -5440124.26646  22414705.742    22414707.3204   22414710.3614
        44.1004         41.2004
  -3353389.90445  -2601983.05647  22355056.675    22355058.0174   22355058.7944
        44.9004         42.3004
 19 10 19  0 19 30.0000000  0  9G25G24G29G14G12G02G06G32G31
 -20377634.63847 -15855767.66648  20076918.497    20076917.9234   20076923.6864
        50.8004         48.0004
    751498.75644    612004.73946  23992256.057    23992255.5444   23992261.3664
        42.0004         39.3004
 -19904829.26846 -15487368.60247  21224118.203    21224118.6114   21224121.0104
        47.9004         45.1004
  -9732627.59644  -7570002.31446  22396602.947    22396602.5654   22396605.1174
        43.2004         40.7004
 -13723779.37945 -10670969.09447  21654939.999    21654940.5144   21654942.8814
        46.3004         43.5004
  -7035326.14345  -5465216.44946  23093822.489    23093822.2014   23093823.1034
        43.6004         40.9004
  -5752809.14743  -4463488.44546  24293237.869    24293238.1614   24293242.1964
        38.3004         36.0004
  -6948041.75045  -5392343.40046  22426374.044    22426374.5944   22426379.4984
        44.1004         41.2004
  -3434021.44745  -2664812.81947  22339713.115    22339713.1994   22339714.4714
        45.3004         42.5004
 19 10 19  0 20  0.0000000  0  9G25G24G29G14G12G02G06G32G31
 -20376911.90547 -15855204.50047  20077055.463    20077055.2604   20077061.1244
        50.8004         47.8004
    859600.95544    696240.22846  24012826.546    24012826.8634   24012833.0804
        42.0004         39.3004
 -19978368.24546 -15544671.68247  21210123.744    21210124.0944   21210126.9054
        47.9004         44.9004
  -9731015.84644  -7568746.42846  22396909.112    22396908.4694   22396911.3844
        43.4004         40.7004
 -13648335.96845 -10612182.04247  21669296.921    21669296.7424   21669298.4834
        46.2004         43.2004
  -7037412.59445  -5466842.24446  23093426.202    23093425.3464   23093426.3764
        43.6004         40.7004
  -5695574.88643  -4418890.32346  24304129.653    24304130.1154   24304133.8224
        38.3004         36.0004
  -6886258.80545  -5344200.86646  22438131.357    22438132.2454   22438136.1484
        44.2004         41.4004
  -3514360.12645  -2727414.38447  22324425.462    22324425.4964   22324426.3864
        45.5004         42.8004
 19 10 19  0 20 30.0000000  0  9G25G24G29G14G12G02G06G32G31
 -20375796.05747 -15854335.01047  20077268.326    20077267.9244   20077273.3574
        50.8004         47.8004
    967830.28744    780574.77046  24033422.164    24033422.9944   24033428.8304
        42.0004         39.5004
 -20051467.05246 -15601631.77447  21196213.941    21196213.4854   21196216.4634
        47.7004         44.9004
  -9728825.86544  -7567039.98146  22397325.768    22397325.4234   22397327.7974
        43.2004         40.2004
 -13572669.06645 -10553220.83647  21683695.715    21683695.3764   21683697.7574
        46.0004         43.2004
  -7038981.87645  -5468065.03646  23093127.680    23093126.7744   23093128.4424
        43.6004         40.9004
  -5637842.93043  -4373904.39446  24315116.103    24315116.4274   24315120.2394
        38.3004         36.2004
  -6824014.19245  -5295698.60246  22449975.854    22449975.8124   22449980.7924
        44.1004         40.9004
  -3594404.30045  -2789786.47447  22309193.543    22309193.4084   22309195.0754
        45.5004         42.6004
 19 10 19  0 21  0.0000000  0  9G25G24G29G14G12G02G06G32G31
 -20374287.24747 -15853159.31647  20077555.212    20077554.9354   20077560.4764
        50.8004         47.8004
   1076185.52444    865007.40946  24054043.105    24054043.1824   24054047.2624
        42.0004         39.3004
 -20124123.98946 -15658247.56347  21182387.504    21182387.8284   21182390.1954
        47.9004         45.1004
  -9726057.96544  -7564883.17946  22397852.912    22397851.8604   22397854.4684
        42.9004         39.9004
 -13496779.80045 -10494086.36047  21698136.852    21698137.4274   21698138.5994
        46.0004         43.2004
  -7040033.71445  -5468884.65646  23092925.393    23092925.7414   23092927.8964
        43.6004         40.7004
  -5579615.11643  -4328532.06546  24326196.347    24326196.6654   24326200.7354
        38.5004         36.0004
  -6761310.46845  -5246838.57846  22461907.987    22461908.6964   22461912.6114
        43.7004         41.1004
  -3674151.27045  -2851926.96447  22294018.235    22294017.3754   22294019.1944
        45.5004         42.3004
 19 10 19  0 21 30.0000000  0  9G25G24G29G14G12G02G06G32G31
 -20372385.62947 -15851677.53948  20077917.315    20077917.0294   20077922.3674
        50.8004         48.0004
   1184665.19644    949537.04146  24074686.292    24074685.7414   24074689.9744
        41.8004         39.0004
 -20196337.48846 -15714517.79647  21168646.208    21168646.0634   21168648.1394
        47.9004         44.9004
  -9722712.35244  -7562276.19846  22398489.609    22398488.9544   22398490.6894
        42.3004         39.5004
 -13420669.50245 -10434779.65347  21712619.359    21712620.1434   21712622.2654
        45.8004         43.0004
  -7040567.57645  -5469300.62846  23092825.312    23092824.4484   23092825.8704
        43.6004         40.7004
  -5520893.46643  -4282774.92146  24337371.112    24337370.5464   24337375.1404
        38.5004         36.2004
  -6698150.05645  -5197622.69746  22473927.523    22473927.5164   22473932.2414
        44.1004         41.4004
  -3753598.58845  -2913833.95647  22278899.749    22278899.9894   22278900.9694
        45.3004         42.5004
 19 10 19  0 22  0.0000000  0  9G25G24G29G14G12G02G06G32G31
 -20370091.39847 -15849889.83847  20078354.231    20078353.6984   20078358.7304
        50.8004         47.8004
   1293267.33744   1034162.08646  24095351.723    24095351.7974   24095355.7944
        41.6004         38.6004
 -20268106.22346 -15770441.46847  21154988.745    21154988.3844   21154991.6514
        47.9004         45.1004
  -9718789.44444  -7559219.40446  22399235.748    22399235.7894   22399237.0824
        42.2004         39.5004
 -13344339.55545 -10375301.79147  21727145.577    21727144.9194   21727147.3544
        45.8004         42.8004
  -7040584.09044  -5469313.49046  23092820.992    23092820.6134   23092822.1424
        43.4004         40.7004
  -5461679.92543  -4236634.52746  24348638.012    24348638.0154   24348640.7874
        38.5004         36.2004
  -6634535.47045  -5148052.90346  22486032.857    22486033.5734   22486037.7974
        44.1004         41.1004
  -3832744.92345  -2975506.42747  22263838.554    22263839.4194   22263840.4014
        45.3004         42.5004
 19 10 19  0 22 30.0000000  0  9G25G24G29G14G12G02G06G32G31
 -20367404.76647 -15847796.36647  20078864.978    20078864.6514   20078870.0404
        50.8004         47.8004
   1401990.14944   1118881.17446  24116039.166    24116039.5974   24116046.3484
        41.3004         38.5004
 -20339428.25346 -15826017.06447  21141416.204    21141416.4974   21141419.3274
        47.9004         45.1004
  -9714288.95244  -7555712.52546  22400091.826    22400091.1284   22400094.5634
        42.3004         39.9004
 -13267789.98045 -10315652.78547  21741712.375    21741712.8024   21741713.9724
        45.8004         43.0004
  -7040082.60844  -5468922.70746  23092917.427    23092916.7814   23092918.7574
        43.4004         40.7004
  -5401976.42343  -4190112.31046  24360000.394    24360001.0614   24360003.0884
        38.7004         36.4004
  -6570469.31545  -5098131.23546  22498223.938    22498224.3594   22498229.5224
        43.9004         40.9004
  -3911587.64545  -3036942.30047  22248836.074    22248835.6504   22248836.8814
        45.3004         42.6004
 19 10 19  0 23  0.0000000  0  9G25G24G29G14G12G02G06G32G31
 -20364325.87347 -15845397.24747  20079451.108    20079450.5454   20079455.8054
        50.8004         47.8004
   1510832.08444   1203693.07346  24136750.738    24136752.1774   24136756.7694
        40.9004         38.1004
 -20410302.40946 -15881243.65847  21127929.928    21127929.8744   21127933.0514
        48.1004         45.2004
  -9709211.66844  -7551756.22446  22401057.931    22401057.6744   22401060.2744
        42.5004         40.0004
 -13191022.72845 -10255834.16847  21756321.680    21756321.0354   21756322.5924
        45.8004         43.0004
  -7039063.03344  -5468128.22146  23093112.036    23093110.8834   23093112.2324
        43.4004         40.7004
  -5341785.01943  -4143209.92246  24371453.519    24371453.2514   24371457.4604
        38.9004         36.6004
  -6505954.06245  -5047859.64846  22510501.128    22510501.4474   22510506.1464
        43.9004         41.2004
  -3990124.86445  -3098140.11947  22233890.476    22233890.8334   22233891.5724
        45.5004         42.8004
 19 10 19  0 23 30.0000000  0  9G25G24G29G14G12G02G06G32G31
 -20360854.90947 -15842692.60847  20080111.578    20080111.3374   20080116.5284
        50.8004         47.8004
   1619790.87444   1288596.05246  24157487.146    24157487.2434   24157491.9344
        40.6004         37.8004
 -20480727.27846 -15936120.14547  21114528.517    21114528.6614   21114530.8064
        48.1004         45.2004
  -9703558.24944  -7547350.98546  22402133.992    22402133.5574   22402135.9844
        42.7004         40.0004
 -13114038.62845 -10195846.59647  21770970.618    21770970.7804   21770971.9524
        45.8004         42.8004
  -7037524.95945  -5466929.70946  23093405.027    23093403.7644   23093405.2624
        43.6004         40.7004
  -5281107.74343  -4095928.93746  24383000.698    24383000.1884   24383005.0244
        38.9004         36.4004
  -6440992.35745  -4997240.16146  22522863.223    22522863.3524   22522868.2044
        44.1004         41.1004
  -4068354.23445  -3159098.06947  22219003.591    22219003.4924   22219005.4314
        45.5004         42.6004
 19 10 19  0 24  0.0000000  0  9G25G24G29G14G12G02G06G32G31
 -20356992.06447 -15839682.61747  20080846.637    20080846.3594   20080851.6324
        50.8004         47.8004
   1728865.18543   1373589.01146  24178244.173    24178241.7644   24178248.1714
        40.1004         37.3004
 -20550701.43046 -15990645.42547  21101213.342    21101212.9314   21101214.7304
        48.2004         45.2004
  -9697328.49444  -7542496.65746  22403319.476    22403319.2894   22403320.6144
        42.5004         39.7004
 -13036839.06945 -10135691.09547  21785660.559    21785660.6494   21785662.8394
        45.8004         42.8004
  -7035468.43245  -5465327.21746  23093795.478    23093795.5344   23093797.1054
        43.7004         40.9004
  -5219946.54443  -4048270.87546  24394636.368    24394638.0354   24394643.4484
        38.7004         36.4004
  -6375586.74445  -4946274.75346  22535308.852    22535309.2784   22535313.2364
        43.9004         40.9004
  -4146273.46445  -3219814.34647  22204176.140    22204176.2474   22204177.6854
        45.5004         42.8004
 19 10 19  0 24 30.0000000  0  9G25G24G29G14G12G02G06G32G31
 -20352737.53647 -15836367.40847  20081656.422    20081656.0104   20081661.1954
        50.8004         47.8004
   1838053.69943   1458670.98246  24199022.811    24199020.9664   24199026.3814
        39.9004         37.6004
 -20620222.97646 -16044818.03647  21087983.914    21087983.5504   21087985.7784
        48.2004         45.4004
  -9690523.23144  -7537193.86146  22404614.715    22404614.2824   22404616.5464
        42.3004         39.5004
 -12959425.15245 -10075368.59047  21800391.163    21800391.3294   21800394.9094
        45.6004         42.6004
  -7032893.50145  -5463320.76046  23094285.029    23094285.6294   23094287.2224
        43.6004         40.7004
  -5158303.49243  -4000237.35146  24406368.690    24406367.9874   24406373.5674
        38.5004         36.2004
  -6309739.75645  -4894965.44446  22547839.760    22547840.5984   22547844.5314
        43.9004         41.1004
  -4223880.81045  -3280287.61847  22189408.675    22189408.2734   22189409.5564
        45.8004         43.0004
 19 10 19  0 25  0.0000000  0  9G25G24G29G14G12G02G06G32G31
 -20348091.53147 -15832747.15247  20082540.214    20082539.8894   20082545.3544
        50.8004         47.8004
   1947353.96643   1543839.99646  24219820.491    24219821.1654   24219825.5834
        39.9004         37.4004
 -20689290.95446 -16098637.23447  21074840.195    21074840.3414   21074842.4304
        48.2004         45.2004
  -9683142.54744  -7531442.67646  22406018.525    22406019.0624   22406020.5864
        42.2004         39.3004
 -12881797.44545 -10014879.49747  21815164.252    21815163.9084   21815166.6674
        45.6004         42.8004
  -7029799.87245  -5460910.13646  23094874.424    23094873.5644   23094875.6894
        43.7004         40.9004
  -5096180.62343  -3951829.89446  24418188.794    24418189.0144   24418193.8514
        38.5004         36.2004
  -6243454.08645  -4843314.29246  22560453.311    22560453.5124   22560457.9834
        43.7004         40.9004
  -4301174.17145  -3340516.19947  22174699.639    22174699.6764   22174701.4104
        46.0004         43.0004
 19 10 19  0 25 30.0000000  0  9G25G24G29G14G12G02G06G32G31
 -20343054.23947 -15828821.99747  20083499.197    20083498.5664   20083503.9764
        50.8004         47.8004
   2056764.87943   1629095.30746  24240637.341    24240639.8044   24240645.9054
        39.7004         37.1004
 -20757903.81646 -16152101.79247  21061783.440    21061783.6654   21061785.6724
        48.2004         45.1004
  -9675186.95744  -7525243.55046  22407533.090    22407532.7644   22407535.1044
        42.2004         39.5004
 -12803957.22445  -9954224.79247  21829976.979    21829976.7094   21829978.9544
        45.6004         43.0004
  -7026187.38945  -5458095.20046  23095561.697    23095560.4394   23095563.0874
        43.6004         40.7004
  -5033579.95843  -3903050.15446  24430102.048    24430102.4134   24430107.4604
        38.5004         36.2004
  -6176732.33445  -4791323.30746  22573149.470    22573149.8694   22573155.3474
        43.6004         40.6004
  -4378151.10945  -3400498.22347  22160051.380    22160051.4194   22160052.6994
        45.8004         43.0004
 19 10 19  0 26  0.0000000  0  9G25G24G29G14G12G02G06G32G31
 -20337625.87647 -15824592.10347  20084531.884    20084531.5284   20084537.0394
        51.0004         47.8004
   2166284.19043   1714435.00446  24261476.364    24261480.4224   24261486.5514
        39.6004         37.1004
 -20826060.00046 -16205210.49447  21048813.303    21048813.2604   21048816.1154
        48.1004         45.1004
  -9666656.99244  -7518596.83846  22409156.470    22409155.6984   22409158.7544
        42.3004         39.9004
 -12725905.75345  -9893405.48247  21844829.558    21844829.9704   21844832.1254
        45.6004         42.8004
  -7022056.16244  -5454876.03546  23096346.346    23096346.5844   23096348.1964
        43.4004         40.6004
  -4970503.72143  -3853899.82546  24442105.575    24442105.5484   24442110.6204
        38.3004         36.0004
  -6109577.04844  -4738994.53846  22585929.184    22585930.0084   22585933.2084
        43.4004         40.4004
  -4454809.64045  -3460232.15147  22145464.263    22145464.3464   22145464.4414
        45.6004         42.6004
 19 10 19  0 26 30.0000000  0  9G25G24G29G14G12G02G06G32G31
 -20331806.66247 -15820057.65948  20085639.134    20085638.9954   20085644.2244
        51.0004         48.0004
   2275910.19343   1799857.88846  24282336.685    24282340.9724   24282346.8864
        39.4004         36.7004
 -20893758.28746 -16257962.39947  21035931.021    21035930.9264   21035933.5634
        47.9004         45.1004
  -9657553.21044  -7511502.99246  22410888.198    22410887.9904   22410891.0104
        42.7004         40.0004
 -12647644.42145  -9832422.64347  21859722.341    21859722.2544   21859724.5614
        45.6004         42.8004
  -7017406.31644  -5451252.76746  23097231.814    23097231.7664   23097233.0864
        43.4004         40.7004
  -4906953.90843  -3804380.45145  24454197.508    24454197.3594   24454205.5204
        38.2004         35.9004
  -6041990.93944  -4686330.07446  22598789.484    22598790.3964   22598794.8584
        43.2004         40.2004
  -4531147.60845  -3519716.27847  22130937.401    22130937.3804   22130938.4554
        45.6004         42.6004
 19 10 19  0 27  0.0000000  0  9G25G24G29G14G12G02G06G32G31
 -20325596.81047 -15815218.81548  20086820.802    20086820.6314   20086826.1644
        51.0004         48.0004
   2385641.49743   1885362.78246  24303223.260    24303222.5274   24303228.2854
        39.2004         36.9004
 -20960997.10146 -16310356.28247  21023135.539    21023136.1214   21023138.8654
        47.9004         45.2004
  -9647875.95144  -7503962.29546  22412730.571    22412729.9694   22412733.2064
        42.9004         40.4004
 -12569173.46645  -9771276.47347  21874654.859    21874654.6794   21874657.2524
        45.6004         42.8004
  -7012237.51244  -5447225.12346  23098215.673    23098215.1934   23098217.0114
        43.4004         40.7004
  -4842932.62143  -3754493.74445  24466381.883    24466381.5424   24466387.2424
        38.0004         35.9004
  -5973976.69344  -4633331.96546  22611732.963    22611733.0734   22611738.5194
        43.2004         40.7004
  -4607162.84645  -3578948.94247  22116471.399    22116471.8634   22116473.0154
        45.6004         42.8004
 19 10 19  0 27 30.0000000  0  9G25G24G29G14G12G02G06G32G31
 -20318996.51147 -15810075.73047  20088077.192    20088076.6984   20088082.1004
        51.0004         47.8004
   2495476.02543   1970948.10346  24324129.146    24324123.1314   24324129.6354
        39.2004         36.7004
 -21027775.26646 -16362391.20947  21010428.554    21010428.7144   21010431.5114
        48.1004         45.4004
  -9637625.98144  -7495975.31546  22414680.802    22414680.0984   22414682.4234
        42.9004         40.0004
 -12490494.60145  -9709968.28747  21889626.143    21889626.5854   21889629.3494
        45.5004         42.6004
  -7006549.97744  -5442793.27646  23099299.068    23099298.4554   23099298.8784
        43.4004         40.7004
  -4778441.99843  -3704241.30745  24478654.099    24478654.4294   24478657.2244
        38.2004         35.9004
  -5905536.90345  -4580002.27646  22624756.565    22624757.4314   22624761.9684
        43.6004         40.9004
  -4682853.23245  -3637928.47347  22102068.681    22102068.5454   22102070.7094
        45.8004         43.2004
 19 10 19  0 28  0.0000000  0  9G25G24G29G14G12G02G06G32G31
 -20312006.03547 -15804628.60648  20089407.429    20089406.9924   20089412.4384
        51.0004         48.0004
   2605412.28243   2056612.71046  24345049.580    24345045.5904   24345049.5254
        39.4004         36.9004
 -21094091.26346 -16414066.00047  20997809.380    20997809.1764   20997811.6544
        48.2004         45.2004
  -9626803.56944  -7487542.27646  22416740.292    22416740.0694   22416741.4434
        42.9004         40.2004
 -12411608.95245  -9648498.98047  21904638.184    21904638.2994   21904640.8064
        45.5004         42.5004
  -7000343.81245  -5437957.27646  23100480.154    23100479.3324   23100479.7004
        43.6004         40.9004
  -4713484.19043  -3653624.80246  24491014.224    24491015.2714   24491019.9494
        38.3004         36.2004
  -5836674.30244  -4526343.13346  22637860.709    22637860.2214   22637865.4294
        43.4004         40.0004
  -4758216.57345  -3696653.14447  22087727.555    22087727.8924   22087729.0674
        46.2004         43.3004
 19 10 19  0 28 30.0000000  0  9G25G24G29G14G12G02G06G32G31
 -20304625.57347 -15798877.59848  20090811.900    20090811.4724   20090816.7814
        51.0004         48.0004
   2715448.42643   2142355.16546  24365984.048    24365982.6234   24365989.5804
        39.2004         36.6004
 -21159943.80246 -16465379.66147  20985277.512    20985277.7434   20985280.1984
        48.2004         45.6004
  -9615409.66044  -7478663.91246  22418908.711    22418907.9904   22418910.2714
        42.9004         40.2004
 -12332517.15345  -9586869.02847  21919688.914    21919689.3974   21919691.2564
        45.5004         42.8004
  -6993618.83445  -5432717.02846  23101759.474    23101758.8734   23101759.5974
        43.7004         40.9004
  -4648061.40243  -3602646.01646  24503465.699    24503465.1524   24503469.8674
        39.0004         36.7004
  -5767391.55044  -4472356.59246  22651044.665    22651046.2084   22651050.0084
        43.0004         40.0004
  -4833250.87345  -3755121.42547  22073448.570    22073448.6024   22073450.2704
        46.0004         43.0004
 19 10 19  0 29  0.0000000  0  9G25G24G29G14G12G02G06G32G31
 -20296855.37547 -15792822.90248  20092290.383    20092289.9924   20092295.4514
        51.0004         48.0004
   2825582.91843   2228174.27246  24386940.042    24386940.4804   24386946.4434
        39.0004         36.6004
 -21225331.70946 -16516331.26247  20972834.215    20972834.5534   20972837.3554
        48.4004         45.6004
  -9603444.74444  -7469340.62046  22421185.429    22421185.3114   22421186.2664
        42.7004         40.0004
 -12253220.25445  -9525079.25647  21934778.202    21934778.1954   21934781.0224
        45.5004         42.5004
  -6986375.25345  -5427072.66746  23103138.012    23103137.8334   23103138.4564
        43.6004         40.7004
  -4582175.77343  -3551306.56346  24516002.001    24516001.5404   24516006.1174
        39.2004         36.7004
  -5697691.33344  -4418044.75146  22664308.109    22664308.8384   22664312.5854
        43.0004         40.4004
  -4907953.55945  -3813331.30247  22059232.642    22059233.2844   22059234.5144
        46.0004         43.2004
 19 10 19  0 29 30.0000000  0  9G25G24G29G14G12G02G06G32G31
 -20288695.67547 -15786464.70248  20093842.951    20093842.5714   20093848.3054
        51.0004         48.0004
   2935813.62043   2314068.30746  24407916.833    24407917.0294   24407922.9984
        38.9004         36.6004
 -21290253.55146 -16566919.70647  20960480.843    20960480.8064   20960483.1094
        48.4004         45.6004
  -9590909.12944  -7459572.64346  22423571.116    22423570.8654   22423571.9224
        42.7004         39.7004
 -12173719.66845  -9463130.77247  21949907.884    21949907.1574   21949910.1764
        45.5004         42.6004
  -6978613.30645  -5421024.37746  23104613.921    23104614.0924   23104615.6454
        43.6004         40.9004
  -4515829.42443  -3499608.09546  24528626.742    24528627.5384   24528632.8734
        39.2004         36.9004
  -5627576.42544  -4363409.77146  22677651.352    22677651.4474   22677655.1604
        43.0004         40.2004
  -4982322.87745  -3871281.41047  22045080.822    22045080.8504   22045082.4674
        46.0004         43.0004
 19 10 19  0 30  0.0000000  0  9G25G24G29G14G12G02G06G32G31
 -20280146.70147 -15779803.16947  20095469.805    20095469.6664   20095474.6144
        51.0004         47.8004
   3046139.19243   2400036.29846  24428914.938    24428912.0184   24428917.5584
        38.9004         36.4004
 -21354708.15846 -16617144.06247  20948215.768    20948215.4524   20948217.9454
        48.4004         45.6004
  -9577803.83344  -7449360.75246  22426064.690    22426064.5354   22426066.5294
        42.5004         39.7004
 -12094016.29845  -9401024.26247  21965074.233    21965074.4744   21965076.5634
        45.3004         42.5004
  -6970333.12145  -5414572.27246  23106189.012    23106188.9464   23106190.8904
        43.6004         40.6004
  -4449024.56843  -3447552.36546  24541340.598    24541340.9914   24541345.1654
        39.4004         37.1004
  -5557049.52344  -4308453.75346  22691071.442    22691071.7784   22691077.4224
        43.0004         40.4004
  -5056356.53045  -3928969.97447  22030992.470    22030993.5494   22030994.5744
        45.8004         42.8004
 19 10 19  0 30 30.0000000  0  9G25G24G29G14G12G02G06G32G31
 -20271208.70247 -15772838.50148  20097170.879    20097170.7414   20097175.8444
        51.0004         48.0004
   3156557.32043   2486076.37946  24449928.559    24449923.4594   24449929.8434
        38.5004         36.0004
 -21418693.68246 -16667002.91847  20936039.198    20936039.0444   20936041.8804
        48.4004         45.4004
  -9564129.40744  -7438705.37146  22428666.704    22428666.3514   22428668.6654
        42.3004         39.5004
 -12014111.17645  -9338760.55947  21980280.443    21980280.5814   21980282.0394
        45.5004         42.6004
  -6961534.61645  -5407716.26746  23107865.098    23107863.9524   23107864.9634
        43.6004         40.9004
  -4381763.45943  -3395141.10346  24554139.400    24554139.5304   24554143.9824
        39.7004         37.3004
  -5486113.36344  -4253178.84746  22704571.063    22704571.1204   22704575.8214
        43.2004         40.6004
  -5130052.87345  -3986395.69347  22016969.578    22016969.4894   22016971.3404
        45.8004         43.0004
 19 10 19  0 31  0.0000000  0  9G25G24G29G14G12G02G06G32G31
 -20261881.92347 -15765570.88047  20098945.479    20098945.1824   20098950.3824
        51.0004         47.8004
   3267066.66543   2572187.56245  24470953.557    24470952.7434   24470957.5444
        38.2004         35.7004
 -21482209.48946 -16716495.75647  20923952.280    20923952.3604   20923954.7334
        48.2004         45.2004
  -9549886.68144  -7427607.14046  22431377.305    22431376.6564   22431378.9744
        42.3004         39.7004
 -11934005.38845  -9276340.49047  21995524.596    21995523.8874   21995525.7674
        45.5004         42.6004
  -6952217.64245  -5400456.26646  23109638.092    23109637.7144   23109637.8324
        43.7004         40.9004
  -4314048.24643  -3342375.98446  24567025.317    24567025.7494   24567030.8784
        39.2004         36.6004
  -5414770.69144  -4197587.18246  22718145.384    22718145.9194   22718152.3564
        43.4004         40.4004
  -5203409.49245  -4043556.68747  22003010.058    22003009.8734   22003011.3294
        45.8004         43.0004
 19 10 19  0 31 30.0000000  0  9G25G24G29G14G12G02G06G32G31
 -20252166.61847 -15758000.51648  20100794.565    20100794.1114   20100799.4514
        51.0004         48.0004
   3377665.83843   2658368.77145  24491992.848    24491997.9694   24492004.4424
        37.8004         35.3004
 -21545254.03946 -16765621.37747  20911955.257    20911955.4484   20911958.0284
        48.2004         45.2004
  -9535076.10444  -7416066.42046  22434195.900    22434194.9924   22434197.4714
        42.5004         40.0004
 -11853700.20045  -9213765.03547  22010804.874    22010804.9714   22010807.3664
        45.3004         42.3004
  -6942383.00645  -5392792.90446  23111508.805    23111508.2184   23111509.3184
        43.7004         40.9004
  -4245881.22643  -3289258.82346  24579997.255    24579997.0214   24580001.4464
        39.0004         36.6004
  -5343024.26244  -4141680.90346  22731798.977    22731799.3924   22731804.7054
        43.0004         40.2004
  -5276424.11145  -4100451.20647  21989115.950    21989116.4244   21989116.7634
        46.0004         43.2004
 19 10 19  0 32  0.0000000  0  9G25G24G29G14G12G02G06G32G31
 -20242063.05647 -15750127.61047  20102716.871    20102716.5584   20102721.9604
        51.0004         47.8004
   3488352.42343   2744618.05845  24513059.137    24513060.7504   24513066.1444
        37.6004         35.7004
 -21607826.30846 -16814378.98147  20900048.552    20900048.3384   20900051.1014
        48.2004         45.4004
  -9519698.69144  -7404084.02346  22437121.713    22437120.9784   22437123.2874
        42.7004         40.2004
 -11773196.37045  -9151034.80447  22026124.299    22026125.1994   22026127.0094
        45.1004         42.3004
  -6932030.69445  -5384726.15346  23113478.938    23113478.6184   23113479.4454
        43.6004         40.7004
  -4177264.60743  -3235791.33746  24593054.394    24593055.0384   24593059.5054
        39.0004         36.7004
  -5270876.85944  -4085462.18046  22745528.630    22745528.6924   22745533.6294
        42.9004         39.9004
  -5349094.44745  -4157077.44447  21975287.046    21975287.2784   21975288.6774
        46.0004         43.0004
 19 10 19  0 32 30.0000000  0  9G25G24G29G14G12G02G06G32G31
 -20231571.44847 -15741952.33347  20104713.419    20104712.9164   20104718.2844
        51.0004         47.8004
   3599125.09442   2830934.40145  24534141.876    24534139.5244   24534145.9024
        37.5004         35.2004
 -21669924.84946 -16862767.43747  20888231.325    20888231.4074   20888233.8004
        48.2004         45.4004
  -9503755.10544  -7391660.46946  22440155.750    22440155.2094   22440157.9714
        42.7004         39.7004
 -11692495.01345  -9088150.65447  22041481.205    22041481.4514   22041483.9024
        45.1004         42.3004
  -6921160.86245  -5376256.13546  23115548.179    23115546.9214   23115547.8464
        43.6004         40.7004
  -4108200.64843  -3181975.29646  24606195.753    24606196.8214   24606201.6504
        38.7004         36.4004
  -5198331.26944  -4028933.17546  22759332.920    22759333.6824   22759339.3654
        42.7004         40.0004
  -5421418.19945  -4213433.62447  21961524.538    21961524.5594   21961525.3674
        46.0004         43.0004
 19 10 19  0 33  0.0000000  0  9G25G24G29G14G12G02G06G32G31
 -20220692.08947 -15733474.91847  20106784.117    20106783.4384   20106788.4164
        51.0004         47.8004
   3709981.73642   2917316.17745  24555237.520    24555235.6114   24555241.1014
        37.3004         35.2004
 -21731548.54546 -16910785.88947  20876504.579    20876504.5464   20876507.2934
        48.4004         45.4004
  -9487246.18044  -7378796.37946  22443296.650    22443295.5664   22443299.1554
        42.3004         39.2004
 -11611596.92545  -9025113.21847  22056876.819    22056877.2184   22056879.0254
        45.1004         42.1004
  -6909773.77144  -5367383.07846  23117713.810    23117713.1574   23117715.0834
        43.4004         40.6004
  -4038691.65443  -3127812.41746  24619424.528    24619424.2344   24619427.5394
        38.7004         36.4004
  -5125390.28244  -3972096.05246  22773214.020    22773214.7064   22773217.9834
        42.5004         39.9004
  -5493394.05445  -4269518.68847  21947827.327    21947827.9984   21947828.4194
        45.8004         43.0004
 19 10 19  0 33 30.0000000  0  9G25G24G29G14G12G02G06G32G31
 -20209425.25847 -15724695.56647  20108927.587    20108927.0774   20108932.7354
        51.0004         47.8004
   3820921.13642   3003762.45345  24576348.201    24576347.1964   24576351.9794
        37.5004         35.5004
 -21792696.30246 -16958433.48147  20864868.913    20864868.8524   20864871.2654
        48.4004         45.6004
  -9470172.83344  -7365492.50346  22446545.539    22446545.2844   22446548.4794
        42.0004         39.2004
 -11530503.62345  -8961923.64347  22072307.039    22072306.9854   22072309.4014
        44.9004         42.1004
  -6897869.68144  -5358107.14146  23119977.966    23119977.7234   23119980.3594
        43.4004         40.6004
  -3968739.81943  -3073304.47546  24632735.859    24632735.2994   24632738.5254
        38.5004         36.2004
  -5052056.72244  -3914953.02446  22787169.232    22787168.8494   22787173.4244
        42.5004         39.7004
  -5565019.23745  -4325330.52447  21934198.066    21934197.9384   21934199.4964
        46.0004         43.2004
 19 10 19  0 34  0.0000000  0  9G25G24G29G14G12G02G06G32G31
 -20197771.20447 -15715614.49848  20111145.689    20111145.1094   20111150.3184
        51.0004         48.0004
   3931940.81843   3090271.29145  24597472.012    24597474.0054   24597479.7614
        37.6004         35.5004
 -21853366.65046 -17005709.06847  20853323.356    20853323.5804   20853326.0074
        48.6004         45.6004
  -9452535.58644  -7351749.22746  22449902.249    22449902.3784   22449902.9404
        41.8004         39.3004
 -11449215.82545  -8898582.52247  22087776.680    22087776.7334   22087778.9514
        44.9004         42.1004
  -6885448.67344  -5348428.43746  23122342.831    23122342.5484   23122343.1104
        43.2004         40.6004
  -3898347.53643  -3018453.32146  24646130.700    24646131.1314   24646135.4224
        38.9004         36.7004
  -4978333.35244  -3857506.26146  22801197.142    22801198.0694   22801203.4974
        42.5004         39.9004
  -5636291.93045  -4380867.69047  21920635.037    21920635.3194   21920636.6824
        46.0004         43.2004
 19 10 19  0 34 30.0000000  0  9G25G24G29G14G12G02G06G32G31
 -20185730.18147 -15706231.88748  20113436.976    20113436.7944   20113441.8074
        51.0004         48.0004
   4043039.70743   3176841.88245  24618613.237    24618614.6674   24618619.8864
        37.6004         35.5004
 -21913558.62946 -17052611.90047  20841869.239    20841869.3294   20841872.3684
        48.6004         45.6004
  -9434335.60944  -7337567.44146  22453365.875    22453365.5854   22453367.8354
        42.2004         39.7004
 -11367734.52645  -8835090.62647  22103280.915    22103281.7734   22103283.9944
        44.8004         42.1004
  -6872511.03944  -5338347.13646  23124805.171    23124803.5084   23124804.6984
        43.2004         40.4004
  -3827517.05243  -2963260.73545  24659608.059    24659608.9854   24659612.1414
        38.5004         35.9004
  -4904223.04644  -3799757.97946  22815300.358    22815300.8774   22815305.4854
        42.7004         40.2004
  -5707210.04245  -4436128.55447  21907139.794    21907139.6554   21907140.9334
        46.0004         43.0004
 19 10 19  0 35  0.0000000  0  9G25G24G29G14G12G02G06G32G31
 -20173302.50547 -15696547.98547  20115801.355    20115801.1004   20115806.4134
        51.0004         47.8004
   4154215.89443   3263472.66646  24639772.880    24639770.6844   24639778.0364
        38.2004         36.0004
 -21973271.06046 -17099141.05347  20830506.373    20830505.9714   20830509.2574
        48.4004         45.6004
  -9415573.74344  -7322947.81146  22456936.594    22456935.7654   22456938.0844
        42.7004         40.0004
 -11286060.78945  -8771448.77946  22118823.952    22118823.1344   22118825.0924
        44.8004         41.8004
  -6859057.51444  -5327863.86646  23127364.419    23127364.4504   23127365.5174
        43.2004         40.4004
  -3756250.69143  -2907728.48546  24673170.828    24673171.3134   24673174.1004
        38.5004         36.0004
  -4829728.58044  -3741710.34846  22829476.772    22829477.4884   22829481.2734
        42.9004         40.0004
  -5777771.15645  -4491111.23747  21893712.272    21893712.2294   21893713.8874
        46.0004         43.0004
 19 10 19  0 35 30.0000000  0  9G25G24G29G14G12G02G06G32G31
 -20160488.41947 -15686562.99248  20118240.373    20118239.8714   20118245.0804
        51.0004         48.0004
   4265467.62143   3350162.31745  24660947.290    24660942.7324   24660948.1644
        38.2004         35.9004
 -22032502.87946 -17145295.70147  20819234.893    20819235.2964   20819237.8354
        48.4004         45.8004
  -9396250.84944  -7307891.00646  22460613.149    22460612.5924   22460614.6784
        42.5004         39.5004
 -11204196.02845  -8707658.07946  22134402.468    22134402.6264   22134403.8354
        44.8004         41.9004
  -6845088.28744  -5316978.75946  23130023.726    23130023.0464   23130024.0594
        43.2004         40.7004
  -3684550.73343  -2851858.36546  24686816.349    24686815.5094   24686819.8934
        38.5004         36.2004
  -4754852.85244  -3683365.65246  22843724.796    22843725.8884   22843729.8154
        42.5004         39.7004
  -5847973.24845  -4545814.16847  21880352.866    21880353.3124   21880355.1594
        46.0004         43.0004
 19 10 19  0 36  0.0000000  0  9G25G24G29G14G12G02G06G32G31
 -20147288.24547 -15676277.14848  20120752.103    20120751.9274   20120756.9374
        51.0004         48.0004
   4376792.70143   3436909.12546  24682130.640    24682126.6254   24682131.9224
        38.2004         36.0004
 -22091252.93646 -17191074.96447  20808055.612    20808055.6654   20808057.8874
        48.6004         45.8004
  -9376367.72944  -7292397.69046  22464397.037    22464396.1494   22464398.1514
        42.2004         39.3004
 -11122140.71045  -8643718.89046  22150016.142    22150016.6724   22150018.7404
        44.6004         41.9004
  -6830603.65644  -5305692.02846  23132779.625    23132779.4304   23132780.9704
        43.4004         40.7004
  -3612419.62043  -2795652.31745  24700542.335    24700542.3754   24700546.3234
        38.3004         35.9004
  -4679598.68244  -3624726.05546  22858045.106    22858046.7734   22858051.1594
        42.3004         39.7004
  -5917814.33045  -4600235.78047  21867062.969    21867062.7844   21867064.5794
        46.0004         43.3004
 19 10 19  0 36 30.0000000  0  9G25G24G29G14G12G02G06G32G31
 -20133702.22247 -15665690.63848  20123337.116    20123337.0344   20123342.4434
        51.0004         48.0004
   4488189.89343   3523712.14246  24703326.379    24703323.9834   24703329.3664
        38.3004         36.0004
 -22149520.38546 -17236478.15447  20796968.182    20796967.3484   20796969.7564
        48.6004         45.8004
  -9355925.72544  -7276468.88146  22468286.758    22468286.4554   22468288.7384
        42.2004         39.5004
 -11039896.25345  -8579632.33146  22165667.144    22165666.9444   22165669.1664
        44.8004         41.8004
  -6815604.13045  -5294004.07346  23135634.088    23135633.7864   23135635.1054
        43.6004         40.7004
  -3539859.62943  -2739112.04746  24714348.791    24714349.0194   24714352.3854
        38.3004         36.2004
  -4603968.94644  -3565793.80946  22872437.004    22872437.5554   22872441.3574
        42.2004         39.3004
  -5987292.28945  -4654374.46147  21853842.053    21853842.0604   21853843.2834
        46.2004         43.5004
 19 10 19  0 37  0.0000000  0  9G25G24G29G14G12G02G06G32G31
 -20119730.65447 -15654803.70548  20125995.975    20125995.4764   20126001.3194
        51.0004         48.0004
   4599657.01643   3610569.62045  24724536.743    24724536.1814   24724541.9054
        37.8004         35.3004
 -22207303.69946 -17281504.09747  20785971.435    20785971.7564   20785974.3034
        48.6004         45.8004
  -9334925.47344  -7260105.08446  22472283.848    22472283.7974   22472284.6194
        42.5004         40.0004
 -10957463.30745  -8515398.87946  22181352.983    22181353.2904   22181355.3684
        44.6004         41.6004
  -6800089.70944  -5281914.91246  23138585.825    23138585.6004   23138586.5474
        43.4004         40.7004
  -3466873.11243  -2682239.43346  24728238.168    24728238.5354   24728243.4484
        38.5004         36.4004
  -4527966.49544  -3506571.13546  22886900.052    22886899.3004   22886904.9994
        41.8004         39.0004
  -6056404.74046  -4708228.32847  21840690.526    21840690.6924   21840691.7874
        46.5004         43.7004
 19 10 19  0 37 30.0000000  0  9G25G24G29G14G12G02G06G32G31
 -20105373.89347 -15643616.62848  20128728.617    20128727.7324   20128733.2164
        51.0004         48.0004
   4711192.59143   3697480.46645  24745760.405    24745759.6934   24745766.0624
        38.0004         35.9004
 -22264601.96946 -17326152.08947  20775068.147    20775068.1264   20775070.9034
        48.8004         45.8004
  -9313368.22544  -7243307.25846  22476385.388    22476384.4774   22476386.6444
        42.7004         39.9004
 -10874842.83345  -8451019.32946  22197076.460    22197076.2194   22197077.6964
        44.6004         41.8004
  -6784061.01744  -5269424.98746  23141636.670    23141636.1304   23141636.8624
        43.4004         40.7004
  -3393462.42743  -2625036.28346  24742208.567    24742207.7524   24742213.2284
        38.7004         36.6004
  -4451594.22344  -3447060.29446  22901433.186    22901432.8904   22901437.4544
        41.5004         38.6004
  -6125149.86646  -4761795.95047  21827608.196    21827608.7464   21827610.3814
        46.5004         43.9004
 19 10 19  0 38  0.0000000  0  9G25G24G29G14G12G02G06G32G31
 -20090632.19147 -15632129.58748  20131532.524    20131532.6854   20131538.4804
        51.0004         48.0004
   4822794.74543   3784443.19145  24767000.784    24766997.1994   24767003.8664
        38.2004         35.9004
 -22321413.82746 -17370421.04847  20764257.473    20764257.1334   20764259.4034
        48.8004         45.8004
  -9291254.79244  -7226076.01346  22480593.669    22480592.6874   22480595.5354
        42.7004         40.0004
 -10792036.35645  -8386494.81846  22212833.159    22212833.3854   22212835.8104
        44.4004         41.6004
  -6767518.42845  -5256534.65446  23144785.039    23144784.4304   23144785.5574
        43.6004         40.9004
  -3319630.03943  -2567504.54246  24756257.040    24756257.8744   24756262.4964
        38.7004         36.6004
  -4374854.99444  -3387263.51246  22916035.906    22916036.1864   22916041.0884
        41.3004         38.8004
  -6193525.47846  -4815075.64747  21814597.001    21814597.2734   21814598.3674
        46.5004         43.9004
 19 10 19  0 38 30.0000000  0  9G25G24G29G14G12G02G06G32G31
 -20075505.84447 -15620342.82548  20134411.535    20134411.1354   20134416.7574
        51.0004         48.0004
   4934461.83743   3871456.47345  24788248.801    24788246.4194   24788252.4744
        38.0004         35.7004
 -22377739.10946 -17414310.85747  20753538.373    20753538.5064   20753541.4084
        48.6004         45.8004
  -9268586.38744  -7208412.34246  22484907.710    22484906.7204   22484909.0414
        42.7004         39.9004
 -10709044.63745  -8321825.97246  22228625.073    22228625.9714   22228628.5734
        44.4004         41.6004
  -6750462.43645  -5243244.26246  23148030.194    23148029.2624   23148031.6584
        43.6004         40.7004
  -3245378.20543  -2509645.96245  24770386.906    24770387.5054   24770391.0484
        38.3004         35.9004
  -4297751.78044  -3327183.08846  22930707.949    22930709.0644   22930712.9154
        41.6004         39.0004
  -6261529.53946  -4868065.82247  21801656.496    21801656.8244   21801657.7534
        46.7004         43.7004
 19 10 19  0 39  0.0000000  0  9G25G24G29G14G12G02G06G32G31
 -20059995.17647 -15608256.59848  20137363.297    20137362.9964   20137368.2834
        51.0004         48.0004
   5046192.34443   3958519.21745  24809509.828    24809509.5594   24809513.5874
        38.0004         35.9004
 -22433576.04946 -17457820.14447  20742913.535    20742913.3664   20742915.8544
        48.6004         45.8004
  -9245364.05244  -7190317.02746  22489326.680    22489325.6474   22489327.5354
        42.3004         39.3004
 -10625868.46845  -8257013.40646  22244454.864    22244454.7934   22244456.7044
        44.4004         41.8004
  -6732893.52745  -5229554.18746  23151372.708    23151372.3704   23151375.0484
        43.6004         40.9004
  -3170709.43643  -2451462.52445  24784597.422    24784597.1654   24784599.8774
        37.8004         35.5004
  -4220287.43044  -3266821.25946  22945449.254    22945448.9804   22945455.6214
        41.8004         39.2004
  -6329159.96446  -4920764.84547  21788786.226    21788786.7734   21788788.2164
        46.5004         43.7004
 19 10 19  0 39 30.0000000  0  9G25G24G29G14G12G02G06G32G31
 -20044100.49147 -15595871.13648  20140387.544    20140387.6464   20140393.1554
        51.0004         48.2004
   5157983.76143   4045629.41645  24830782.333    24830781.3714   24830788.3014
        37.8004         35.5004
 -22488923.68546 -17500948.15347  20732381.142    20732380.7974   20732384.0254
        48.8004         45.9004
  -9221588.82444  -7171790.90746  22493850.819    22493850.9414   22493852.7464
        42.2004         39.5004
 -10542509.07845  -8192058.05046  22260316.094    22260316.8494   22260320.1484
        44.4004         41.6004
  -6714812.15944  -5215464.81546  23154814.106    23154812.8704   23154814.6224
        43.4004         40.4004
  -3095626.08043  -2392955.99245  24798884.460    24798884.4114   24798888.2584
        37.8004         35.7004
  -4142464.82544  -3206180.28946  22960258.111    22960259.1134   22960262.8074
        41.8004         38.8004
  -6396414.56246  -4973171.04147  21775988.497    21775988.9374   21775989.9694
        46.5004         43.5004
 19 10 19  0 40  0.0000000  0  9G25G24G29G14G12G02G06G32G31
 -20027822.11647 -15583186.69148  20143486.097    20143485.2694   20143490.6904
        51.0004         48.0004
   5269834.81843   4132786.04445  24852067.482    24852067.5124   24852071.0434
        37.8004         35.7004
 -22543781.32646 -17543694.35947  20721941.609    20721941.6464   20721944.5104
        48.8004         45.8004
  -9197261.84144  -7152834.83846  22498480.116    22498479.6044   22498481.7144
        42.2004         39.5004
 -10458967.41145  -8126960.66046  22276215.036    22276213.8614   22276217.1524
        44.6004         41.6004
  -6696218.92745  -5200976.56546  23158352.748    23158352.1534   23158352.8714
        43.6004         41.1004
  -3020130.61043  -2334128.32245  24813250.423    24813250.0984   24813256.0364
        37.8004         35.5004
  -4064286.96744  -3145262.50746  22975135.006    22975135.6804   22975140.3834
        41.6004         39.2004
  -6463291.24945  -5025282.74047  21763261.703    21763261.7544   21763263.3484
        46.3004         43.2004
 19 10 19  0 40 30.0000000  0  9G25G24G29G14G12G02G06G32G31
 -20011160.31447 -15570203.47248  20146655.986    20146655.9474   20146661.5654
        51.0004         48.2004
   5381743.61343   4219987.69045  24873363.472    24873362.5424   24873368.6724
        37.8004         35.7004
 -22598147.77646 -17586057.80947  20711595.796    20711595.9154   20711598.6664
        48.6004         45.8004
  -9172384.35144  -7133449.81146  22503213.305    22503212.8754   22503216.0694
        42.3004         39.7004
 -10375244.40645  -8061721.98246  22292146.383    22292146.2954   22292148.8744
        44.4004         41.4004
  -6677114.31545  -5186089.84946  23161987.097    23161987.0104   23161988.6214
        43.7004         40.9004
  -2944225.45443  -2274981.41245  24827694.464    24827693.6264   24827699.2944
        37.6004         35.3004
  -3985756.72344  -3084070.12446  22990078.281    22990078.5964   22990084.8134
        41.8004         39.2004
  -6529787.99645  -5077098.38247  21750608.012    21750608.2314   21750610.2064
        46.2004         43.3004
 19 10 19  0 41  0.0000000  0  9G25G24G29G14G12G02G06G32G31
 -19994115.45847 -15556921.77048  20149899.506    20149899.3114   20149905.1714
        51.0004         48.2004
   5493708.60542   4307233.11045  24894671.397    24894669.4594   24894674.0664
        37.5004         35.3004
 -22652022.03046 -17628037.73947  20701344.589    20701344.6534   20701346.6104
        48.8004         45.9004
  -9146957.40244  -7113636.61946  22508051.271    22508051.2854   22508055.3364
        42.3004         39.3004
 -10291341.53145  -7996343.15346  22308111.990    22308112.1544   22308115.2104
        44.2004         41.6004
  -6657499.15045  -5170805.30746  23165720.121    23165720.0264   23165720.2394
        43.7004         40.7004
  -2867912.92442  -2215517.07545  24842214.892    24842214.7654   24842220.5774
        37.3004         35.0004
  -3906877.05944  -3022605.47146  23005089.129    23005089.5934   23005094.0304
        42.0004         39.3004
  -6595902.64945  -5128616.30047  21738027.059    21738027.3664   21738028.3204
        46.2004         43.2004
 19 10 19  0 41 30.0000000  0  9G25G24G29G14G12G02G06G32G31
 -19976687.85247 -15543341.82548  20153216.167    20153215.7614   20153221.1534
        51.0004         48.0004
   5605728.26643   4394521.12845  24915989.667    24915985.8354   24915990.6284
        37.8004         35.5004
 -22705403.36946 -17669633.57547  20691186.921    20691186.8414   20691188.3934
        48.8004         45.9004
  -9120982.29044  -7093396.29346  22512994.857    22512994.4624   22512997.5644
        42.2004         39.3004
 -10207259.23445  -7930824.49846  22324113.044    22324112.2564   22324116.0714
        44.4004         41.6004
  -6637373.61445  -5155123.05946  23169550.998    23169550.3224   23169550.8724
        43.7004         40.9004
  -2791195.64142  -2155737.38745  24856815.234    24856813.9954   24856818.3864
        37.0004         34.8004
  -3827650.89244  -2960870.81846  23020165.165    23020165.2544   23020169.5554
        41.6004         38.8004
  -6661633.02845  -5179834.78247  21725518.871    21725519.4514   21725520.9164
        46.2004         43.7004
 19 10 19  0 42  0.0000000  0  9G25G24G29G14G12G02G06G32G31
 -19958877.84447 -15529463.90348  20156605.377    20156605.4194   20156610.4984
        51.0004         48.2004
   5717800.46543   4481850.11445  24937313.659    24937313.3504   24937317.0734
        37.6004         35.3004
 -22758290.65146 -17710844.43147  20681122.020    20681122.7254   20681124.7494
        48.9004         46.1004
  -9094460.13744  -7072729.71346  22518041.555    22518041.9234   22518044.9094
        42.2004         39.2004
 -10122998.35845  -7865166.69846  22340146.294    22340147.4794   22340150.0234
        44.2004         41.4004
  -6616738.47345  -5139043.71846  23173477.176    23173476.0584   23173477.6914
        43.6004         40.6004
  -2714075.95242  -2095644.10745  24871491.178    24871491.5244   24871496.1324
        36.8004         34.6004
  -3748081.21144  -2898868.48546  23035306.957    23035308.0304   23035311.1814
        41.3004         38.5004
  -6726977.26146  -5230752.36547  21713084.420    21713084.8964   21713086.7634
        46.5004         43.9004
 19 10 19  0 42 30.0000000  0  9G25G24G29G14G12G02G06G32G31
 -19940685.74947 -15515288.24448  20160066.698    20160066.8724   20160072.1344
        51.2004         48.2004
   5829923.07542   4569218.38445  24958646.665    24958646.3384   24958654.2504
        37.1004         34.8004
 -22810683.31646 -17751669.87647  20671152.429    20671152.5424   20671154.4494
        48.9004         46.1004
  -9067391.91744  -7051637.63546  22523193.408    22523191.8134   22523195.9204
        42.0004         39.3004
 -10038560.41245  -7799370.93346  22356215.108    22356214.9044   22356218.1584
        44.2004         41.2004
  -6595594.15144  -5122567.62646  23177500.799    23177500.3594   23177501.5044
        43.4004         40.9004
  -2636556.40542  -2035239.22745  24886242.078    24886241.4554   24886244.7244
        36.6004         34.6004
  -3668170.94244  -2836600.75446  23050513.151    23050513.9194   23050518.4234
        41.3004         38.6004
  -6791933.01846  -5281367.23847  21700723.538    21700723.9004   21700725.7414
        46.7004         43.7004
 19 10 19  0 43  0.0000000  0  9G25G24G29G14G12G02G06G32G31
 -19922111.88847 -15500815.11648  20163602.107    20163601.7594   20163606.9054
        51.2004         48.2004
   5942094.89042   4656624.99745  24979991.607    24979992.1074   24979999.6504
        37.1004         35.2004
 -22862580.17746 -17792108.97347  20661276.408    20661276.4974   20661278.8454
        48.9004         45.9004
  -9039779.38244  -7030121.40046  22528447.374    22528446.2944   22528450.1994
        42.0004         39.2004
  -9953945.68545  -7733437.39846  22372316.889    22372317.1584   22372320.1424
        44.2004         41.6004
  -6573941.36545  -5105695.32646  23181620.846    23181621.0484   23181621.4564
        43.6004         40.9004
  -2558639.36242  -1974524.63845  24901067.226    24901068.5924   24901073.3934
        36.8004         34.5004
  -3587923.07144  -2774069.95646  23065783.089    23065784.7884   23065788.5934
        40.9004         38.3004
  -6856498.51446  -5331678.01247  21688437.501    21688437.7804   21688439.1434
        46.7004         43.9004
 19 10 19  0 43 30.0000000  0  9G25G24G29G14G12G02G06G32G31
 -19903156.61747 -15486044.77448  20167208.690    20167208.7314   20167213.8824
        51.2004         48.2004
   6054314.14042   4744068.56145  25001347.862    25001348.0984   25001353.3824
        37.3004         35.3004
 -22913980.21746 -17832160.94247  20651495.483    20651495.1634   20651497.7694
        48.9004         45.9004
  -9011623.71044  -7008181.93446  22533805.269    22533805.3124   22533807.9944
        41.8004         39.3004
  -9869155.50445  -7667367.16646  22388451.131    22388452.1244   22388453.7284
        44.1004         41.4004
  -6551780.80045  -5088427.33946  23185838.893    23185837.7454   23185838.1284
        43.6004         40.7004
  -2480327.42342  -1913502.36245  24915969.164    24915970.8704   24915977.3214
        36.3004         34.0004
  -3507340.58044  -2711278.42246  23081118.212    23081118.5194   23081122.9974
        40.8004         38.1004
  -6920671.40946  -5381682.87447  21676225.606    21676225.8634   21676227.7634
        46.9004         44.0004
 19 10 19  0 44  0.0000000  0  9G25G24G29G14G12G02G06G32G31
 -19883820.25647 -15470977.48348  20170888.205    20170887.8844   20170893.3654
        51.2004         48.2004
   6166578.58942   4831547.33845  25022712.113    25022711.7804   25022715.9074
        37.1004         35.0004
 -22964882.70846 -17871825.21547  20641808.327    20641808.5144   20641811.3154
        48.8004         45.9004
  -8982925.94444  -6985820.05746  22539266.769    22539266.2914   22539268.8054
        42.0004         39.5004
  -9784190.94545  -7601161.03046  22404620.243    22404620.4534   22404622.6274
        44.2004         41.4004
  -6529113.10145  -5070764.17446  23190151.414    23190150.9884   23190152.7954
        43.6004         40.7004
  -2401623.00442  -1852174.23545  24930949.129    24930949.1834   24930953.0384
        36.1004         34.0004
  -3426426.43144  -2648228.45246  23096516.457    23096516.6514   23096521.8274
        40.9004         38.5004
  -6984450.17446  -5431380.61747  21664088.927    21664088.8874   21664090.7694
        46.9004         44.2004
 19 10 19  0 44 30.0000000  0  9G25G24G29G14G12G02G06G32G31
 -19864103.20747 -15455613.55548  20174640.425    20174640.0434   20174645.6664
        51.2004         48.2004
   6278886.63942   4919060.08445  25044086.127    25044082.5964   25044087.0144
        36.8004         34.8004
 -23015286.76346 -17911101.08847  20632217.294    20632217.4264   20632219.9984
        48.8004         46.1004
  -8953687.51644  -6963036.89146  22544830.755    22544829.4974   22544832.8774
        42.3004         39.5004
  -9699053.04045  -7534819.83746  22420821.744    22420821.4034   22420823.6844
        44.1004         41.2004
  -6505938.84944  -5052706.32046  23194560.549    23194560.6514   23194562.8854
        43.4004         40.7004
  -2322528.66542  -1790542.28545  24945999.309    24945997.9004   24946002.4624
        35.4004         33.4004
  -3345183.60944  -2584922.35546  23111975.083    23111975.6284   23111981.6714
        40.8004         38.1004
  -7047832.51146  -5480769.44847  21652028.063    21652028.4944   21652030.0854
        47.0004         44.4004
 19 10 19  0 45  0.0000000  0  9G25G24G29G14G12G02G06G32G31
 -19844005.73947 -15439953.19348  20178464.952    20178464.4584   20178469.8414
        51.2004         48.2004
   6391236.57442   5006605.48345  25065465.880    25065464.3794   25065467.8454
        37.3004         35.3004
 -23065191.66046 -17949988.00547  20622720.998    20622720.7944   20622723.2574
        48.9004         46.1004
  -8923910.00844  -6939833.67646  22550496.577    22550496.1374   22550499.5554
        42.3004         39.7004
  -9613742.87345  -7468344.40246  22437054.469    22437055.0444   22437058.4094
        44.2004         41.4004
  -6482258.85745  -5034254.37446  23199066.990    23199067.2124   23199067.8254
        43.6004         40.7004
  -2243046.79842  -1728608.29145  24961123.373    24961123.8804   24961124.9594
        34.9004         33.1004
  -3263615.12244  -2521362.52846  23127498.232    23127498.1574   23127502.6854
        40.6004         37.9004
  -7110816.08546  -5529847.55947  21640042.935    21640042.4814   21640044.1704
        47.0004         44.0004
 19 10 19  0 45 30.0000000  0  9G25G24G29G14G12G02G06G32G31
 -19823528.27147 -15423996.73148  20182361.594    20182361.5154   20182366.9734
        51.2004         48.2004
   6503627.03842   5094182.47545  25086854.256    25086848.9414   25086855.0724
        37.3004         35.2004
 -23114596.79346 -17988485.49947  20613319.442    20613319.1844   20613321.9514
        48.9004         46.1004
  -8893594.39644  -6916211.14846  22556265.302    22556264.7874   22556268.2624
        42.3004         39.5004
  -9528260.75745  -7401734.99346  22453323.526    22453321.5884   22453324.0914
        44.2004         41.1004
  -6458073.75045  -5015408.81046  23203671.293    23203669.9444   23203670.8694
        43.6004         40.7004
  -2163179.99342  -1666374.38245  24976318.491    24976323.3104   24976326.1174
        35.2004         33.6004
  -3181723.89743  -2457551.18446  23143080.975    23143081.6634   23143086.3944
        40.4004         37.9004
  -7173398.91646  -5578613.40047  21628133.628    21628133.5084   21628135.3414
        47.0004         44.2004
 19 10 19  0 46  0.0000000  0  9G25G24G29G14G12G02G06G32G31
 -19802671.10347 -15407744.39848  20186330.562    20186330.2874   20186335.6604
        51.2004         48.2004
   6616056.10842   5181789.51445  25108249.695    25108244.8604   25108249.6274
        37.1004         35.2004
 -23163501.12446 -18026592.75847  20604012.671    20604013.1994   20604015.2704
        48.9004         46.1004
  -8862742.16344  -6892170.46746  22562136.503    22562136.7884   22562139.6094
        42.2004         39.5004
  -9442608.11045  -7334992.68646  22469620.980    22469622.2864   22469623.4004
        44.1004         41.2004
  -6433384.34345  -4996170.30846  23208369.824    23208368.3284   23208369.7894
        43.7004         40.9004
  -2082930.85342  -1603842.55445  24991591.317    24991594.3804   24991601.5644
        34.7004         33.1004
  -3099513.10044  -2393490.82146  23158725.378    23158725.5694   23158731.0654
        40.6004         37.9004
  -7235579.27746  -5627065.64347  21616301.642    21616301.4134   21616302.3054
        47.2004         44.2004
 19 10 19  0 46 30.0000000  0  9G25G24G29G14G12G02G06G32G31
 -19781434.61547 -15391196.49148  20190372.060    20190371.6744   20190376.8844
        51.2004         48.2004
   6728521.51742   5269424.87045  25129648.636    25129645.2974   25129650.5114
        37.3004         35.0004
 -23211903.68946 -18064309.02947  20594802.681    20594802.1404   20594804.8364
        48.9004         46.1004
  -8831354.95744  -6867712.92946  22568109.721    22568109.0264   22568112.5844
        42.3004         39.7004
  -9356786.08745  -7268118.41546  22485952.138    22485952.4034   22485954.8094
        44.1004         41.1004
  -6408191.50345  -4976539.51946  23213162.626    23213160.9924   23213163.7674
        43.7004         40.9004
  -2002301.78641  -1541014.73145  25006936.448    25006934.0204   25006939.0824
        34.2004         32.9004
  -3016985.63944  -2329183.72646  23174430.780    23174430.1794   23174435.3934
        40.6004         37.9004
  -7297354.88946  -5675202.47647  21604545.128    21604545.3294   21604546.8754
        47.0004         44.0004
 19 10 19  0 47  0.0000000  0  9G25G24G29G14G12G02G06G32G31
 -19759819.18147 -15374353.30448  20194485.111    20194485.0294   20194490.2414
        51.2004         48.0004
   6841021.76742   5357087.39045  25151059.163    25151055.4054   25151059.6014
        37.3004         35.2004
 -23259803.99246 -18101633.93147  20585687.139    20585687.1574   20585689.6164
        49.1004         46.1004
  -8799434.05944  -6842839.53746  22574184.389    22574183.4864   22574185.6354
        42.3004         39.7004
  -9270795.51545  -7201112.79246  22502317.064    22502316.9224   22502318.5564
        44.1004         41.2004
  -6382495.81945  -4956516.90246  23218052.129    23218051.3214   23218052.5894
        43.6004         40.7004
  -1921295.33051  -1477892.84655  25022348.561    25022348.0944   25022357.0224
        33.8004         32.6004
  -2934144.51644  -2264632.20746  23190193.813    23190194.5254   23190199.2954
        40.6004         37.9004
  -7358723.62446  -5723022.27447  21592867.387    21592867.4344   21592868.5444
        46.9004         44.0004
 19 10 19  0 47 30.0000000  0  9G25G24G29G14G12G02G06G32G31
 -19737825.15847 -15357215.11048  20198670.053    20198669.9574   20198675.5304
        51.0004         48.0004
   6953555.55342   5444776.03745  25172471.395    25172467.7534   25172473.0904
        37.0004         34.8004
 -23307201.09046 -18138566.73147  20576668.100    20576668.0874   20576670.2474
        49.1004         46.3004
  -8766980.98544  -6817551.45346  22580359.257    22580358.7434   22580361.7774
        42.2004         39.3004
  -9184636.91045  -7133976.25946  22518711.763    22518712.2564   22518714.4054
        44.1004         41.2004
  -6356298.24844  -4936103.20146  23223036.408    23223036.5964   23223037.6414
        43.4004         40.6004
  -1839914.07351  -1414478.78755  25037835.922    25037838.0934   25037838.8984
        33.7004         32.4004
  -2850992.78144  -2199838.66346  23206017.499    23206017.2764   23206023.1774
        40.8004         38.3004
  -7419683.71646  -5770523.65047  21581266.902    21581267.0494   21581268.7274
        46.9004         43.9004
 19 10 19  0 48  0.0000000  0  9G25G24G29G14G12G02G06G32G31
 -19715452.93647 -15339782.22247  20202927.780    20202927.2194   20202932.6314
        51.0004         47.8004
   7066121.08642   5532489.39645  25193891.797    25193889.4974   25193894.5094
        37.1004         35.3004
 -23354094.45846 -18175107.00347  20567745.054    20567744.8024   20567746.4204
        49.1004         46.3004
  -8733997.08444  -6791849.74446  22586635.688    22586635.1514   22586638.5934
        42.0004         39.2004
  -9098311.48845  -7066709.70746  22535138.985    22535139.0144   22535140.7704
        43.9004         41.1004
  -6329599.49744  -4915298.97446  23228117.989    23228116.6354   23228119.0234
        43.4004         40.7004
  -1758160.61851  -1350774.75355  25053391.926    25053389.6444   25053399.5084
        33.1004         32.2004
  -2767533.47444  -2134805.45546  23221899.604    23221900.3824   23221904.9594
        40.8004         38.5004
  -7480232.90446  -5817704.84047  21569744.212    21569744.4534   21569746.7884
        46.9004         44.0004
 19 10 19  0 48 30.0000000  0  9G25G24G29G14G12G02G06G32G31
 -19692702.86847 -15322054.90348  20207256.577    20207256.2994   20207261.9764
        51.0004         48.0004
   7178715.60442   5620225.32145  25215318.309    25215315.4494   25215321.0904
        37.1004         35.2004
 -23400483.18446 -18211254.05247  20558916.982    20558916.9784   20558918.9814
        49.1004         46.3004
  -8700483.82244  -6765735.54346  22593013.876    22593012.4064   22593015.2104
        41.8004         39.3004
  -9011820.20745  -6999313.93146  22551597.234    22551596.9894   22551600.8824
        43.9004         41.2004
  -6302400.20744  -4894104.72546  23233292.892    23233292.4264   23233293.8634
        43.2004         40.2004
  -1676037.41951  -1286782.62855  25069018.961    25069017.3504   25069030.1084
        33.3004         32.4004
  -2683769.60844  -2069534.92446  23237839.086    23237839.9364   23237844.9244
        41.1004         38.6004
  -7540368.97046  -5864564.11147  21558301.506    21558301.3174   21558303.0664
        47.0004         44.2004
 19 10 19  0 49  0.0000000  0  9G25G24G29G14G12G02G06G32G31
 -19669575.31147 -15304033.43547  20211657.828    20211657.5024   20211662.9124
        50.8004         47.8004
   7291338.43542   5707983.32645  25236750.133    25236745.4394   25236752.5284
        37.1004         35.0004
 -23446366.75146 -18247007.47647  20550185.489    20550185.7824   20550187.3664
        49.1004         46.3004
  -8666442.78744  -6739210.08046  22599491.630    22599491.0334   22599493.4484
        42.0004         39.3004
  -8925164.18745  -6931789.79546  22568088.875    22568088.5604   22568089.6744
        43.9004         41.2004
  -6274701.31844  -4872521.15046  23238564.412    23238563.0804   23238564.2904
        43.0004         40.0004
  -1593547.17751  -1222504.56755  25084716.409    25084717.8754   25084723.6334
        32.8004         31.9004
  -2599704.23844  -2004029.44746  23253836.665    23253837.2574   23253840.8174
        41.1004         38.5004
  -7600090.76246  -5911100.58947  21546936.094    21546936.5994   21546938.6024
        47.0004         44.4004
 19 10 19  0 49 30.0000000  0  9G25G24G29G14G12G02G06G32G31
 -19646070.66447 -15285718.12947  20216130.426    20216130.0964   20216136.0244
        50.8004         47.8004
   7403987.39742   5795761.71545  25258185.608    25258182.2604   25258189.7594
        37.3004         35.0004
 -23491744.62746 -18282366.85447  20541550.471    20541550.5504   20541552.5284
        49.3004         46.5004
  -8631875.60744  -6712274.63746  22606070.083    22606068.9644   22606071.3034
        42.2004         39.5004
  -8838344.09545  -6864137.80446  22584608.901    22584609.3224   22584611.1664
        43.9004         40.9004
  -6246503.73744  -4850549.00846  23243929.280    23243928.9114   23243929.6464
        42.7004         40.0004
  -1510692.26351  -1157942.25055  25100485.059    25100485.3204   25100491.7794
        32.6004         31.7004
  -2515340.41544  -1938291.42046  23269890.883    23269890.9324   23269895.2624
        41.1004         38.6004
  -7659395.75346  -5957312.26547  21535651.628    21535651.3404   21535653.1844
        47.4004         44.7004
 19 10 19  0 50  0.0000000  0  9G25G24G29G14G12G02G06G32G31
 -19622189.30447 -15267109.28947  20220674.929    20220674.7684   20220680.2504
        50.8004         47.8004
   7516660.56342   5883558.96845  25279627.726    25279621.4734   25279629.8034
        37.0004         34.8004
 -23536615.70646 -18317331.32047  20533011.749    20533011.9294   20533013.9884
        49.3004         46.5004
  -8596783.80544  -6684930.40746  22612747.507    22612746.2294   22612749.2694
        42.0004         39.2004
  -8751361.03145  -6796358.83146  22601161.638    22601160.6914   22601163.1054
        43.7004         40.6004
  -6217808.50044  -4828189.07646  23249390.491    23249390.6904   23249390.5214
        43.0004         40.6004
  -1427475.44151  -1093097.91455  25116317.544    25116318.1324
        32.1004         31.5004
  -2430681.16544  -1872323.17646  23285999.887    23286000.9934   23286006.3474
        41.5004         39.0004
  -7718281.88546  -6003197.56547  21524444.911    21524445.2224   21524446.9644
        47.4004         44.4004
 19 10 19  0 50 30.0000000  0  9G25G24G29G14G12G02G06G32G31
 -19597931.63247 -15248207.21947  20225291.714    20225290.8204   20225296.2274
        50.8004         47.8004
   7629356.48842   5971373.97545  25301073.005    25301067.1264   25301074.4844
        37.1004         35.2004
 -23580979.52946 -18351900.51747  20524569.972    20524569.8474   20524571.7974
        49.3004         46.6004
  -8561168.64844  -6657178.37246  22619523.849    22619523.6294   22619526.7194
        41.8004         39.0004
  -8664215.85245  -6728453.51946  22617743.416    22617744.1754   22617747.3434
        43.6004         40.9004
  -6188616.27444  -4805441.86746  23254947.016    23254946.0734   23254946.7244
        43.2004         40.7004
                  -1027973.50455  25132217.329
                        31.5004
  -2345729.52644  -1806127.11646  23302165.659    23302167.0784   23302170.9754
        41.1004         38.3004
  -7776747.09746  -6048754.88147  21513319.668    21513319.8284   21513321.5774
        47.4004         44.5004
 19 10 19  0 51  0.0000000  0  9G25G24G29G14G12G02G06G32G31
 -19573298.03347 -15229012.21047  20229978.904    20229978.7134   20229984.0224
        50.8004         47.8004
   7742073.23042   6059205.16845  25322523.867    25322517.2274   25322526.0014
        37.1004         35.0004
 -23624835.56346 -18386074.04147  20516224.143    20516224.0544   20516226.2834
        49.5004         46.5004
  -8525032.13244  -6629020.09646  22626400.954    22626400.9114   22626403.3364
        41.8004         39.0004
  -8576909.59945  -6660422.70046  22634358.696    22634358.3704   22634361.3044
        43.6004         40.7004
  -6158928.10444  -4782308.20946  23260595.791    23260595.1294   23260595.9364
        43.2004         40.6004
  -1259966.15751   -962571.16555  25148195.841    25148197.0414   25148205.5504
        32.6004         31.9004
  -2260488.62144  -1739705.64746  23318387.774    23318386.4884   23318392.1334
        40.6004         37.8004
  -7834789.65846  -6093982.86147  21502274.629    21502275.0574   21502276.4864
        47.4004         44.5004
 19 10 19  0 51 30.0000000  0  9G25G24G29G14G12G02G06G32G31
 -19548288.86747 -15209524.55047  20234737.967    20234737.6384   20234743.0134
        50.8004         47.8004
   7854809.30942   6147051.46545  25343976.630    25343969.7134   25343978.4584
        37.1004         35.0004
 -23668183.48546 -18419851.63647  20507975.318    20507975.3634   20507977.6544
        49.5004         46.6004
  -8488375.90844  -6600456.84046  22633376.577    22633375.5524   22633379.2154
        41.8004         39.0004
  -8489443.52144  -6592267.35346  22651001.026    22651003.1934   22651004.8634
        43.4004         40.6004
  -6128744.80144  -4758788.75046  23266340.020    23266338.7064   23266339.6504
        43.4004         40.6004
  -1175678.96241   -896892.73445  25164236.123    25164235.7654   25164242.9664
        33.1004         32.2004
  -2174961.42543  -1673061.10046  23334662.241    23334662.4744   23334667.4854
        40.4004         37.9004
  -7892407.56846  -6138879.93147  21491310.682    21491310.5574   21491312.3104
        47.5004         44.5004
 19 10 19  0 52  0.0000000  0  9G25G24G29G14G12G02G06G32G31
 -19522904.56947 -15189744.58147  20239568.478    20239568.3244   20239573.6124
        51.0004         47.8004
   7967562.04442   6234910.75145  25365428.489    25365426.9864   25365434.6274
        36.4004         34.5004
 -23711022.18246 -18453232.42947  20499823.499    20499823.1764   20499825.4664
        49.5004         46.6004
  -8451201.27444  -6571489.61946  22640450.230    22640450.2124   22640453.2694
        41.6004         39.0004
  -8401817.60544  -6523987.43946  22667676.995    22667676.9684   22667679.4614
        43.2004         40.4004
  -6098067.50145  -4734884.34046  23272176.916    23272176.8584   23272177.1834
        43.6004         40.7004
  -1091039.96651   -830940.22555  25180342.411    25180342.0514
        32.3004         31.3004
  -2089151.07543  -1606195.89346  23350991.011    23350990.4574   23350996.6404
        40.3004         37.6004
  -7949598.81746  -6183444.54747  21480427.339    21480428.0204   21480429.2134
        47.4004         44.5004
 19 10 19  0 52 30.0000000  0  9G25G24G29G14G12G02G06G32G31
 -19497145.55347 -15169672.62747  20244470.070    20244469.6824   20244475.3154
        50.8004         47.8004
   8080330.54842   6322782.31545  25386884.913    25386885.4114   25386891.8324
        36.3004         34.5004
 -23753350.96646 -18486215.88947  20491768.418    20491768.2114   20491770.6124
        49.5004         46.6004
  -8413510.01344  -6542119.82946  22647622.775    22647622.1404   22647625.5854
        41.8004         39.2004
  -8314033.40844  -6455584.20046  22684382.320    22684382.6894   22684384.8204
        43.4004         40.9004
  -6066897.07644  -4710595.71346  23278109.146    23278108.1294   23278108.6984
        43.4004         40.6004
  -1006052.06751   -764715.91055  25196510.375    25196511.6704
        32.1004         31.9004
  -2003060.63043  -1539112.43946  23367372.401    23367373.4844   23367377.7284
        39.9004         37.1004
  -8006361.30646  -6227675.05347  21469626.034    21469626.2814   21469627.0194
        47.4004         44.5004
 19 10 19  0 53  0.0000000  0  9G25G24G29G14G12G02G06G32G31
 -19471012.18347 -15149308.97547  20249443.426    20249442.9934   20249448.4894
        50.8004         47.8004
   8193113.09142   6410664.86145  25408346.229    25408346.3654   25408355.2304
        36.4004         34.6004
 -23795169.37746 -18518801.65747  20483810.702    20483810.8334   20483812.9094
        49.5004         46.6004
  -8375303.77144  -6512348.75746  22654893.980    22654893.4924   22654896.0184
        41.8004         39.2004
  -8226091.83644  -6387058.31946  22701116.309    22701116.8614   22701118.7824
        43.2004         40.6004
  -6035234.65845  -4685923.69846  23284133.794    23284133.1904   23284134.0104
        43.6004         40.7004
   -920717.8255    -698221.69555  25212753.508    25212752.6614
        31.4004         31.2004
  -1916693.15843  -1471813.12646  23383809.543    23383809.5964   23383813.3254
        39.7004         37.4004
  -8062693.29146  -6271570.10247  21458906.191    21458906.3414   21458907.4284
        47.5004         44.5004
 19 10 19  0 53 30.0000000  0  9G25G24G29G14G12G02G06G32G31
 -19444504.86047 -15128653.92847  20254487.425    20254486.9164   20254492.5214
        50.8004         47.8004
   8305907.78842   6498556.87445  25429812.459    25429811.6314   25429820.4274
        36.1004         34.3004
 -23836477.10346 -18550989.48347  20475950.043    20475949.7614   20475952.3244
        49.5004         46.6004
  -8336584.43344  -6482177.87246  22662261.372    22662260.7324   22662264.1524
        41.6004         38.8004
  -8137994.18944  -6318410.82646  22717882.283    22717881.3114   22717882.3774
        43.2004         40.6004
  -6003081.04044  -4660868.92146  23290251.877    23290251.8224   23290251.8294
        43.2004         40.2004
                                  25229058.019

  -1830051.70043  -1404300.31346  23400296.359    23400296.9924   23400301.1114
        40.1004         37.4004
  -8118592.80546  -6315128.16847  21448269.667    21448269.5224   21448270.5114
        47.5004         44.9004
 19 10 19  0 54  0.0000000  0  9G25G24G29G14G12G02G06G32G31
 -19417624.02847 -15107707.82847  20259602.757    20259602.0894   20259607.6784
        50.8004         47.8004
   8418713.04242   6586457.12645  25451279.688    25451277.5394   25451286.0404
        35.9004         34.1004
 -23877273.70946 -18582779.03247  20468186.692    20468186.8004   20468189.1024
        49.5004         46.6004
  -8297353.61544  -6451608.41046  22669726.403    22669725.3694   22669729.1544
        41.1004         38.3004
  -8049740.41644  -6249641.67446  22734674.852    22734675.5254   22734677.7634
        43.2004         40.6004
  -5970437.15644  -4635432.11746  23296463.812    23296463.3154   23296465.5024
        43.2004         40.4004
                     66505.42154  25245424.977
                        26.5004
  -1743139.39543  -1336576.42046  23416835.600    23416835.7904   23416841.3014
        40.3004         37.8004
  -8174057.83246  -6358347.67747  21437714.399    21437714.4184   21437715.8874
        47.7004         44.7004
 19 10 19  0 54 30.0000000  0  9G25G24G29G14G12G02G06G32G31
 -19390370.10147 -15086471.00647  20264788.805    20264788.5754   20264794.0934
        50.8004         47.8004
   8531527.19842   6674364.33745  25472749.003    25472745.3444   25472752.9264
        35.7004         33.8004
 -23917558.81846 -18614170.01047  20460520.904    20460520.8894   20460523.3944
        49.5004         46.6004
  -8257612.81244  -6420641.57246  22677289.076    22677288.6674   22677291.2854
        40.9004         38.5004
  -7961331.93944  -6180751.99246  22751500.571    22751500.1284   22751500.4044
        43.2004         40.4004
  -5937304.25244  -4609614.25946  23302768.406    23302767.0574   23302769.5454
        43.0004         40.2004
                    133836.93354  25261859.981
                        29.8004
  -1655959.29543  -1268643.90546  23433424.861    23433424.9574   23433430.3074
        40.4004         37.9004
  -8229086.25246  -6401226.96347  21427242.535    21427242.5344   21427244.4564
        47.7004         44.9004
 19 10 19  0 55  0.0000000  0  8G25G29G14G12G02G06G32G31
 -19362743.44847 -15064943.74647  20270045.645    20270045.5524   20270051.2504
        50.8004         47.8004
 -23957331.23246 -18645161.49547  20452952.242    20452952.1694   20452954.2834
        49.5004         46.6004
  -8217364.11344  -6389278.98446  22684948.607    22684947.7694   22684950.2924
        41.1004         38.6004
  -7872769.56044  -6111742.36846  22768351.792    22768351.5904   22768354.5754
        43.2004         40.4004
  -5903683.15344  -4583416.00246  23309165.343    23309166.4654   23309168.0724
        42.9004         40.2004
                    201430.30355  25278357.750
                        30.0004
  -1568514.47743  -1200505.11646  23450065.913    23450066.2664   23450070.0624
        40.4004         37.8004
  -8283676.28946  -6443764.66247  21416855.019    21416855.0824   21416856.3614
        47.9004         45.1004
 19 10 19  0 55 30.0000000  0  8G25G29G14G12G02G06G32G31
 -19334744.54047 -15043126.42047  20275374.200    20275373.4824   20275379.5374
        50.8004         47.8004
 -23996590.69346 -18675753.27847  20445481.334    20445481.3104   20445483.4394
        49.3004         46.5004
  -8176609.09844  -6357521.85446  22692703.911    22692703.2714   22692705.3704
        41.1004         38.3004
  -7784054.10144  -6042613.46946  22785235.743    22785234.5294   22785236.5084
        43.2004         40.4004
  -5869575.17044  -4556838.34946  23315657.493    23315656.4614   23315657.6244
        42.9004         40.0004
                     62749.31754  25294920.790
                        25.8004
  -1480808.10443  -1132162.49346  23466753.983    23466755.1224   23466760.7944
        40.3004         37.6004
  -8337826.16746  -6485959.37447  21406550.085    21406550.4304   21406551.8544
        47.9004         44.9004
 19 10 19  0 56  0.0000000  0  7G25G29G14G12G02G32G31
 -19306373.76847 -15021019.33547  20280772.914    20280772.4624   20280778.0254
        50.8004         47.8004
 -24035337.11346 -18705945.28347  20438107.709    20438107.6954   20438110.1294
        49.3004         46.5004
  -8135349.77044  -6325371.76246  22700555.317    22700555.1764   22700557.3344
        40.9004         38.5004
  -7695186.89744  -5973366.31546  22802144.752    22802145.4964   22802147.4624
        43.0004         40.4004
  -5834981.28644  -4529882.08046  23322240.020    23322239.8174   23322241.1074
        42.9004         40.2004
  -1392843.17843  -1063618.41346  23483494.522    23483494.8934   23483500.2234
        40.3004         37.9004
  -8391533.98546  -6527809.63047  21396330.318    21396330.6814   21396331.6154
        47.9004         45.2004
 19 10 19  0 56 30.0000000  0  7G25G29G14G12G02G32G31
 -19277631.57747 -14998622.82947  20286242.337    20286241.9614   20286247.4524
        50.8004         47.8004
 -24073569.79846 -18735736.98447  20430832.503    20430832.6264   20430834.6724
        49.5004         46.6004
  -8093587.72844  -6292829.93446  22708502.016    22708501.7544   22708504.7304
        41.1004         38.6004
  -7606168.60844  -5904001.45046  22819085.300    22819085.0524   22819087.4834
        43.2004         40.4004
  -5799902.50144  -4502547.94646  23328915.311    23328915.3724   23328915.5214
        42.9004         40.2004
  -1304622.82143   -994875.28846  23500281.806    23500281.8654   23500286.8804
        40.4004         37.9004
  -8444797.48046  -6569313.64547  21386194.183    21386194.4464   21386196.0874
        48.1004         45.1004
 19 10 19  0 57  0.0000000  0  7G25G29G14G12G02G32G31
 -19248518.39747 -14975937.23747  20291782.326    20291781.8384   20291787.3784
        50.8004         47.7004
 -24111288.33646 -18765128.04147  20423654.843    20423654.7694   20423657.0234
        49.5004         46.6004
  -8051325.00944  -6259897.96146  22716544.774    22716544.4014   22716547.5934
        41.3004         38.5004
  -7517000.22344  -5834519.60746  22836051.867    22836053.2264   22836055.0474
        43.0004         40.2004
  -5764340.06944  -4474836.96046  23335682.763    23335681.5954   23335683.8774
        43.0004         40.2004
  -1216150.21043   -925935.60546  23517117.383    23517117.6834   23517122.9564
        40.1004         37.4004
  -8497615.11846  -6610470.24947  21376143.565    21376143.9064   21376145.0804
        47.9004         45.1004
 19 10 19  0 57 30.0000000  0  7G25G29G14G12G02G32G31
 -19219034.66147 -14952962.91047  20297393.166    20297392.9444   20297397.9864
        50.8004         47.8004
 -24148492.25746 -18794118.11247  20416575.142    20416575.7254   20416577.7044
        49.5004         46.8004
  -8008563.31844  -6226577.18646  22724681.659    22724681.6174   22724683.3284
        41.1004         38.5004
  -7427682.56144  -5764921.45746  22853050.921    22853050.0394   22853051.7684
        43.0004         40.4004
  -5728295.03144  -4446749.90546  23342541.602    23342541.1744   23342542.2554
        42.9004         40.0004
  -1127428.37443   -856801.72746  23534001.803    23534002.0444   23534006.0854
        40.1004         37.6004
  -8549984.96746  -6651277.91647  21366177.511    21366177.6934   21366179.1104
        47.9004         44.7004
 19 10 19  0 58  0.0000000  0  7G25G29G14G12G02G32G31
 -19189180.77947 -14929700.15247  20303074.158    20303073.6094   20303079.1434
        50.8004         47.8004
 -24185181.63847 -18822707.24147  20409593.477    20409593.4664   20409596.1604
        49.6004         46.8004
  -7965304.71544  -6192869.19946  22732913.573    22732913.1084   22732916.5114
        40.9004         38.1004
  -7338216.45044  -5695207.63046  22870074.204    22870074.9674   22870076.0634
        42.9004         40.2004
  -5691768.67944  -4418287.81446  23349493.979    23349491.9264   23349492.2474
        42.7004         39.9004
  -1038460.43343   -787476.06946  23550930.562    23550931.8384   23550937.7034
        40.4004         38.1004
  -8601904.98046  -6691735.06147  21356297.616    21356297.7434   21356298.9524
        47.9004         45.1004
 19 10 19  0 58 30.0000000  0  7G25G29G14G12G02G32G31
 -19158957.21147 -14906149.32947  20308825.550    20308825.1764   20308830.4004
        50.8004         47.8004
 -24221355.38647 -18850894.57047  20402710.249    20402709.9704   20402712.4084
        49.6004         46.8004
  -7921550.83344  -6158775.30446  22741240.553    22741239.7814   22741242.2044
        41.3004         38.6004
  -7248603.14444  -5625379.10846  22887127.562    22887127.1184   22887129.6734
        42.7004         39.9004
  -5654762.26944  -4389451.63146  23356535.600    23356534.1214   23356534.6384
        42.9004         40.2004
   -949249.52644   -717961.05546  23567907.146    23567906.9084   23567913.3684
        40.6004         37.9004
  -8653373.65846  -6731840.52747  21346503.584    21346503.3594   21346504.9544
        47.7004         44.9004
 19 10 19  0 59  0.0000000  0  7G25G29G14G12G02G32G31
 -19128364.42447 -14882310.79747  20314646.843    20314646.6094   20314652.1124
        50.8004         47.7004
 -24257013.28147 -18878679.93447  20395924.163    20395924.5694   20395926.9374
        49.6004         47.0004
  -7877303.46144  -6124296.85046  22749660.062    22749659.4554   22749662.5524
        41.3004         38.6004
  -7158842.92644  -5555436.08846  22904208.783    22904209.0424   22904209.6144
        42.7004         40.0004
  -5617276.58944  -4360242.01946  23363668.117    23363667.9824   23363668.1534
        42.9004         40.2004
   -859798.72144   -648259.14646  23584928.460    23584929.6104   23584934.4084
        40.6004         38.1004
  -8704388.92446  -6771592.68947  21336795.741    21336796.0344   21336797.2594
        47.7004         44.9004
 19 10 19  0 59 30.0000000  0  7G25G29G14G12G02G32G31
 -19097402.79947 -14858184.86647  20320539.182    20320538.6384   20320543.7774
        50.8004         47.8004
 -24292155.31147 -18906063.32447  20389237.231    20389237.3054   20389239.5204
        49.6004         47.0004
  -7832564.78944  -6089435.56146  22758172.686    22758172.7384   22758175.8784
        41.1004         38.3004
  -7068936.87944  -5485379.46146  22921317.271    22921317.3794   22921319.1334
        42.5004         39.9004
  -5579312.97044  -4330659.96546  23370893.897    23370892.8684   23370892.7044
        43.0004         40.4004
   -770111.11444   -578372.72946  23601995.963    23601996.5794   23602003.0894
        40.9004         38.3004
  -8754948.95246  -6810990.11447  21327174.948    21327175.0174   21327175.6734
        47.9004         44.9004
 19 10 19  1  0  0.0000000  0  7G25G29G14G12G02G32G31
 -19066072.84347 -14833771.91747  20326500.688    20326500.2804   20326505.6374
        50.7004         47.7004
 -24326780.82147 -18933044.23447  20382647.750    20382647.7774   20382650.4494
        49.6004         46.8004
  -7787336.74644  -6054192.94446  22766780.512    22766780.2194   22766781.7844
        41.1004         38.6004
  -6978886.06844  -5415210.02246  22938453.081    22938453.7804   22938455.4704
        42.7004         39.9004
  -5540872.68344  -4300706.49146  23378207.145    23378207.0724   23378207.2944
        43.0004         40.0004
   -680189.86544   -508304.22146  23619107.120    23619108.0354   23619114.0554
        40.8004         38.1004
  -8805051.83246  -6850031.32447  21317640.586    21317640.5854   21317641.3174
        47.9004         45.1004
 19 10 19  1  0 30.0000000  0  7G25G29G14G12G02G32G31
 -19034374.97947 -14809072.28847  20332532.757    20332532.3224   20332537.8044
        50.7004         47.8004
 -24360889.67347 -18959622.55647  20376157.145    20376157.2704   20376159.7154
        49.6004         46.8004
  -7741621.23244  -6018570.49446  22775479.878    22775479.4824   22775482.6414
        41.3004         38.6004
  -6888691.62044  -5344928.65346  22955616.697    22955617.1744   22955619.0444
        42.5004         39.5004
  -5501957.11444  -4270382.66246  23385612.352    23385612.1034   23385613.3024
        42.9004         39.9004
   -590038.11243   -438056.11546  23636262.523    23636264.1014   23636268.5984
        40.4004         37.8004
  -8854695.93146  -6888715.04547  21308193.519    21308193.4084   21308194.8434
        47.9004         45.1004
 19 10 19  1  1  0.0000000  0  7G25G29G14G12G02G32G31
 -19002309.67147 -14784086.34247  20338634.411    20338634.0394   20338639.4224
        50.8004         47.8004
 -24394481.72247 -18985798.16747  20369764.998    20369764.8604   20369767.5824
        49.6004         47.0004
  -7695420.20544  -5982569.71246  22784271.054    22784270.6274   22784273.7884
        41.3004         38.6004
  -6798353.65644  -5274535.44346  22972807.217    22972807.3494   22972810.6734
        42.3004         39.5004
  -5462567.35344  -4239689.33846  23393107.313    23393107.5334   23393109.0934
        42.7004         40.0004
   -499658.89643   -367630.76646  23653462.320    23653462.8384   23653467.1384
        40.3004         37.6004
  -8903879.06746  -6927039.56747  21298834.055    21298834.0424   21298835.7854
        48.1004         45.2004
 19 10 19  1  1 30.0000000  0  7G25G29G14G12G02G32G31
 -18969877.38247 -14758814.44447  20344806.028    20344805.7524   20344811.2024
        50.8004         47.7004
 -24427556.74447 -19011570.90547  20363471.093    20363471.3714   20363473.2484
        49.8004         47.0004
  -7648735.79144  -5946192.27046  22793154.690    22793154.3804   22793156.8544
        41.3004         38.6004
  -6707873.60444  -5204031.53746  22990024.712    22990025.3974   22990027.3254
        42.2004         39.3004
  -5422704.56244  -4208627.42146  23400693.553    23400693.8814   23400694.1224
        42.7004         39.9004
   -409055.39243   -297030.61746  23670703.151    23670702.6624   23670708.9244
        40.3004         37.8004
  -8952599.61246  -6965003.63647  21289562.426    21289562.7114   21289564.8634
        48.1004         45.2004
 19 10 19  1  2  0.0000000  0  7G25G29G14G12G02G32G31
 -18937078.58047 -14733256.94647  20351047.470    20351047.0494   20351052.3954
        50.8004         47.7004
 -24460114.30747 -19036940.43347  20357275.837    20357275.9294   20357277.5744
        49.8004         47.2004
  -7601570.01644  -5909439.72946  22802129.818    22802128.7874   22802132.7004
        41.3004         38.5004
  -6617252.28744  -5133417.55146  23007267.132    23007267.9594   23007272.4614
        42.0004         39.0004
  -5382370.19744  -4177198.02946  23408368.405    23408367.6024   23408369.7974
        42.7004         39.9004
   -318230.66643   -226258.12446  23687986.932    23687986.3954   23687992.0184
        40.1004         37.6004
  -9000855.77946  -7002605.84247  21280379.927    21280380.1094   21280381.7444
        48.1004         45.2004
 19 10 19  1  2 30.0000000  0  7G25G29G14G12G02G32G31
 -18903913.70647 -14707414.19747  20357358.657    20357358.5054   20357363.3864
        50.8004         47.8004
 -24492153.99147 -19061906.41647  20351178.706    20351178.5384   20351180.7814
        49.8004         47.0004
  -7553924.99144  -5872313.75146  22811196.829    22811196.1854   22811199.1544
        40.9004         37.9004
  -6526490.38844  -5062694.01146  23024539.219    23024540.1254   23024544.7974
        41.8004         39.0004
  -5341565.55144  -4145402.19446  23416133.043    23416132.9614   23416133.9694
        42.5004         39.7004
   -227187.93643   -155315.71146  23705312.537    23705311.7034   23705317.7344
        40.1004         37.6004
  -9048645.78246  -7039844.80747  21271285.469    21271285.8474   21271287.6544
        48.1004         45.2004
 19 10 19  1  3  0.0000000  0  7G25G29G14G12G02G32G31
 -18870383.25947 -14681286.58247  20363739.138    20363738.6924   20363744.4634
        50.8004         47.8004
 -24523675.57647 -19086468.68447  20345180.213    20345180.2004   20345182.4234
        49.8004         47.2004
  -7505802.45744  -5834815.69146  22820353.837    22820353.4034   22820356.2364
        40.6004         38.1004
  -6435588.81844  -4991861.67446  23041838.946    23041839.8874   23041840.3454
        41.6004         39.0004
  -5300291.77244  -4113240.80446  23423987.756    23423987.4144   23423989.6454
        42.5004         39.9004
   -135930.25543    -84205.82846  23722676.237    23722676.7144   23722680.6734
        39.7004         37.1004
  -9095968.05246  -7076719.30947  21262280.731    21262280.5514   21262282.0454
        48.1004         45.1004
 19 10 19  1  3 30.0000000  0  7G25G29G14G12G02G32G31
 -18836487.69347 -14654874.45547  20370189.815    20370189.3034   20370194.4704
        50.8004         47.8004
 -24554679.22447 -19110627.36547  20339280.796    20339280.4084   20339282.6274
        50.0004         47.2004
  -7457204.51344  -5796947.20646  22829602.803    22829602.1314   22829605.4124
        40.9004         38.5004
  -6344548.52544  -4920921.18846  23059162.987    23059163.8274   23059165.2874
        41.5004         38.8004
  -5258550.36344  -4080715.01446  23431931.990    23431930.6104   23431931.8134
        42.7004         39.7004
    -44460.72343    -12930.89646  23740082.230    23740082.7424   23740089.7604
        39.7004         37.4004
  -9142820.68546  -7113227.85147  21253364.364    21253364.5984   21253366.0974
        48.1004         45.1004
 19 10 19  1  4  0.0000000  0  7G25G29G14G12G02G32G31
 -18802227.49647 -14628178.20847  20376709.220    20376708.6944   20376714.1314
        50.8004         47.8004
 -24585164.16847 -19134381.86047  20333479.488    20333479.2924   20333482.0024
        50.0004         47.3004
  -7408133.41144  -5758710.02146  22838939.639    22838939.7084   22838942.4744
        41.1004         38.5004
  -6253370.38044  -4849873.31246  23076515.659    23076514.4754   23076516.8984
        41.6004         39.0004
  -5216342.25844  -4047825.58546  23439963.007    23439962.3934   23439964.1964
        42.7004         39.9004
     47217.48943     58506.67446  23757529.697    23757530.2064   23757535.0314
        39.9004         37.4004
  -9189201.83346  -7149369.00447  21244539.251    21244538.9394   21244540.4044
        48.1004         45.4004
 19 10 19  1  4 30.0000000  0  7G25G29G14G12G02G32G31
 -18767603.10747 -14601198.17847  20383298.046    20383297.6434   20383302.8674
        50.8004         47.8004
 -24615130.87147 -19157732.53847  20327776.765    20327776.9424   20327779.3954
        50.2004         47.5004
  -7358591.04844  -5720105.56846  22848367.916    22848366.6794   22848370.0564
        40.8004         37.8004
  -6162055.17744  -4778718.63546  23093889.642    23093890.6164   23093891.9814
        41.3004         38.6004
  -5173669.25844  -4014573.89646  23448083.362    23448081.9084   23448083.9264
        42.5004         39.7004
    139101.24843    130104.40546  23775013.943    23775014.0374   23775019.9764
        39.9004         37.3004
  -9235109.27546  -7185141.04347  21235803.392    21235803.3894   21235804.6424
        48.4004         45.4004
 19 10 19  1  5  0.0000000  0  7G25G29G14G12G02G32G31
 -18732615.06447 -14573934.77147  20389955.473    20389955.0414   20389960.7014
        50.8004         47.7004
 -24644578.97447 -19180679.10447  20322173.200    20322173.4024   20322175.5424
        50.2004         47.5004
  -7308579.82943  -5681135.80146  22857884.589    22857883.5124   22857885.7224
        40.4004         37.8004
  -6070604.04144  -4707458.01046  23111293.618    23111292.9294   23111295.6434
        41.3004         39.0004
  -5130532.54044  -3980960.86746  23456292.292    23456291.0914   23456292.0264
        42.3004         39.7004
    231187.45743    201859.87046  23792537.069    23792537.3594   23792541.6184
        39.6004         37.1004
  -9280542.05446  -7220543.19947  21227157.416    21227157.6314   21227159.2014
        48.4004         45.6004
 19 10 19  1  5 30.0000000  0  7G25G29G14G12G02G32G31
 -18697263.81847 -14546388.35647  20396683.122    20396682.1924   20396687.9124
        50.8004         47.7004
 -24673507.80747 -19203221.04847  20316667.764    20316667.9674   20316670.5914
        50.3004         47.5004
  -7258101.76943  -5641802.28846  22867490.547    22867489.9314   22867492.3384
        40.4004         37.9004
  -5979017.56744  -4636091.96346  23128722.694    23128721.3664   23128723.0574
        41.5004         38.6004
  -5086933.40644  -3946987.50846  23464589.681    23464588.5564   23464590.0214
        42.7004         40.2004
    323473.01143    273770.67346  23810098.417    23810099.1794   23810105.3934
        39.6004         37.1004
  -9325498.36346  -7255574.09647  21218602.634    21218602.9954   21218604.0634
        48.4004         45.6004
 19 10 19  1  6  0.0000000  0  7G25G29G14G12G02G32G31
 -18661549.83847 -14518559.29247  20403478.842    20403478.5724   20403483.8204
        50.7004         47.7004
 -24701917.85747 -19225358.73847  20311261.654    20311261.5444   20311264.4514
        50.2004         47.5004
  -7207159.04143  -5602106.69246  22877183.996    22877184.0804   22877186.3714
        40.4004         37.6004
  -5887296.94544  -4564621.35246  23146175.206    23146175.0444   23146178.2874
        41.5004         39.0004
  -5042873.31144  -3912654.96746  23472975.025    23472974.9974   23472973.0844
        42.9004         40.2004
    415954.74243    345834.35746  23827697.168    23827697.3234   23827702.3424
        39.7004         37.3004
  -9369976.42846  -7290232.32447  21210138.609    21210138.8444   21210140.2684
        48.4004         45.6004
 19 10 19  1  6 30.0000000  0  7G25G29G14G12G02G32G31
 -18625473.65047 -14490447.98547  20410344.090    20410343.9014   20410348.9624
        50.7004         47.7004
 -24729809.00147 -19247092.08547  20305953.978    20305954.2074   20305956.8414
        50.2004         47.5004
  -7155753.87343  -5562050.71346  22886966.077    22886966.2944   22886969.0904
        39.9004         37.3004
  -5795442.35544  -4493046.38546  23163656.176    23163655.0114   23163657.1544
        41.5004         38.6004
  -4998353.88544  -3877964.50446  23481446.519    23481445.2644   23481445.0314
        42.7004         39.9004
    508629.50743    418048.46646  23845333.122    23845332.8364   23845337.8244
        39.7004         37.3004
  -9413974.23446  -7324516.33447  21201766.207    21201766.3704   21201767.6584
        48.6004         45.6004
 19 10 19  1  7  0.0000000  0  7G25G29G14G12G02G32G31
 -18589035.73047 -14462054.80547  20417277.530    20417277.2594   20417283.0104
        50.7004         47.7004
 -24757180.67947 -19268420.65447  20300745.190    20300745.6154   20300747.9224
        50.2004         47.3004
  -7103888.30843  -5521636.01946  22896836.248    22896836.0214   22896838.2684
        40.1004         37.8004
  -5703455.05744  -4421367.97146  23181159.014    23181159.8964   23181161.6394
        41.5004         38.8004
  -4953376.33744  -3842917.06346  23490004.967    23490004.3184   23490004.6204
        42.7004         40.0004
    601494.22543    490410.57746  23863002.979    23863004.4234   23863009.6004
        39.7004         37.4004
  -9457490.24246  -7358424.91147  21193485.339    21193485.6934   21193487.2184
        48.6004         45.8004
 19 10 19  1  7 30.0000000  0  7G25G29G14G12G02G32G31
 -18552236.59847 -14433380.16747  20424280.391    20424279.8804   20424285.5954
        50.7004         47.5004
 -24784033.09847 -19289344.60547  20295635.527    20295635.6604   20295638.0004
        50.2004         47.3004
  -7051564.37743  -5480864.16946  22906793.607    22906792.2744   22906795.6224
        40.4004         37.8004
  -5611336.23444  -4349587.08846  23198690.828    23198689.8554   23198690.8774
        41.5004         38.8004
  -4907942.06144  -3807513.72446  23498650.714    23498649.3464   23498650.2954
        42.7004         40.0004
    694545.76243    562918.22346  23880712.320    23880712.4044   23880717.3214
        40.1004         37.8004
  -9500522.71646  -7391956.71847  21185296.384    21185296.5484   21185298.1144
        48.6004         45.6004
 19 10 19  1  8  0.0000000  0  7G25G29G14G12G02G32G31
 -18515076.71647 -14404424.42547  20431351.717    20431351.6134   20431357.2084
        50.7004         47.7004
 -24810366.59547 -19309864.19947  20290624.727    20290624.7684   20290627.0294
        50.2004         47.5004
  -6998784.71543  -5439737.17946  22916836.869    22916835.5194   22916839.6704
        39.9004         37.1004
  -5519086.08344  -4277703.88446  23216244.134    23216243.8164   23216244.4164
        41.3004         38.1004
  -4862052.50944  -3771755.62346  23507381.398    23507381.1804   23507382.1814
        42.7004         39.9004
    787780.93743    635569.01546  23898453.064    23898453.8264   23898459.8344
        40.3004         37.9004
  -9543070.10146  -7425110.52747  21177199.739    21177200.2094   21177201.6874
        48.4004         45.6004
 19 10 19  1  8 30.0000000  0  7G25G29G14G12G02G32G31
 -18477556.62947 -14375188.00747  20438491.983    20438491.3954   20438496.8394
        50.7004         47.7004
 -24836180.59747 -19329978.99447  20285712.512    20285712.5324   20285714.5974
        50.2004         47.5004
  -6945551.26743  -5398256.56946  22926967.530    22926967.0444   22926969.6934
        39.9004         37.6004
  -5426706.00744  -4205719.39746  23233822.957    23233824.5584   23233823.1004
        40.9004         38.3004
  -4815709.08044  -3735643.84946  23516200.846    23516199.9854   23516200.3424
        42.3004         39.5004
    881196.71643    708360.51146  23916230.100    23916230.1214   23916235.9984
        40.4004         37.9004
  -9585130.90546  -7457885.18747  21169195.980    21169195.9554   21169197.7554
        48.4004         45.4004
 19 10 19  1  9  0.0000000  0  7G25G29G14G12G02G32G31
 -18439676.79547 -14345671.26647  20445700.379    20445699.9614   20445705.4174
        50.7004         47.7004
 -24861475.19047 -19349689.04847  20280899.139    20280899.0024   20280901.0124
        50.3004         47.5004
  -6891866.23343  -5356424.11946  22937183.725    22937183.2814   22937185.1534
        40.1004         37.6004
  -5334196.15944  -4133633.80846  23251428.027    23251426.3144   23251430.1654
        40.9004         38.3004
  -4768913.20944  -3699179.52146  23525105.451    23525105.0004   23525104.9204
        42.2004         39.5004
    974789.90943    781290.24946  23934039.315    23934039.9204   23934045.2664
        40.4004         37.8004
  -9626703.14246  -7490279.14547  21161285.063    21161285.3674   21161286.7634
        48.2004         45.4004
 19 10 19  1  9 30.0000000  0  7G25G29G14G12G02G32G31
 -18401437.77847 -14315874.63247  20452976.584    20452976.2174   20452981.9654
        50.7004         47.5004
 -24886250.22747 -19368994.25747  20276184.405    20276184.6624   20276187.0864
        50.3004         47.7004
  -6837732.16843  -5314241.77046  22947484.261    22947484.0214   22947485.9054
        39.7004         36.9004
  -5241558.04044  -4061448.29246  23269055.206    23269056.1784   23269059.0554
        40.6004         37.9004
  -4721666.62144  -3662363.99946  23534097.451    23534096.1044   23534095.6864
        42.3004         39.7004
   1068557.42143    854355.84846  23951883.025    23951883.8094   23951889.6194
        40.3004         37.8004
  -9667785.22346  -7522291.16347  21153467.360    21153467.4074   21153469.2614
        48.4004         45.4004
 19 10 19  1 10  0.0000000  0  7G25G29G14G12G02G32G31
 -18362840.06247 -14285798.49847  20460321.827    20460321.1354   20460327.0714
        50.7004         47.7004
 -24910505.89747 -19387894.77347  20271568.989    20271568.9504   20271570.9184
        50.3004         47.7004
  -6783151.26043  -5271711.19446  22957868.556    22957869.4864   22957873.5504
        39.2004         36.6004
  -5148792.46843  -3989163.39446  23286707.141    23286707.6174   23286709.4484
        40.3004         37.4004
  -4673970.67844  -3625198.32746  23543173.483    23543172.6894   23543172.5414
        42.3004         39.5004
   1162496.12043    927554.82846  23969759.622    23969759.0584   23969764.5684
        39.9004         37.3004
  -9708375.83746  -7553920.21247  21145743.498    21145743.6014   21145745.2154
        48.4004         45.4004
 19 10 19  1 10 30.0000000  0  7G25G29G14G12G02G32G31
 -18323884.15847 -14255443.26347  20467734.101    20467734.1004   20467740.0514
        50.5004         47.5004
 -24934242.26447 -19406390.63447  20267052.484    20267052.4164   20267054.2594
        50.5004         47.7004
  -6728125.61843  -5228834.10146  22968341.294    22968340.9834   22968344.2774
        39.6004         37.4004
  -5055900.11643  -3916779.77346  23304384.212    23304383.5384   23304387.3174
        40.1004         37.3004
  -4625827.22244  -3587683.95146  23552334.410    23552334.6334   23552334.1184
        42.0004         39.3004
   1256602.86943   1000884.74546  23987667.191    23987667.3604   23987672.5194
        39.6004         36.9004
  -9748473.09446  -7585164.82447  21138113.655    21138113.3354   21138114.6914
        48.2004         45.4004
 19 10 19  1 11  0.0000000  0  7G25G29G14G12G02G32G31
 -18284570.61147 -14224809.34647  20475216.107    20475215.4334   20475221.2104
        50.5004         47.5004
 -24957459.41847 -19424481.91447  20262634.389    20262634.2114   20262636.1254
        50.5004         47.8004
  -6672657.79843  -5185612.48546  22978898.031    22978897.1534   22978899.3714
        40.1004         37.8004
  -4962881.68343  -3844297.90546  23322084.007    23322084.4124   23322087.5694
        39.9004         37.4004
  -4577237.40644  -3549821.75346  23561581.486    23561579.6124   23561580.4964
        42.0004         39.3004
   1350874.53243   1074343.18646  24005607.116    24005607.1164   24005612.9634
        39.2004         36.7004
  -9788075.37346  -7616023.74447  21130576.927    21130576.9754   21130578.9304
        48.2004         45.4004
 19 10 19  1 11 30.0000000  0  7G25G29G14G12G02G32G31
 -18244899.90747 -14193897.11747  20482764.645    20482764.3974   20482770.2314
        50.5004         47.5004
 -24980157.47047 -19442168.69647  20258315.004    20258314.8534   20258316.7084
        50.5004         47.7004
  -6616750.02843  -5142048.01046  22989536.303    22989535.2704   22989538.6144
        40.1004         37.4004
  -4869737.96443  -3771718.41146  23339810.212    23339809.4744   23339811.5184
        39.9004         37.3004
  -4528202.86944  -3511613.01946  23570910.773    23570910.6944   23570911.1404
        42.0004         39.3004
   1445308.04543   1147927.72946  24023575.805    24023576.2394   24023582.4004
        39.2004         36.6004
  -9827181.28246  -7646495.88447  21123135.560    21123135.3814   21123137.2234
        48.4004         45.4004
 19 10 19  1 12  0.0000000  0  7G25G29G14G12G02G32G31
 -18204872.59347 -14162707.00947  20490381.423    20490381.1454   20490387.4814
        50.5004         47.5004
 -25002336.40047 -19459450.97447  20254094.113    20254094.3364   20254096.1004
        50.5004         47.7004
  -6560404.56143  -5098142.44746  23000258.207    23000257.4264   23000261.2814
        40.1004         37.6004
  -4776470.20143  -3699042.23046  23357557.481    23357558.3054   23357561.3794
        39.7004         37.3004
  -4478725.11844  -3473058.93646  23580327.037    23580326.7724   23580327.4874
        42.2004         39.5004
   1539900.24243   1221635.90046  24041577.154    24041576.9624   24041583.1744
        39.0004         36.7004
  -9865789.23446  -7676580.00747  21115788.099    21115788.5214   21115790.3444
        48.2004         45.4004
 19 10 19  1 12 30.0000000  0  7G25G29G14G12G02G32G31
 -18164489.17547 -14131239.41647  20498066.871    20498066.3224   20498071.8544
        50.5004         47.3004
 -25023996.27847 -19476328.78747  20249972.617    20249972.3844   20249974.5924
        50.5004         47.7004
  -6503623.71243  -5053897.67846  23011063.852    23011062.6294   23011065.9544
        40.3004         37.8004
  -4683079.00743  -3626269.93746  23375332.099    23375331.2214   23375332.4634
        40.3004         37.8004
  -4428805.89644  -3434160.83446  23589826.377    23589826.1044   23589826.8044
        42.2004         39.5004
   1634648.03943   1295465.36646  24059608.676    24059608.6424   24059613.2964
        39.2004         36.9004
  -9903897.65746  -7706274.87647  21108536.786    21108536.7294   21108538.8344
        48.2004         45.4004
 19 10 19  1 13  0.0000000  0  7G25G29G14G12G02G32G31
 -18123750.22647 -14099494.79347  20505818.754    20505818.7394   20505824.0004
        50.3004         47.3004
 -25045136.93447 -19492802.01847  20245949.144    20245949.2094   20245951.3944
        50.3004         47.7004
  -6446409.97143  -5009315.58946  23021950.079    23021948.8514   23021952.6734
        39.7004         36.9004
  -4589564.95043  -3553401.83746  23393125.437    23393125.8374   23393128.8164
        40.3004         37.8004
  -4378446.71344  -3394919.90846  23599408.811    23599407.9904   23599409.6044
        42.0004         39.2004
   1729548.27843   1369413.59446  24077664.660    24077666.0094   24077670.7614
        39.2004         36.7004
  -9941504.56046  -7735578.96347  21101379.797    21101379.9134   21101382.0614
        48.2004         45.4004
 19 10 19  1 13 30.0000000  0  7G25G29G14G12G02G32G31
 -18082656.25147 -14067473.51947  20513638.563    20513638.4194   20513643.7004
        50.3004         47.2004
 -25065758.70847 -19508870.92147  20242025.288    20242025.1974   20242027.1844
        50.3004         47.7004
  -6388765.80243  -4964398.04346  23032918.643    23032918.6704   23032921.9054
        39.2004         36.7004
  -4495929.14043  -3480438.87546  23410944.555    23410943.3914   23410947.4054
        40.3004         37.8004
  -4327648.96144  -3355337.22246  23609076.410    23609075.0904   23609076.0734
        42.0004         39.2004
   1824597.82843   1443478.15146  24095754.001    24095754.1274   24095758.4634
        39.2004         36.7004
  -9978608.94346  -7764491.47447  21094319.518    21094319.6184   21094321.1984
        48.4004         45.6004
 19 10 19  1 14  0.0000000  0  7G25G29G14G12G02G32G31
 -18041207.80347 -14035176.03047  20521526.368    20521525.5434   20521531.3834
        50.3004         47.2004
 -25085861.94647 -19524535.77747  20238199.523    20238199.8644   20238201.8534
        50.3004         47.7004
  -6330693.22443  -4919146.70646  23043971.435    23043971.1214   23043972.6904
        39.6004         37.4004
  -4402172.27543  -3407381.61146  23428784.441    23428783.8714   23428788.8424
        40.3004         37.6004
  -4276414.13144  -3315413.96646  23618825.539    23618824.3434   23618826.2744
        42.0004         39.3004
   1919793.68143   1517656.73746  24113869.606    24113869.6434   24113874.6844
        39.0004         36.7004
 -10015209.36846  -7793011.29547  21087355.008    21087355.1584   21087356.5844
        48.4004         45.6004
 19 10 19  1 14 30.0000000  0  7G25G29G14G12G02G32G31
 -17999405.38947 -14002602.73647  20529480.871    20529480.7094   20529485.8204
        50.3004         47.2004
 -25105446.60647 -19539796.54047  20234472.637    20234472.7344   20234474.8544
        50.5004         47.7004
  -6272194.94443  -4873563.65746  23055102.674    23055101.7534   23055105.3054
        39.7004         37.3004
  -4308295.36843  -3334230.79546  23446649.865    23446649.4944   23446652.3224
        40.1004         37.8004
  -4224744.06544  -3275151.57446  23628656.614    23628655.9724   23628658.7004
        41.8004         39.0004
   2015132.60743   1591946.81046  24132010.109    24132011.0514   24132016.6714
        38.9004         36.2004
 -10051303.90446  -7821136.90947  21080486.407    21080486.2774   21080487.9574
        48.6004         45.8004
 19 10 19  1 15  0.0000000  0  7G25G29G14G12G02G32G31
 -17957249.60147 -13969754.06947  20537502.509    20537502.0444   20537507.8744
        50.2004         47.2004
 -25124513.02547 -19554653.48647  20230844.593    20230844.6074   20230847.0624
        50.5004         47.8004
  -6213273.34843  -4827650.71946  23066313.553    23066313.9904   23066318.1724
        39.4004         36.7004
  -4214298.94843  -3260986.83946  23464535.285    23464535.5394   23464539.1064
        40.3004         37.9004
  -4172640.44644  -3234551.35446  23638571.611    23638571.2014   23638573.7704
        41.6004         38.8004
   2110611.54243   1666345.96946  24150181.316    24150181.9044   24150185.7944
        38.7004         36.0004
 -10086891.36846  -7848867.40347  21073714.320    21073714.8154   21073715.9874
        48.6004         45.8004
 19 10 19  1 15 30.0000000  0  7G25G29G14G12G02G32G31
 -17914740.96447 -13936630.46647  20545592.482    20545591.5954   20545597.3224
        50.2004         47.2004
 -25143061.01147 -19569106.45047  20227314.895    20227314.7654   20227317.0504
        50.5004         47.8004
  -6153930.89643  -4781409.86646  23077607.886    23077607.7284   23077610.1214
        39.4004         37.1004
  -4120183.99543  -3187650.53846  23482444.471    23482444.6814   23482449.3844
        40.3004         37.6004
  -4120104.86344  -3193614.53746  23648568.909    23648569.2334   23648571.3564
        41.8004         39.3004
   2206227.39343   1740851.82845  24168373.690    24168375.8174   24168379.2014
        38.0004         35.3004
 -10121970.11946  -7876201.49547  21067039.127    21067039.0994   21067040.8824
        48.6004         45.6004
 19 10 19  1 16  0.0000000  0  7G25G29G14G12G02G32G31
 -17871880.02047 -13903232.33547  20553747.683    20553747.7944   20553753.3834
        50.2004         47.2004
 -25161091.05347 -19583155.82347  20223883.976    20223883.8094   20223886.1544
        50.5004         47.8004
  -6094170.06743  -4734843.01146  23088980.226    23088980.2894   23088982.4694
        39.7004         37.6004
  -4025951.66143  -3114222.75846  23500377.947    23500377.6134   23500380.6324
        39.9004         37.6004
  -4067139.01944  -3152342.45046  23658649.677    23658648.7324   23658649.6334
        41.8004         39.2004
   2301977.01743   1815461.95445  24186596.367    24186597.1124   24186601.7134
        37.6004         35.3004
 -10156538.79546  -7903138.12847  21060460.833    21060461.2494   21060462.6354
        48.6004         45.6004
 19 10 19  1 16 30.0000000  0  7G25G29G14G12G02G32G31
 -17828667.32947 -13869560.10847  20561971.226    20561970.6404   20561976.7314
        50.2004         47.2004
 -25178603.65047 -19596801.98747  20220551.620    20220551.2574   20220553.8404
        50.7004         47.8004
  -6033993.12943  -4687951.91046  23100430.751    23100430.4954   23100433.1614
        39.9004         37.3004
  -3931602.20643  -3040703.72846  23518331.552    23518331.5224   23518334.8444
        40.1004         37.6004
  -4013744.65744  -3110736.45146  23668811.588    23668810.4074   23668810.4074
        42.0004         39.3004
   2397857.35643   1890173.90745  24204840.628    24204841.3134   24204846.1664
        38.0004         35.7004
 -10190595.95646  -7929676.17347  21053979.537    21053979.8394   21053981.7744
        48.4004         45.4004
 19 10 19  1 17  0.0000000  0  7G25G29G14G12G02G32G31
 -17785103.46047 -13835614.24447  20570261.176    20570261.0114   20570266.4764
        50.3004         47.3004
 -25195598.52547 -19610044.74547  20217317.616    20217317.5134   20217319.7124
        50.7004         47.8004
  -5973402.69143  -4640738.57946  23111960.741    23111961.0344   23111964.2354
        39.7004         37.3004
  -3837136.47943  -2967094.08746  23536309.240    23536310.1304   23536309.6784
        40.1004         37.6004
  -3959923.08144  -3068797.54746  23679053.439    23679052.5364   23679052.0014
        42.0004         39.3004
   2493865.26843   1964985.28045  24223111.375    24223111.9954   24223116.3024
        37.6004         35.2004
 -10224140.05546  -7955814.42847  21047596.507    21047596.9514   21047598.1854
        48.2004         45.4004
 19 10 19  1 17 30.0000000  0  7G25G29G14G12G02G32G31
 -17741188.96747 -13801395.16847  20578617.648    20578617.5294   20578623.5554
        50.3004         47.3004
 -25212075.90747 -19622884.25447  20214181.916    20214181.8654   20214183.8274
        50.7004         47.8004
  -5912401.24043  -4593205.00046  23123569.580    23123569.2084   23123571.7014
        39.7004         37.3004
  -3742555.50343  -2893394.63546  23554307.719    23554307.4164   23554308.7154
        40.3004         37.8004
  -3905676.37044  -3026527.37546  23689374.675    23689374.5634   23689373.8744
        41.8004         38.8004
   2589997.67042   2039893.66145  24241404.714    24241406.2484   24241410.2414
        37.3004         35.2004
 -10257169.72646  -7981551.84347  21041311.395    21041311.3444   21041313.0194
        48.2004         45.4004
 19 10 19  1 18  0.0000000  0  7G25G29G14G12G02G32G31
 -17696924.40747 -13766903.31347  20587041.219    20587040.6024   20587046.5484
        50.3004         47.3004
 -25228036.47947 -19635321.05947  20211144.651    20211144.7614   20211146.5744
        50.5004         47.8004
  -5850991.46343  -4545353.23546  23135255.449    23135255.6034   23135258.5474
        39.9004         37.4004
  -3647860.18543  -2819606.07246  23572327.402    23572327.2824   23572329.9864
        40.4004         38.1004
  -3851006.07044  -2983927.14646  23699778.510    23699777.6354   23699777.2704
        41.6004         38.6004
   2686251.44042   2114896.59345  24259719.477    24259720.3894   24259724.3904
        37.0004         35.0004
 -10289683.64146  -8006887.36947  21035124.073    21035124.6624   21035126.2624
        48.6004         45.9004
 19 10 19  1 18 30.0000000  0  7G25G29G14G12G02G32G31
 -17652310.33647 -13732139.11147  20595530.801    20595530.6724   20595536.4994
        50.3004         47.3004
 -25243480.10247 -19647355.04747  20208205.576    20208205.6874   20208207.9754
        50.5004         47.8004
  -5789175.60743  -4497185.04746  23147019.086    23147018.5904   23147021.1054
        39.7004         37.1004
  -3553051.30743  -2745729.06646  23590370.358    23590369.5334   23590370.1684
        40.3004         37.8004
  -3795914.01444  -2940998.28046  23710262.452    23710261.4764   23710260.3664
        41.6004         38.8004
   2782623.51542   2189991.74545  24278060.608    24278060.0584   24278067.2484
        37.0004         35.0004
 -10321680.46246  -8031819.95947  21029035.517    21029035.6194   21029037.2544
        48.8004         45.8004
 19 10 19  1 19  0.0000000  0  7G25G29G14G12G02G32G31
 -17607347.34047 -13697103.02347  20604087.062    20604086.6124   20604092.6854
        50.5004         47.3004
 -25258407.74147 -19658986.97147  20205365.339    20205365.3434   20205367.0444
        50.7004         47.8004
  -5726956.22943  -4448702.42946  23158857.380    23158856.6444   23158860.3674
        39.2004         36.6004
  -3458129.79343  -2671764.27546  23608432.741    23608432.5494   23608432.5924
        40.3004         37.6004
  -3740401.52244  -2897741.79146  23720824.876    23720824.6964   23720824.7334
        41.5004         38.8004
   2879110.77842   2265176.59545  24296420.024    24296418.5304   24296427.6404
        36.8004         35.0004
 -10353158.61346  -8056348.38747  21023045.592    21023045.4564   21023047.0014
        48.8004         45.8004
 19 10 19  1 19 30.0000000  0  7G25G29G14G12G02G32G31
 -17562035.99047 -13661795.48547  20612709.315    20612709.2944   20612714.9604
        50.3004         47.3004
 -25272818.97047 -19670216.49648  20202623.107    20202623.0224   20202624.6974
        50.7004         48.0004
  -5664336.07943  -4399907.52446  23170774.030    23170774.1864   23170777.6274
        39.2004         36.7004
  -3363096.09243  -2597712.05046  23626514.642    23626515.6344   23626518.2774
        39.9004         37.3004
  -3684470.66244  -2854159.31446  23731467.887    23731467.2774   23731468.9724
        41.5004         38.8004
   2975710.18042   2340448.86645  24314802.645    24314803.2574   24314807.9724
        36.8004         35.0004
 -10384116.57946  -8080471.48247  21017154.179    21017154.5474   21017155.7294
        48.6004         45.8004
 19 10 19  1 20  0.0000000  0  7G25G29G14G12G02G32G31
 -17516376.85347 -13626216.94947  20621398.516    20621397.8074   20621403.5884
        50.5004         47.3004
 -25286714.48747 -19681044.16348  20199978.593    20199978.5894   20199981.0134
        50.7004         48.0004
  -5601317.45943  -4350802.15646  23182766.683    23182765.2634   23182769.6364
        39.2004         36.9004
  -3267950.99243  -2523573.05146  23644621.091    23644621.2154   23644623.1254
        39.7004         36.9004
  -3628123.13444  -2810252.14246  23742190.823    23742189.6894   23742191.7254
        41.5004         38.8004
   3072418.62942   2415806.09545  24333206.203    24333206.5094   24333210.4454
        36.6004         34.8004
 -10414553.27846  -8104188.38947  21011362.207    21011362.4824   21011364.0234
        48.6004         45.8004
 19 10 19  1 20 30.0000000  0  7G25G29G14G12G02G32G31
 -17470370.50447 -13590367.85447  20630153.153    20630152.6774   20630158.5104
        50.5004         47.3004
 -25300094.83647 -19691470.41248  20197432.362    20197432.5164   20197434.6984
        50.7004         48.0004
  -5537903.03643  -4301388.33246  23194833.524    23194833.4014   23194837.3574
        39.2004         36.7004
  -3172695.51643  -2449348.02846  23662746.887    23662746.5594   23662751.2034
        39.4004         36.7004
  -3571360.68644  -2766021.64146  23752991.629    23752991.0824   23752992.7604
        41.5004         38.8004
   3169232.96042   2491245.79245  24351628.058    24351628.4254   24351634.3884
        36.8004         34.6004
 -10444467.04246  -8127497.82047  21005669.505    21005669.8684   21005671.6164
        48.6004         45.8004
 19 10 19  1 21  0.0000000  0  7G25G29G14G12G02G32G31
 -17424017.52147 -13554248.65847  20638973.302    20638973.1684   20638979.2314
        50.3004         47.3004
 -25312960.03047 -19701495.23048  20194983.935    20194984.1774   20194986.3754
        50.7004         48.0004
  -5474095.40543  -4251668.11446  23206975.944    23206975.6914   23206978.0934
        39.4004         37.1004
  -3077330.35943  -2375037.55146  23680893.986    23680894.7814   23680897.6904
        39.2004         36.7004
  -3514185.17944  -2721469.32546  23763871.778    23763871.1564   23763874.3034
        41.5004         39.0004
   3266150.22442   2566765.77245  24370071.627    24370071.9034   24370079.6904
        36.3004         34.1004
 -10473857.22846  -8150399.27147  21000076.822    21000077.1824   21000078.9914
        48.6004         45.8004
 19 10 19  1 21 30.0000000  0  7G25G29G14G12G02G32G31
 -17377318.52247 -13517859.83947  20647860.165    20647859.8854   20647865.3984
        50.3004         47.3004
 -25325310.51147 -19711118.97348  20192633.531    20192633.9264   20192636.2084
        50.7004         48.0004
  -5409897.10343  -4201643.50346  23219192.065    23219192.1784   23219194.5714
        39.6004         37.1004
  -2981856.43543  -2300642.30446  23699063.021    23699062.8994   23699065.1844
        39.2004         36.7004
  -3456598.13744  -2676596.29246  23774830.923    23774830.2194   23774831.5514
        41.5004         38.8004
   3363167.23042   2642363.49245  24388529.699    24388532.3004   24388536.6944
        35.7004         33.6004
 -10502721.99146  -8172891.29147  20994584.239    20994584.5124   20994586.2104
        48.6004         45.8004
 19 10 19  1 22  0.0000000  0  7G25G29G14G12G02G32G31
 -17330274.04247 -13481201.80947  20656812.265    20656812.2544   20656817.6124
        50.3004         47.3004
 -25337147.01147 -19720342.21448  20190381.375    20190381.5624   20190383.6924
        50.7004         48.0004
  -5345310.40443  -4151316.21946  23231482.123    23231482.3784   23231485.5514
        39.2004         36.7004
  -2886274.71343  -2226163.07646  23717252.196    23717251.1224   23717253.6574
        39.4004         36.9004
  -3398601.49544  -2631404.07446  23785867.975    23785867.2684   23785868.1944
        41.6004         39.0004
   3460281.01842   2718036.55545  24407012.929    24407012.7784   24407017.9854
        35.2004         33.6004
 -10531060.41946  -8194973.18247  20989191.631    20989191.4344   20989193.3294
        48.8004         45.8004
 19 10 19  1 22 30.0000000  0  8G26G25G29G14G12G02G32G31
                   -191111.42656  23437235.291                    23437241.3214
                        36.7004
 -17282884.69447 -13444275.04947  20665830.003    20665829.9764   20665835.5024
        50.2004         47.2004
 -25348469.38947 -19729164.83848  20188226.901    20188226.6184   20188229.3074
        50.7004         48.0004
  -5280338.65243  -4100688.87146  23243846.889    23243845.2654   23243849.5564
        39.0004         36.7004
  -2790585.64743  -2151600.18646  23735462.197    23735460.7574   23735461.9534
        39.2004         36.7004
  -3340196.92644  -2585894.02146  23796982.118    23796980.7014   23796981.8154
        41.5004         38.8004
   3557488.40942   2793782.51545  24425510.949    24425511.7804   24425518.6114
        35.9004         34.1004
 -10558871.12946  -8216643.86347  20983899.504    20983899.2494   20983901.3464
        48.8004         45.9004
 19 10 19  1 23  0.0000000  0  8G26G25G29G14G12G02G32G31
   -360626.05343   -262372.26546  23419833.967    23419832.0894   23419838.7784
        38.7004         36.9004
 -17235151.07947 -13407080.03147  20674913.803    20674913.4404   20674918.9304
        50.2004         47.0004
 -25359278.36247 -19737587.41248  20186169.924    20186170.0554   20186172.4884
        50.8004         48.2004
  -5214984.10643  -4049763.27946  23256283.924    23256283.9364   23256286.8944
        39.4004         36.9004
  -2694789.97643  -2076954.21646  23753690.177    23753690.4624   23753692.7164
        39.4004         36.9004
  -3281386.41044  -2540067.64046  23808173.385    23808172.2254   23808172.9564
        41.5004         38.6004
   3654786.34742   2869599.10945  24444025.689    24444026.8144   24444029.8324
        35.7004         34.0004
 -10586152.50946  -8237902.09147  20978707.528    20978708.1294   20978709.6724
        48.8004         45.8004
 19 10 19  1 23 30.0000000  0  8G26G25G29G14G12G02G32G31
   -451968.90143   -333548.48046  23402450.386    23402450.2004   23402456.1604
        39.2004         36.9004
 -17187073.80047 -13369617.23347  20684062.522    20684062.3304   20684068.2124
        50.2004         47.2004
 -25369574.22747 -19745610.16348  20184210.425    20184210.5944   20184213.2314
        50.7004         48.0004
  -5149249.36843  -3998541.46946  23268790.989    23268791.7124   23268795.1984
        39.0004         36.2004
  -2598888.61443  -2002225.92746  23771939.726    23771940.0334   23771941.4534
        39.2004         36.7004
  -3222171.68444  -2493926.28246  23819441.148    23819440.3884   23819441.7434
        41.1004         38.5004
   3752171.85342   2945483.91345  24462556.380    24462558.2794   24462562.5184
        35.2004         33.6004
 -10612903.62146  -8258747.11847  20973617.365    20973617.7144   20973619.2704
        48.6004         45.8004
 19 10 19  1 24  0.0000000  0  8G26G25G29G14G12G02G32G31
   -543202.10053   -404639.26756  23385089.401    23385089.3274   23385095.9174
        39.4004         36.9004
 -17138653.44047 -13331887.09747  20693277.116    20693276.6484   20693281.9954
        50.2004         47.2004
 -25379357.73347 -19753233.66948  20182349.288    20182349.1284   20182351.3484
        50.8004         48.2004
  -5083137.12943  -3947025.43846  23281370.761    23281371.2554   23281376.0484
        38.5004         36.2004
  -2502882.50743  -1927416.00946  23790209.119    23790209.5604   23790211.8654
        39.2004         36.7004
  -3162554.64644  -2447471.44646  23830784.812    23830783.9994   23830785.9654
        40.9004         38.3004
   3849641.87542   3021434.57245  24481106.809    24481106.8624   24481110.7274
        34.9004         33.4004
 -10639123.51946  -8279178.21347  20968627.830    20968628.1384   20968629.8854
        48.8004         45.9004
 19 10 19  1 24 30.0000000  0  8G26G25G29G14G12G02G32G31
   -634324.59943   -475643.80046  23367749.426    23367749.2584   23367755.4834
        39.7004         37.3004
 -17089890.61547 -13293890.10347  20702556.746    20702556.1574   20702561.3924
        50.2004         47.2004
 -25388629.07047 -19760458.08448  20180584.969    20180584.6794   20180587.0274
        50.8004         48.0004
  -5016649.82543  -3895217.17946  23294024.850    23294024.5164   23294027.4024
        38.5004         36.2004
  -2406772.40943  -1852525.04246  23808497.441    23808497.3744   23808501.1274
        39.0004         36.7004
  -3102536.95444  -2400704.39846  23842206.494    23842205.9434   23842206.5534
        40.9004         38.3004
   3947193.19642   3097448.60845  24499667.292    24499669.2224   24499674.4874
        35.2004         33.8004
 -10664810.64746  -8299194.15747  20963740.484    20963740.2974   20963741.5134
        48.8004         45.9004
 19 10 19  1 25  0.0000000  0  8G26G25G29G14G12G02G32G31
   -725335.36043   -546561.25646  23350430.337    23350429.9294   23350436.5674
        40.1004         37.8004
 -17040785.91647 -13255626.71047  20711900.249    20711899.9814   20711905.4604
        50.0004         47.0004
 -25397389.00647 -19767284.00548  20178917.897    20178918.0374   20178920.2494
        50.8004         48.2004
  -4949790.22843  -3843118.80746  23306748.135    23306747.5364   23306749.9334
        38.3004         36.0004
  -2310559.05643  -1777553.61446  23826806.055    23826806.3224   23826809.7214
        39.0004         36.7004
  -3042120.50844  -2353626.64246  23853703.061    23853702.7084   23853704.8934
        41.1004         38.8004
   4044822.89242   3173523.72745  24518247.705    24518248.8094   24518254.3924
        35.9004         34.3004
 -10689963.40846  -8318793.70547  20958953.756    20958953.7154   20958954.8774
        48.8004         45.9004
 19 10 19  1 25 30.0000000  0  8G26G25G29G14G12G02G32G31
   -816233.32744   -617390.82846  23333133.123    23333133.4424   23333139.7984
        40.6004         38.1004
 -16991339.97447 -13217097.41547  20721309.389    20721309.3384   20721314.4584
        50.0004         47.0004
 -25405637.75047 -19773711.60248  20177348.076    20177348.3474   20177350.1234
        50.8004         48.2004
  -4882561.18443  -3790732.53945  23319540.773    23319540.2624   23319543.8574
        38.2004         35.9004
  -2214243.37543  -1702502.46146  23845136.505    23845135.5974   23845137.6854
        39.0004         36.7004
  -2981307.06444  -2306239.55446  23865275.335    23865274.4094   23865277.1064
        41.1004         38.6004
   4142527.86742   3249657.50445  24536840.271    24536840.0384   24536847.0294
        36.4004         34.8004
 -10714581.36746  -8337976.54147  20954269.220    20954269.1884   20954270.3364
        48.9004         45.9004
 19 10 19  1 26  0.0000000  0  8G26G25G29G14G12G02G32G31
   -907017.43944   -688131.67646  23315858.583    23315857.9084   23315864.1154
        40.9004         38.5004
 -16941553.37947 -13178302.67847  20730783.886    20730783.2574   20730788.9634
        50.0004         46.8004
 -25413375.71747 -19779741.17848  20175875.938    20175875.7444   20175877.6934
        50.8004         48.2004
  -4814965.22043  -3738060.34345  23332404.107    23332403.4464   23332408.4484
        38.2004         35.9004
  -2117825.86143  -1627371.95046  23863484.856    23863483.3514   23863486.3954
        39.0004         36.6004
  -2920098.59944  -2258544.63746  23876922.646    23876922.2184   23876924.7964
        41.3004         38.6004
   4240305.19642   3325847.62645  24555445.511    24555446.5704   24555451.9344
        36.4004         34.3004
 -10738663.17146  -8356741.58747  20949686.114    20949686.3894   20949687.3944
        48.8004         45.8004
 19 10 19  1 26 30.0000000  0  8G26G25G29G14G12G02G32G31
   -997686.61344   -758782.95646  23298603.550    23298603.7524   23298610.3994
        41.1004         38.6004
 -16891426.75847 -13139242.98647  20740322.281    20740321.8884   20740327.3994
        49.8004         46.6004
 -25420603.77047 -19785373.42648  20174500.065    20174500.3994   20174502.4904
        51.0004         48.4004
  -4747005.19343  -3685104.52545  23345334.758    23345335.1644   23345339.7654
        37.8004         35.5004
  -2021307.57243  -1552162.89846  23881849.251    23881850.4394   23881851.3284
        38.9004         36.4004
  -2858497.20744  -2210543.55746  23888645.767    23888644.7804   23888646.5634
        41.1004         38.6004
   4338151.68942   3402091.62545  24574066.264    24574065.8644   24574070.3684
        36.1004         34.1004
 -10762207.58546  -8375087.89647  20945205.881    20945206.3274   20945207.2744
        48.8004         45.8004
 19 10 19  1 27  0.0000000  0  8G26G25G29G14G12G02G32G31
  -1088239.74444   -829343.83846  23281372.326    23281372.5454   23281378.0504
        41.3004         38.6004
 -16840960.71947 -13099918.81047  20749925.712    20749925.3424   20749930.6084
        49.6004         46.6004
 -25427322.68647 -19790608.93848  20173221.976    20173221.5394   20173223.9644
        51.0004         48.4004
  -4678683.61943  -3631866.98045  23358336.694    23358336.8264   23358340.4764
        37.8004         35.7004
  -1924689.20243  -1476875.89746  23900236.631    23900235.1964   23900237.5394
        38.5004         36.0004
  -2796504.40344  -2162237.46646  23900443.377    23900442.9974   23900444.1104
        41.5004         38.8004
   4436064.27442   3478387.13245  24592696.092    24592698.5054   24592702.4624
        35.9004         34.3004
 -10785213.55546  -8393014.64147  20940827.926    20940828.3714   20940829.7354
        48.8004         45.9004
 19 10 19  1 27 30.0000000  0  8G26G25G29G14G12G02G32G31
  -1178675.77444   -899813.46146  23264162.273    23264163.0044   23264168.4404
        41.1004         38.3004
 -16790155.87347 -13060330.63547  20759593.674    20759593.4084   20759599.0524
        49.6004         46.6004
 -25433532.40647 -19795447.68348  20172039.725    20172040.1574   20172042.3394
        51.0004         48.4004
  -4610003.28943  -3578349.84246  23371407.340    23371406.4354   23371410.5644
        38.3004         36.2004
  -1827971.36443  -1401511.36246  23918640.778    23918639.4044   23918642.0834
        38.3004         36.0004
  -2734122.20744  -2113627.97146  23912313.866    23912313.4814   23912313.7384
        41.5004         38.8004
   4534040.06042   3554731.94045  24611343.968    24611344.3514   24611346.7674
        36.1004         34.3004
 -10807679.94846  -8410520.92147  20936553.040    20936553.0584   20936554.6834
        48.9004         46.1004
 19 10 19  1 28  0.0000000  0  8G26G25G29G14G12G02G32G31
  -1268993.64144   -970191.00246  23246975.518    23246975.6954   23246981.1174
        41.1004         38.5004
 -16739012.87247 -13020478.94847  20769325.777    20769325.7304   20769330.9944
        49.6004         46.6004
 -25439233.78747 -19799890.31148  20170955.330    20170955.4144   20170957.1674
        51.0004         48.4004
  -4540966.62043  -3524555.06746  23384544.693    23384544.5744   23384547.3444
        38.5004         36.2004
  -1731154.90843  -1326070.00445  23937062.760    23937062.0124   23937067.3544
        38.2004         35.9004
  -2671352.45644  -2064716.49546  23924259.222    23924257.6024   23924258.7424
        41.3004         38.6004
   4632075.97142   3631123.56945  24629998.109    24629997.9664   24630004.1894
        36.1004         34.1004
 -10829605.56946  -8427605.83047  20932380.481    20932380.5834   20932382.4844
        48.9004         46.1004
 19 10 19  1 28 30.0000000  0  8G26G25G29G14G12G02G32G31
  -1359192.25544  -1040475.62546  23229812.150    23229811.6244   23229817.5254
        41.3004         38.8004
 -16687532.32747 -12980364.25447  20779122.480    20779121.9054   20779127.5374
        49.6004         46.6004
 -25444427.25047 -19803937.16448  20169967.519    20169967.2714   20169969.0584
        51.2004         48.5004
  -4471576.91543  -3470485.17646  23397748.999    23397748.7914   23397751.8454
        38.9004         36.6004
  -1634240.69943  -1250552.46546  23955503.482    23955504.0114   23955509.3614
        38.5004         36.4004
  -2608197.33944  -2015504.69246  23936278.018    23936276.4824   23936277.0044
        41.1004         38.5004
   4730169.03442   3707559.72645  24648666.144    24648665.6254   24648670.6014
        36.3004         34.5004
 -10850989.22246  -8444268.42147  20928311.171    20928311.2544   20928312.8504
        48.9004         45.9004
 19 10 19  1 29  0.0000000  0  8G26G25G29G14G12G02G32G31
  -1449270.52444  -1110666.47846  23212669.217    23212669.9544   23212676.4324
        41.6004         39.0004
 -16635714.86747 -12939987.03247  20788983.148    20788982.9474   20788988.0254
        49.6004         46.6004
 -25449113.68947 -19807588.94048  20169075.387    20169075.2334   20169077.2364
        51.0004         48.4004
  -4401836.85443  -3416142.27646  23411020.754    23411020.3104   23411023.0364
        38.9004         36.6004
  -1537229.71643  -1174959.49146  23973964.943    23973966.4164   23973970.8784
        39.0004         36.9004
  -2544658.30444  -1965993.74846  23948368.392    23948366.9054   23948368.3354
        40.9004         38.3004
   4828316.15242   3784037.91345  24667341.701    24667343.5574   24667344.5764
        36.4004         34.5004
 -10871829.93546  -8460507.96147  20924345.551    20924345.6964   20924347.1124
        48.8004         45.9004
 19 10 19  1 29 30.0000000  0  8G26G25G29G14G12G02G32G31
  -1539227.31444  -1180762.67446  23195552.087    23195552.5434   23195558.0734
        41.8004         39.3004
 -16583561.12647 -12899347.76447  20798907.094    20798907.1264   20798912.6014
        49.6004         46.6004
 -25453294.00047 -19810846.32648  20168279.316    20168279.7074   20168281.4624
        51.0004         48.4004
  -4331748.81343  -3361528.22346  23424358.166    23424358.1784   23424359.4824
        38.9004         36.6004
  -1440122.48743  -1099291.56646  23992447.471    23992446.4144   23992450.0924
        39.4004         37.1004
  -2480737.58044  -1916185.39046  23960530.776    23960530.6344   23960531.7694
        40.8004         38.1004
   4926514.30342   3860555.93645  24686027.926    24686027.9294   24686034.1554
        36.4004         34.5004
 -10892126.97846  -8476323.84047  20920482.971    20920483.2074   20920484.7064
        48.8004         46.1004
 19 10 19  1 30  0.0000000  0  8G26G25G29G14G12G02G32G31
  -1629061.57644  -1250763.38246  23178457.579    23178457.2414   23178463.3434
        42.2004         39.5004
 -16531071.75247 -12858446.97247  20808896.658    20808895.8994   20808901.0784
        49.8004         46.6004
 -25456968.23747 -19813709.36248  20167580.542    20167580.6284   20167582.5734
        51.0004         48.4004
  -4261315.71443  -3306645.31546  23437760.745    23437760.4494   23437763.4664
        38.7004         36.4004
  -1342919.87743  -1023549.27746  24010944.035    24010943.3374   24010946.2234
        39.6004         37.1004
  -2416437.01644  -1866081.05546  23972767.033    23972767.5404   23972768.8414
        40.6004         37.9004
   5024760.48442   3937111.40945  24704724.623    24704722.7594   24704727.3724
        36.3004         34.3004
 -10911879.35146  -8491715.29647  20916724.392    20916724.5414   20916726.0674
        48.9004         46.1004
 19 10 19  1 30 30.0000000  0  8G26G25G29G14G12G02G32G31
  -1718772.16144  -1320667.71946  23161386.947    23161386.1174   23161391.4474
        42.2004         39.5004
 -16478247.38547 -12817285.13447  20818947.800    20818947.6844   20818953.3594
        49.6004         46.6004
 -25460136.92147 -19816178.46648  20166977.518    20166977.5914   20166979.3204
        51.0004         48.4004
  -4190540.23143  -3251495.60845  23451227.627    23451227.6954   23451231.6044
        38.3004         35.9004
  -1245622.63043   -947733.23846  24029456.347    24029457.8154   24029460.8454
        39.6004         37.1004
  -2351758.50543  -1815682.20646  23985075.158    23985073.6884   23985075.7924
        40.4004         37.8004
   5123051.78542   4013702.04145  24723428.403    24723428.8414   24723432.2424
        36.3004         34.3004
 -10931085.78746  -8506681.36347  20913069.658    20913069.7674   20913071.0694
        49.1004         46.1004
 19 10 19  1 31  0.0000000  0  8G26G25G29G14G12G02G32G31
  -1808357.99544  -1390474.84546  23144338.818    23144338.6384   23144344.1764
        42.0004         39.3004
 -16425088.63347 -12775862.74747  20829063.754    20829063.6244   20829068.9984
        49.6004         46.6004
 -25462801.21147 -19818254.53348  20166470.273    20166470.5044   20166472.4394
        51.0004         48.4004
  -4119425.45643  -3196081.49946  23464759.787    23464759.9824   23464764.2494
        38.3004         36.2004
  -1148231.63543   -871844.17946  24047991.278    24047990.3734   24047992.9794
        39.2004         36.7004
  -2286704.29544  -1764990.61446  23997455.035    23997454.3444   23997454.3634
        40.6004         37.9004
   5221385.15342   4090325.45545  24742140.289    24742141.6124   24742146.2794
        36.1004         34.1004
 -10949745.43146  -8521221.34647  20909518.511    20909518.8144   20909520.3274
        49.1004         46.1004
 19 10 19  1 31 30.0000000  0  8G26G25G29G14G12G02G32G31
  -1897817.95344  -1460183.88346  23127314.870    23127314.5474   23127320.4724
        42.0004         39.2004
 -16371596.17047 -12734180.32847  20839243.519    20839242.9334   20839248.5444
        49.8004         46.6004
 -25464961.47547 -19819937.85448  20166059.840    20166059.6984   20166061.3784
        51.2004         48.4004
  -4047973.99543  -3140405.04646  23478357.426    23478358.4434   23478361.2054
        38.9004         36.6004
  -1050747.35043   -795882.41746  24066541.653    24066540.8644   24066544.1414
        38.9004         36.4004
  -2221275.90644  -1714007.42846  24009905.383    24009905.0304   24009906.0944
        40.9004         38.5004
   5319757.66442   4166979.37945  24760860.197    24760861.5084   24760865.9934
        35.7004         34.1004
 -10967857.20046  -8535334.42047  20906072.272    20906072.4004   20906073.5934
        48.9004         46.1004
 19 10 19  1 32  0.0000000  0  8G26G25G29G14G12G02G32G31
  -1987150.90544  -1529793.95746  23110315.916    23110315.7354   23110320.8924
        41.6004         39.0004
 -16317770.64847 -12692238.37447  20849486.568    20849485.6794   20849491.1594
        49.8004         46.6004
 -25466618.33847 -19821228.90748  20165744.448    20165744.1414   20165746.1294
        51.2004         48.5004
  -3976188.63343  -3084468.41246  23492018.388    23492018.5714   23492021.0434
        38.9004         36.6004
   -953170.77243   -719848.73146  24085107.635    24085108.7034   24085112.8354
        38.9004         36.4004
  -2155475.49644  -1662734.38246  24022425.149    24022425.6034   24022426.9004
        40.9004         38.3004
   5418166.25842   4243661.41545  24779587.041    24779587.9464   24779591.5044
        35.6004         34.0004
 -10985420.12646  -8549019.82347  20902730.126    20902730.4474   20902731.9054
        48.9004         46.1004
 19 10 19  1 32 30.0000000  0  8G26G25G29G14G12G02G32G31
  -2076355.72644  -1599304.18546  23093340.270    23093340.4694   23093345.5804
        41.6004         38.8004
 -16263612.71447 -12650037.40047  20859792.016    20859791.6624   20859796.6914
        49.6004         46.6004
 -25467773.00047 -19822128.63848  20165524.274    20165524.2144   20165526.3584
        51.2004         48.4004
  -3904071.83843  -3028273.52646  23505740.871    23505740.9524   23505745.2474
        38.9004         36.4004
   -855502.71443   -643743.76146  24103693.802    24103694.7534   24103698.5914
        38.7004         36.4004
  -2089305.07744  -1611173.02246  24035015.852    24035016.8394   24035018.1424
        40.6004         37.8004
   5516607.91442   4320369.18845  24798320.274    24798320.1004   24798321.4314
        35.7004         34.1004
 -11002433.31246  -8562276.85847  20899492.465    20899493.1114   20899494.3454
        49.1004         46.1004
 19 10 19  1 33  0.0000000  0  8G26G25G29G14G12G02G32G31
  -2165431.27144  -1668713.69346  23076390.105    23076389.7174   23076394.5704
        41.3004         38.6004
 -16209123.01847 -12607577.91347  20870161.271    20870160.8454   20870166.0744
        49.6004         46.6004
 -25468425.78547 -19822637.30348  20165400.000    20165399.8864   20165402.1124
        51.2004         48.4004
  -3831626.94143  -2971822.96146  23519526.453    23519525.7974   23519530.5584
        38.5004         36.0004
   -757744.01443   -567568.19346  24122298.996    24122297.8404   24122300.0404
        38.9004         36.6004
  -2022766.20143  -1559324.54446  24047678.286    24047678.5884   24047680.4994
        40.4004         37.9004
   5615079.77942   4397100.51345  24817057.689    24817058.7924   24817063.2184
        35.9004         34.1004
 -11018895.99846  -8575104.93347  20896360.032    20896360.1684   20896361.5514
        48.9004         46.1004
 19 10 19  1 33 30.0000000  0  8G26G25G29G14G12G02G32G31
  -2254376.44444  -1738021.61346  23059463.797    23059464.3714   23059468.7274
        41.1004         38.6004
 -16154302.21746 -12564860.41647  20880592.011    20880592.1614   20880598.3414
        49.5004         46.5004
 -25468577.76547 -19822755.72748  20165371.015    20165371.2104   20165373.2934
        51.2004         48.5004
  -3758856.56943  -2915118.80246  23533374.820    23533374.9514   23533376.4334
        38.3004         36.2004
   -659895.46243   -491322.57746  24140919.098    24140917.8704   24140921.4244
        39.0004         36.7004
  -1955861.87043  -1507191.28946  24060410.515    24060409.2334   24060411.7944
        40.3004         37.6004
   5713578.70442   4473852.90345  24835801.523    24835801.6434   24835806.6574
        36.4004         34.6004
 -11034807.21846  -8587503.28947  20893332.260    20893332.4214   20893333.7754
        48.8004         45.9004
 19 10 19  1 34  0.0000000  0  8G26G25G29G14G12G02G32G31
  -2343190.08244  -1807227.03546  23042562.762    23042563.1904   23042568.5314
        41.3004         38.8004
 -16099150.96146 -12521885.42847  20891087.327    20891087.0984   20891093.2754
        49.5004         46.5004
 -25468229.25147 -19822484.15448  20165437.413    20165437.5324   20165439.6854
        51.2004         48.5004
  -3685763.55643  -2858163.22945  23547284.066    23547283.0774   23547286.9164
        38.3004         35.9004
   -561957.62043   -415007.36946  24159552.373    24159553.5234   24159556.6554
        39.2004         36.7004
  -1888593.11043  -1454774.06846  24073212.182    24073211.7604   24073212.3094
        40.3004         37.6004
   5812101.84742   4550624.23845  24854549.973    24854549.2944   24854554.9954
        37.0004         35.2004
 -11050165.93846  -8599471.12947  20890409.011    20890409.4394   20890410.6644
        48.8004         45.8004
 19 10 19  1 34 30.0000000  0  8G26G25G29G14G12G02G32G31
  -2431871.03844  -1876329.06046  23025687.384    23025687.2624   23025692.7934
        41.3004         38.8004
 -16043669.93346 -12478653.46847  20901645.652    20901644.6924   20901650.8394
        49.5004         46.3004
 -25467381.30747 -19821823.41648  20165598.873    20165598.7294   20165601.2044
        51.2004         48.5004
  -3612350.56543  -2800958.27345  23561254.000    23561254.1674   23561257.2604
        38.2004         35.9004
   -463931.12543   -338623.11446  24178207.734    24178207.2764   24178211.1404
        38.9004         36.2004
  -1820962.28143  -1402074.71046  24086082.139    24086080.9944   24086081.8994
        40.3004         37.6004
   5910646.11842   4627411.99445  24873302.436    24873302.8884   24873307.4974
        37.3004         35.3004
 -11064971.28346  -8611007.77247  20887591.880    20887591.9154   20887593.0584
        48.8004         45.8004
 19 10 19  1 35  0.0000000  0  8G26G25G29G14G12G02G32G31
  -2520418.13644  -1945326.79046  23008837.300    23008837.2374   23008843.4674
        41.8004         39.3004
 -15987859.79446 -12435165.06647  20912265.175    20912265.1544   20912271.1204
        49.5004         46.3004
 -25466034.41347 -19820773.89048  20165855.208    20165855.2224   20165857.3204
        51.2004         48.5004
  -3538620.84643  -2743506.58145  23575284.048    23575284.0134   23575287.0644
        38.0004         35.7004
   -365816.98543   -262170.57046  24196880.281    24196879.9374   24196881.8434
        38.5004         36.2004
  -1752971.29043  -1349094.71746  24099020.596    24099020.2214   24099020.0244
        40.3004         37.8004
   6009208.77942   4704214.09445  24892058.636    24892058.3164   24892063.2944
        37.1004         35.2004
 -11079222.63846  -8622112.72847  20884879.535    20884879.8374   20884881.2294
        48.6004         45.6004
 19 10 19  1 35 30.0000000  0  8G26G25G29G14G12G02G32G31
  -2608830.29244  -2014219.37746  22992013.412    22992013.2324   22992019.5424
        42.0004         39.5004
 -15931721.20146 -12391420.72747  20922948.946    20922948.5384   20922953.6254
        49.5004         46.3004
 -25464189.30547 -19819336.13748  20166206.093    20166206.1284   20166208.2964
        51.2004         48.5004
  -3464576.83543  -2685809.97545  23589374.566    23589374.6714   23589378.5734
        38.0004         35.9004
   -267616.13043   -185650.46246  24215567.314    24215566.5984   24215567.0324
        38.5004         36.0004
  -1684622.27443  -1295835.73646  24112027.671    24112027.1514   24112026.4544
        40.4004         38.1004
   6107786.84342   4781028.16745  24910816.466    24910817.5624   24910821.4664
        36.8004         34.8004
 -11092919.04646  -8632785.25047  20882273.870    20882273.7234   20882274.8884
        48.6004         45.8004
 19 10 19  1 36  0.0000000  0  8G26G25G29G14G12G02G32G31
  -2697106.30244  -2083005.86046  22975214.241    22975214.4874   22975220.6794
        42.2004         39.5004
 -15875254.85246 -12347420.98147  20933693.999    20933693.4164   20933698.5604
        49.3004         46.3004
 -25461847.09247 -19817511.03448  20166651.526    20166651.7414   20166653.9944
        51.0004         48.4004
  -3390221.53343  -2627870.76545  23603523.323    23603522.9374   23603526.6574
        38.0004         35.7004
   -169328.84643   -109062.94646  24234270.193    24234269.6934   24234271.5664
        38.5004         36.0004
  -1615917.08644  -1242299.19546  24125102.231    24125101.3544   24125102.4634
        40.6004         37.9004
   6206377.26242   4857851.88945  24929577.187    24929576.7574   24929584.2134
        36.3004         34.5004
 -11106059.90946  -8643024.89747  20879773.442    20879773.6324   20879774.3534
        48.8004         45.8004
 19 10 19  1 36 30.0000000  0  8G26G25G29G14G12G02G32G31
  -2785245.03844  -2151685.37746  22958442.216    22958442.3634   22958448.0464
        42.2004         39.3004
 -15818461.40346 -12303166.36347  20944501.165    20944500.8154   20944506.6244
        49.3004         46.3004
 -25459008.69047 -19815299.28948  20167191.933    20167191.8114   20167194.0564
        51.0004         48.4004
  -3315557.80143  -2569691.27445  23617732.604    23617731.6174   23617734.0704
        37.8004         35.7004
    -70956.65843    -32409.30246  24252992.268    24252991.3974   24252990.1174
        38.5004         36.2004
  -1546857.78443  -1188486.76546  24138244.313    24138242.2224   24138242.7124
        40.4004         37.9004
   6304977.10442   4934682.97245  24948341.018    24948341.0784   24948346.4374
        35.9004         34.1004
 -11118644.36046  -8652830.95947  20877378.224    20877378.5984   20877379.7924
        48.8004         45.9004
 19 10 19  1 37  0.0000000  0  8G26G25G29G14G12G02G32G31
  -2873245.23744  -2220256.96746  22941696.862    22941696.7894   22941702.3324
        42.2004         39.5004
 -15761341.54746 -12258657.39147  20955370.012    20955370.1184   20955375.6424
        49.1004         46.1004
 -25455674.77247 -19812701.43048  20167826.117    20167826.1864   20167828.4814
        51.0004         48.4004
  -3240588.53443  -2511273.67645  23631998.761    23631998.5714   23632000.4064
        37.6004         35.5004
     27500.49043     44310.53246  24271725.279    24271725.7364   24271727.1324
        38.3004         36.0004
  -1477446.56044  -1134400.10146  24151451.479    24151450.8794   24151452.9354
        40.6004         38.3004
   6403583.51942   5011519.16445  24967104.320    24967104.7274   24967111.7454
        35.4004         33.6004
 -11130671.52346  -8662202.77447  20875089.447    20875089.7534   20875091.2104
        48.8004         45.9004
 19 10 19  1 37 30.0000000  0  8G26G25G29G14G12G02G32G31
  -2961105.82944  -2288719.76246  22924976.978    22924977.5464   22924983.3104
        42.2004         39.7004
 -15703895.92046 -12213894.57947  20966302.444    20966302.1324   20966306.9114
        49.1004         46.1004
 -25451845.96447 -19809717.94348  20168555.260    20168555.0264   20168557.1414
        51.0004         48.4004
  -3165316.53043  -2452620.16745  23646322.774    23646322.0374   23646326.0764
        37.8004         35.5004
    126041.41543    121095.65545  24290477.714    24290476.5214   24290479.0544
        38.3004         35.9004
  -1407685.31444  -1080040.66246  24164725.828    24164725.4404   24164726.1994
        40.6004         37.8004
   6502193.53342   5088358.12945  24985868.973    24985870.7044   24985874.2614
        34.9004         33.4004
 -11142140.70246  -8671139.80147  20872907.062    20872907.6334   20872908.7954
        48.9004         46.1004
 19 10 19  1 38  0.0000000  0  8G26G25G29G14G12G02G32G31
  -3048825.61844  -2357072.83046  22908284.992    22908285.5544   22908290.3324
        42.3004         39.7004
 -15646125.27746 -12168878.49747  20977296.053    20977295.1534   20977300.6554
        49.1004         46.1004
 -25447523.21147 -19806349.56548  20169377.327    20169377.6064   20169379.8024
        51.0004         48.4004
  -3089744.58943  -2393732.94945  23660703.541    23660702.8964   23660706.1924
        37.8004         35.7004
    224665.32643    197945.46245  24309243.924    24309242.2944   24309246.8084
        38.3004         35.9004
  -1337576.09244  -1025410.10046  24178067.674    24178066.6044   24178068.5594
        40.6004         37.9004
   6600804.21541   5165197.63245  25004634.418    25004630.8104   25004637.1984
        34.3004         32.7004
 -11153051.28646  -8679641.55347  20870830.665    20870831.2364   20870832.5504
        48.9004         46.1004
 19 10 19  1 38 30.0000000  0  8G26G25G29G14G12G02G32G31
  -3136403.35144  -2425315.22746  22891619.820    22891619.6774   22891624.7104
        42.5004         39.9004
 -15588030.26246 -12123609.66747  20988350.607    20988350.8034   20988356.0424
        49.1004         46.1004
 -25442707.63547 -19802597.16148  20170294.078    20170293.7584   20170296.0484
        51.0004         48.4004
  -3013875.92343  -2334614.51845  23675141.227    23675140.3974   23675143.9304
        38.0004         35.9004
    323371.37343    274859.23545  24328023.997    24328024.6454   24328028.5814
        37.8004         35.3004
  -1267120.93044   -970509.97546  24191474.398    24191474.2444   24191475.8774
        40.6004         38.1004
   6699412.59941   5242035.40545  25023399.596    25023399.3274   25023404.9914
        33.7004         32.4004
 -11163402.35746  -8687707.33247  20868860.970    20868861.1124   20868862.5794
        48.8004         45.9004
 19 10 19  1 39  0.0000000  0  8G26G25G29G14G12G02G32G31
  -3223837.91044  -2493446.05046  22874981.016    22874981.4264   22874986.3084
        42.3004         39.7004
 -15529611.58146 -12078088.63347  20999467.904    20999467.3324   20999472.7454
        49.1004         46.1004
 -25437399.92747 -19798461.28848  20171303.774    20171304.0474   20171306.2044
        51.0004         48.5004
  -2937713.30843  -2275267.03645  23689632.934    23689632.9554   23689636.6374
        37.6004         35.5004
    422158.96943    351836.54645  24346826.453    24346825.2414   24346827.7654
        37.6004         35.5004
  -1196321.83343   -915341.83646  24204946.782    24204945.9214   24204947.3194
        40.4004         37.9004
   6798015.96441   5318869.16345  25042162.312    25042166.8634   25042166.1674
        32.6004         32.0004
 -11173193.39046  -8695336.71747  20866997.870    20866997.8174   20866999.8474
        48.8004         45.9004
 19 10 19  1 39 30.0000000  0  8G26G25G29G14G12G02G32G31
  -3311128.07344  -2561464.35946  22858369.791    22858370.3164   22858375.6474
        42.5004         39.9004
 -15470869.92246 -12032315.92447  21010645.626    21010645.7094   21010650.9164
        49.1004         46.1004
 -25431600.71047 -19793942.41248  20172407.618    20172407.5484   20172409.6664
        51.2004         48.5004
  -2861259.60242  -2215692.72645  23704182.283    23704180.0674   23704184.7904
        37.1004         35.0004
    521027.29643    428876.80845  24365637.651    24365639.1784   24365641.5934
        37.8004         35.7004
  -1125181.07843   -859907.47046  24218485.087    24218484.7174   24218485.2954
        40.4004         37.9004
   6896611.27941   5395696.68645  25060923.168    25060923.8504   25060925.8594
        32.4004         32.0004
 -11182423.59346  -8702529.09047  20865241.241    20865241.1374   20865243.3554
        48.8004         45.9004
 19 10 19  1 40  0.0000000  0  8G26G25G29G14G12G02G32G31
  -3398272.64644  -2629369.22646  22841787.243    22841787.3164   22841793.1174
        42.7004         40.0004
 -15411805.96746 -11986292.07947  21021885.702    21021885.3504   21021890.2654
        49.1004         45.9004
 -25425311.22447 -19789041.50748  20173604.414    20173604.6544   20173606.5374
        51.2004         48.5004
  -2784517.59042  -2155893.81045  23718786.216    23718784.9194   23718787.3404
        37.1004         35.2004
    619975.95843    505979.64845  24384466.074    24384467.4474   24384471.6294
        37.8004         35.5004
  -1053700.70743   -804208.48746  24232086.825    24232086.7334   24232088.1794
        40.3004         37.6004
   6995195.67241   5472515.69045  25079685.863    25079682.3474
        32.6004         31.9004
 -11191092.47546  -8709284.07447  20863591.817    20863591.8634   20863594.1164
        48.8004         45.9004
 19 10 19  1 40 30.0000000  0  8G26G25G29G14G12G02G32G31
  -3485270.42344  -2697159.69546  22825232.290    22825232.3314   22825237.8734
        42.9004         40.2004
 -15352420.46346 -11940017.66647  21033186.054    21033185.5804   21033191.4344
        48.9004         45.9004
 -25418532.50947 -19783759.39048  20174894.692    20174894.6324   20174896.4914
        51.2004         48.5004
  -2707490.51242  -2095872.71045  23733443.641    23733443.3944   23733446.3794
        37.3004         35.2004
    719003.66243    583144.05045  24403315.779    24403312.3004   24403314.9834
        37.8004         35.3004
   -981882.45743   -748246.21646  24245752.992    24245752.7174   24245754.4034
        40.1004         37.6004
   7093766.19751   5549323.94655  25098440.419    25098442.5034
        31.9004         31.5004
 -11199199.35846  -8715601.14247  20862049.090    20862049.3774   20862050.8004
        48.8004         45.9004
 19 10 19  1 41  0.0000000  0  8G26G25G29G14G12G02G32G31
  -3572120.20144  -2764834.83846  22808705.248    22808705.4794   22808710.9844
        42.9004         40.4004
 -15292714.05146 -11893493.20347  21044547.553    21044547.2094   21044552.8714
        48.9004         45.8004
 -25411265.69547 -19778096.93648  20176277.415    20176277.2724   20176279.4604
        51.2004         48.5004
  -2630180.79042  -2035631.37745  23748156.073    23748155.2134   23748158.0214
        37.5004         35.2004
    818109.83343    660369.62745  24422175.898    24422173.2834   24422175.8764
        38.0004         35.9004
   -909728.48343   -692022.34646  24259483.657    24259483.3774   24259485.2114
        40.1004         37.6004
                   5626119.17855  25117197.586
                        31.7004
 -11206743.60546  -8721479.78347  20860613.295    20860613.6544   20860615.3894
        48.8004         45.9004
 19 10 19  1 41 30.0000000  0  8G26G25G29G14G21G12G02G31
  -3658820.76444  -2832393.70546  22792207.045    22792207.1904   22792212.3374
        43.0004         40.6004
 -15232687.48646 -11846719.26347  21055970.494    21055969.7234   21055975.5054
        48.8004         45.8004
 -25403511.03847 -19772054.33948  20177752.807    20177752.9204   20177755.0364
        51.2004         48.5004
  -2552591.73942  -1975172.41345  23762918.905    23762918.2164   23762922.8634
        37.1004         35.0004
                   -176949.86055  23537569.028
                        31.0004
    917293.86143    737655.91046  24441048.802    24441047.2114   24441050.6904
        38.3004         36.2004
   -837241.15543   -635538.71246  24273279.988    24273279.5014   24273277.5054
        40.1004         37.6004
 -11213724.52546  -8726919.46547  20859284.935    20859285.4734   20859287.3174
        48.8004         45.9004
 19 10 19  1 42  0.0000000  0  8G26G25G29G14G21G12G02G31
  -3745370.89444  -2899835.34246  22775737.290    22775736.8794   22775742.3524
        43.4004         40.7004
 -15172341.46246 -11799696.39547  21067453.706    21067453.2634   21067458.7144
        48.8004         45.6004
 -25395269.79447 -19765632.58048  20179320.971    20179321.0764   20179323.5224
        51.2004         48.5004
  -2474726.06642  -1914497.84345  23777737.508    23777736.9084   23777740.2424
        37.3004         35.3004
                    -14922.24243  23518634.060
                        23.4004
   1016554.87243    815002.14846  24459933.169    24459936.6764   24459940.4254
        38.7004         36.4004
   -764422.42844   -578796.81746  24287137.086    24287135.9364   24287137.2764
        40.6004         38.3004
 -11220141.65246  -8731919.82947  20858064.571    20858064.5314   20858066.0674
        48.8004         46.1004
 19 10 19  1 42 30.0000000  0  8G26G25G29G14G21G12G02G31
  -3831769.38045  -2967158.83546  22759296.139    22759296.0824   22759300.8634
        43.6004         40.9004
 -15111676.68146 -11752425.15247  21078997.608    21078997.2914   21079003.2024
        48.8004         45.6004
 -25386542.56547 -19758832.13648  20180982.111    20180981.9664   20180984.1764
        51.2004         48.5004
  -2396586.90142  -1853610.19945  23792606.926    23792606.4854   23792608.7774
        37.1004         35.0004
                    -92318.24845  23499733.357
                        35.2004
   1115891.83443    892407.56646  24478837.366    24478839.4074   24478842.7604
        38.9004         36.4004
   -691274.34743   -521798.33146  24301055.773    24301055.0064   24301054.7714
        40.4004         37.6004
 -11225994.41446  -8736480.43947  20856950.353    20856950.2674   20856952.0544
        48.8004         45.8004
 19 10 19  1 43  0.0000000  0  8G26G25G29G14G21G12G02G31
  -3918014.97445  -3034363.18946  22742883.640    22742883.2224   22742889.5264
        43.7004         40.9004
 -15050693.88746 -11704906.11247  21090602.877    21090602.1744   21090608.0484
        48.8004         45.8004
 -25377330.88847 -19751654.19948  20182734.715    20182735.0174   20182737.0884
        51.2004         48.5004
  -2318177.18742  -1792511.74545  23807528.208    23807528.4264   23807528.2464
        37.0004         34.8004
                   -169573.25246  23480865.806
                        36.2004
   1215304.08243    969871.68345  24497755.355    24497755.4084   24497759.4434
        38.3004         35.7004
   -617799.03343   -464544.82846  24315037.661    24315036.8674   24315037.3284
        40.3004         37.6004
 -11231282.48746  -8740601.02247  20855943.766    20855944.2844   20855946.0444
        48.6004         45.8004
 19 10 19  1 43 30.0000000  0  8G26G25G29G14G21G12G02G31
  -4004106.46345  -3101447.45246  22726500.960    22726500.7064   22726506.8614
        43.9004         41.2004
 -14989393.75646 -11657139.79047  21102267.513    21102266.8724   21102273.1134
        48.8004         45.8004
 -25367635.41247 -19744099.28448  20184579.784    20184579.9314   20184581.9584
        51.2004         48.5004
  -2239499.67342  -1731204.57945  23822498.396    23822498.2094   23822502.9344
        37.1004         35.2004
                   -246685.57346  23462033.215                    23462036.2094
                        36.6004
   1314791.07843   1047393.99345  24516689.428    24516690.3714   24516692.0644
        38.2004         35.9004
   -543998.54443   -407037.95246  24329081.421    24329081.2424   24329082.6074
        40.3004         37.6004
 -11236005.17046  -8744281.04047  20855045.351    20855045.5664   20855047.0994
        48.6004         45.8004
 19 10 19  1 44  0.0000000  0  8G26G25G29G14G21G12G02G31
  -4090042.58745  -3168410.64346  22710147.458    22710147.6664   22710154.0004
        43.9004         41.2004
 -14927777.03646 -11609126.77747  21113992.680    21113992.2714   21113998.2564
        48.8004         45.8004
 -25357457.21147 -19736168.21048  20186516.108    20186516.3994   20186518.8534
        51.0004         48.4004
  -2160557.24242  -1669691.01145  23837522.316    23837522.4384   23837524.4294
        37.3004         35.0004
   -740371.77643   -323652.71446  23443237.511    23443236.6654   23443239.9244
        38.5004         36.6004
   1414352.05143   1124973.93545  24535634.384    24535633.2644   24535638.2704
        38.0004         35.9004
   -469875.09643   -349279.42346  24343187.749    24343185.9784   24343187.3864
        40.1004         37.8004
 -11240161.93246  -8747520.08347  20854254.523    20854254.7114   20854255.7684
        48.6004         45.8004
 19 10 19  1 44 30.0000000  0  8G26G25G29G14G21G12G02G31
  -4175822.12645  -3235251.82846  22693824.785    22693824.6014   22693830.8144
        44.1004         41.2004
 -14865844.47246 -11560867.64547  21125778.065    21125777.3824   21125783.8894
        48.8004         45.8004
 -25346797.61447 -19727862.02048  20188544.798    20188544.6984   20188547.2674
        51.0004         48.4004
  -2081353.14942  -1607973.52945  23852592.450    23852591.9684   23852595.8404
        36.6004         34.6004
   -838957.75353   -400472.93356  23424478.568    23424477.0804   23424479.4784
        38.9004         36.6004
   1513986.32943   1202611.04945  24554590.952    24554593.2134   24554596.1384
        37.8004         35.3004
   -395430.77043   -291270.85946  24357353.905    24357352.5384   24357354.0374
        40.3004         37.4004
 -11243752.53846  -8750317.97047  20853571.417    20853571.6404   20853572.6664
        48.6004         45.8004
 19 10 19  1 45  0.0000000  0  8G26G25G29G14G21G12G02G31
  -4261443.85745  -3301970.04346  22677531.096    22677530.9734   22677537.4024
        44.1004         41.2004
 -14803596.74446 -11512362.94447  21137623.561    21137623.3864   21137629.1764
        48.8004         45.8004
 -25335657.14347 -19719181.12748  20190664.772    20190664.7354   20190667.4054
        51.0004         48.4004
  -2001890.10342  -1546054.29045  23867714.529    23867714.8184   23867718.7164
        36.8004         34.8004
   -937352.63643   -477144.26246  23405754.504    23405753.2804   23405756.5354
        39.0004         36.7004
   1613692.84443   1280304.44145  24573564.178    24573565.4724   24573569.6504
        37.6004         35.3004
   -320667.60643   -233013.87246  24371579.403    24371578.4884   24371581.1434
        40.1004         37.4004
 -11246776.39146  -8752674.22447  20852995.406    20852995.8634   20852996.9044
        48.6004         45.8004
 19 10 19  1 45 30.0000000  0  8G26G25G29G14G21G12G02G31
  -4346906.48245  -3368564.29046  22661268.635    22661268.2034   22661274.1304
        44.1004         41.2004
 -14741034.61746 -11463613.25747  21149528.410    21149528.2954   21149534.0754
        48.8004         45.6004
 -25324037.15147 -19710126.58048  20192876.528    20192876.3534   20192878.7304
        51.0004         48.4004
  -1922171.18142  -1483935.61745  23882885.219    23882884.6314   23882887.1774
        36.8004         34.8004
  -1035554.04243   -553664.82646  23387067.668    23387067.1014   23387068.7294
        39.0004         36.7004
   1713471.25342   1358053.83945  24592551.456    24592550.5634   24592558.2354
        37.1004         34.6004
   -245587.68443   -174510.02546  24385866.558    24385866.0704   24385866.5314
        39.9004         37.4004
 -11249233.03746  -8754588.49747  20852528.436    20852528.3944   20852529.2124
        48.6004         45.8004
 19 10 19  1 46  0.0000000  0  8G26G25G29G14G21G12G02G31
  -4432208.77845  -3435033.59546  22645035.431    22645035.4284   22645041.8304
        43.9004         40.9004
 -14678158.78946 -11414619.12447  21161494.022    21161493.4174   21161499.1184
        48.8004         45.8004
 -25311938.50647 -19700699.06348  20195178.649    20195178.4884   20195180.9494
        51.0004         48.4004
  -1842199.38442  -1421619.93145  23898102.764    23898103.5374   23898106.0304
        36.6004         34.5004
  -1133560.04243   -630033.12446  23368416.620    23368414.8864   23368419.0734
        39.2004         36.7004
   1813320.32042   1435858.31745  24611554.937    24611553.9814   24611558.0024
        37.1004         34.8004
   -170193.20643   -115761.08146  24400214.012    24400214.2184   24400213.5134
        39.9004         37.4004
 -11251122.01246  -8756060.43247  20852169.141    20852169.2864   20852169.5824
        48.6004         45.8004
 19 10 19  1 46 30.0000000  0  8G26G25G29G14G21G12G02G31
  -4517349.46145  -3501376.97446  22628833.947    22628833.9134   22628840.3234
        43.9004         41.1004
 -14614970.05646 -11365381.16447  21173518.457    21173518.1344   21173523.8184
        48.8004         45.8004
 -25299362.25447 -19690899.38148  20197571.873    20197571.7504   20197574.1014
        51.0004         48.4004
  -1761977.67242  -1359109.51345  23913370.181    23913368.9714   23913370.5274
        36.6004         34.6004
  -1231367.18343   -706246.45646  23349804.411    23349804.2564   23349806.6374
        39.2004         36.7004
   1913239.53442   1513717.39845  24630569.176    24630570.0364   24630572.0214
        37.3004         35.3004
    -94486.53143    -56768.89146  24414620.670    24414619.9074   24414620.4734
        39.9004         37.6004
 -11252442.99146  -8757089.77747  20851917.276    20851917.5684   20851918.9294
        48.8004         45.8004
 19 10 19  1 47  0.0000000  0  8G26G25G29G14G21G12G02G31
  -4602327.29245  -3567593.44746  22612663.303    22612662.8634   22612669.5684
        43.7004         40.7004
 -14551469.10246 -11315899.91547  21185602.306    21185601.7214   21185607.3224
        48.8004         45.8004
 -25286309.39847 -19680728.32248  20200055.634    20200055.5884   20200057.9324
        51.0004         48.4004
  -1681508.92242  -1296406.57845  23928680.657    23928680.1454   23928684.3584
        36.4004         34.5004
  -1328972.96143   -782302.90246  23331230.506    23331230.4844   23331232.9244
        39.2004         36.9004
   2013228.02642   1591630.49945  24649591.075    24649594.4604   24649600.1944
        37.1004         35.2004
    -18469.45443      2465.22146  24429086.088    24429084.9954   24429086.8464
        40.1004         37.4004
 -11253195.63146  -8757676.24947  20851773.870    20851774.2824   20851775.9324
        48.6004         45.9004
 19 10 19  1 47 30.0000000  0  8G26G25G29G14G21G12G02G31
  -4687140.96345  -3633682.01446  22596523.548    22596524.5164   22596529.6234
        43.6004         40.7004
 -14487656.67546 -11266175.95747  21197745.074    21197745.2064   21197750.7384
        48.8004         45.8004
 -25272781.92247 -19670187.42548  20202629.959    20202629.8194   20202632.0834
        51.0004         48.4004
  -1600796.29142  -1233513.63645  23944040.971    23944042.4354   23944043.4094
        36.4004         34.3004
  -1426375.32743   -858200.83046  23312695.959    23312695.3564   23312697.5924
        39.4004         36.7004
   2113284.98442   1669596.94745  24668636.383    24668634.8104   24668641.1574
        37.1004         34.8004
     57855.77943     61939.41746  24443609.273    24443608.9304   24443609.1414
        39.7004         37.1004
 -11253379.16346  -8757819.28047  20851739.409    20851739.4394   20851741.1214
        48.8004         45.9004
 19 10 19  1 48  0.0000000  0  8G26G25G29G14G21G12G02G31
  -4771789.21044  -3699641.67846  22580415.927    22580416.3114   22580421.6074
        43.4004         40.6004
 -14423533.55146 -11216209.90347  21209946.688    21209946.7384   21209953.0884
        48.6004         45.6004
 -25258779.70747 -19659276.60948  20205294.180    20205294.2774   20205296.7044
        51.0004         48.4004
  -1519842.71542  -1170432.90345  23959446.169    23959446.6034   23959448.8684
        35.9004         34.0004
  -1523571.63343   -933938.17546  23294200.893    23294198.8454   23294202.4084
        39.2004         36.7004
   2213409.87542   1747616.32345  24687688.985    24687689.4724   24687693.9364
        36.8004         34.8004
    134487.31943    121652.28346  24458191.445    24458191.6504   24458192.9994
        39.9004         37.6004
 -11252994.10146  -8757519.24047  20851812.482    20851812.5884   20851814.5154
        48.8004         45.9004
 19 10 19  1 48 30.0000000  0  8G26G25G29G14G21G12G02G31
  -4856270.74744  -3765471.44246  22564340.094    22564339.9234   22564345.3804
        43.4004         40.6004
 -14359100.46846 -11166002.32647  21222208.596    21222208.0964   21222214.0674
        48.6004         45.6004
 -25244303.92447 -19647996.77448  20208048.789    20208048.9104   20208051.1084
        51.0004         48.4004
  -1438651.08042  -1107166.66245  23974894.804    23974894.4304   23974897.9684
        35.7004         34.0004
  -1620559.57343  -1009513.17246  23275742.712    23275742.0834   23275746.4824
        39.0004         36.6004
   2313601.98942   1825688.08345  24706755.086    24706755.4334   24706758.6144
        36.6004         34.6004
    211422.62543    181601.88346  24472831.681    24472831.1024   24472833.1264
        39.7004         37.3004
 -11252039.72146  -8756775.57847  20851994.200    20851994.3074   20851996.0314
        48.9004         46.1004
 19 10 19  1 49  0.0000000  0  8G26G25G29G14G21G12G02G31
  -4940584.30044  -3831170.29246  22548294.501    22548295.7064   22548300.1644
        43.2004         40.4004
 -14294358.19846 -11115553.80847  21234528.258    21234528.3714   21234533.8714
        48.6004         45.6004
 -25229356.28147 -19636349.25348  20210893.365    20210893.2794   20210895.6244
        51.0004         48.4004
  -1357223.99942  -1043716.99945  23990390.092    23990390.5564   23990394.9314
        35.0004         33.4004
  -1717336.33143  -1084923.61746  23257326.127    23257326.3434   23257330.0614
        39.0004         36.6004
   2413860.25942   1903811.39745  24725835.411    24725833.1134   24725838.2054
        36.8004         34.8004
    288659.53943    241786.46546  24487530.426    24487529.5704   24487531.0944
        39.6004         37.1004
 -11250515.76546  -8755588.08247  20852284.585    20852284.8594   20852286.0284
        48.9004         46.1004
 19 10 19  1 49 30.0000000  0  8G26G25G29G14G21G12G02G31
  -5024728.58544  -3896737.26046  22532283.502    22532283.4144   22532289.1014
        43.0004         40.2004
 -14229307.43746 -11064864.93147  21246907.783    21246907.1714   21246912.8034
        48.6004         45.6004
 -25213937.86747 -19624334.89648  20213827.263    20213827.1844   20213829.6994
        51.0004         48.4004
  -1275564.93842   -980086.53845  24005931.310    24005932.2294   24005934.0304
        35.4004         34.0004
  -1813899.32043  -1160167.49246  23238951.717    23238951.7294   23238953.8024
        38.9004         36.4004
   2514184.05242   1981985.77345  24744925.276    24744925.1644   24744927.8954
        36.8004         34.8004
    366195.94043    302204.45046  24502283.955    24502285.0624   24502286.3344
        39.7004         37.6004
 -11248421.93646  -8753956.53947  20852683.132    20852682.8914   20852684.1404
        48.9004         45.9004
 19 10 19  1 50  0.0000000  0  8G26G25G29G14G21G12G02G31
  -5108702.29944  -3962171.30946  22516303.467    22516303.9584   22516308.6584
        42.7004         39.9004
 -14163948.98846 -11013936.28647  21259344.504    21259344.3194   21259350.3684
        48.6004         45.6004
 -25198049.57347 -19611954.40648  20216850.959    20216851.1004   20216853.0744
        51.0004         48.4004
  -1193676.99742   -916277.77545  24021511.304    24021512.4754   24021512.4464
        35.0004         33.4004
  -1910246.54443  -1235243.20946  23220618.639    23220616.9274   23220618.5314
        38.9004         36.6004
   2614572.56042   2060210.57945  24764028.018    24764028.7234   24764031.6704
        36.4004         34.3004
    444030.16643    362854.53046  24517095.775    24517096.2074   24517098.0214
        40.1004         37.6004
 -11245758.17346  -8751880.88447  20853189.367    20853189.6764   20853191.3714
        48.8004         45.9004
 19 10 19  1 50 30.0000000  0  8G26G25G29G14G21G12G02G31
  -5192504.16744  -4027471.45246  22500357.564    22500356.8264   22500361.8504
        42.5004         39.5004
 -14098283.61046 -10962768.47747  21271840.817    21271840.3324   21271845.8304
        48.4004         45.4004
 -25181692.50347 -19599208.63648  20219963.494    20219963.8584   20219965.7254
        51.0004         48.4004
  -1111563.02542   -852292.81945  24037137.481    24037134.1064   24037138.6794
        34.5004         33.1004
  -2006375.41043  -1310148.79446  23202325.445    23202324.2004   23202326.1394
        38.9004         36.4004
   2715025.45542   2138485.55745  24783140.427    24783142.8064   24783145.0714
        35.6004         33.4004
    522159.41743    423734.43846  24531963.617    24531963.6504   24531965.0744
        39.9004         37.3004
 -11242523.89146  -8749360.67647  20853805.234    20853805.6354   20853806.7274
        48.8004         45.8004
 19 10 19  1 51  0.0000000  0  8G26G25G29G14G21G12G02G31
  -5276132.85444  -4092636.65046  22484442.429    22484442.5914   22484448.2784
        42.2004         39.5004
 -14032312.05146 -10911362.08947  21284394.459    21284393.7154   21284399.6534
        48.4004         45.2004
 -25164867.89547 -19586098.54648  20223165.161    20223165.3094   20223167.5514
        51.0004         48.4004
  -1029225.88942   -788134.03645  24052806.517    24052805.7904   24052810.9814
        34.7004         33.1004
  -2102283.24343  -1384882.14146  23184074.804    23184072.9264   23184076.1684
        38.9004         36.6004
   2815541.57842   2216809.79245  24802272.985    24802270.9454   24802275.0484
        35.7004         34.1004
    600581.79043    484842.80246  24546887.425    24546886.8874   24546888.3854
        39.7004         37.3004
 -11238718.94146  -8746395.77847  20854528.321    20854528.6074   20854530.6414
        48.6004         45.6004
 19 10 19  1 51 30.0000000  0  8G26G25G29G14G21G12G02G31
  -5359587.06244  -4157665.90346  22468562.391    22468562.4304   22468567.0134
        42.0004         39.2004
 -13966035.09246 -10859717.73247  21297007.217    21297006.4364   21297011.3394
        48.2004         45.2004
 -25147577.09547 -19572625.19548  20226455.331    20226455.3804   20226457.7874
        51.0004         48.4004
   -946668.91442   -723803.91745  24068517.030    24068515.9914   24068516.8864
        34.7004         33.1004
  -2197967.72443  -1459441.45546  23165866.231    23165866.2214   23165869.1704
        39.0004         36.7004
   2916120.07242   2295182.62445  24821415.270    24821408.9164   24821414.4344
        35.6004         33.8004
    679295.15943    546177.89546  24561866.456    24561865.2874   24561866.3064
        39.6004         36.9004
 -11234343.51246  -8742986.37847  20855361.887    20855362.0314   20855363.1494
        48.6004         45.8004
 19 10 19  1 52  0.0000000  0  8G26G25G29G14G21G12G02G31
  -5442865.48344  -4222558.16746  22452713.831    22452714.2384   22452719.7054
        41.6004         38.8004
 -13899453.50146 -10807835.98247  21309676.535    21309676.1634   21309681.8564
        48.2004         45.2004
 -25129821.43247 -19558789.62448  20229833.839    20229834.3064   20229836.4064
        51.0004         48.4004
   -863894.96642   -659304.73145  24084269.412    24084268.2334   24084269.5714
        34.7004         33.6004
  -2293426.25443  -1533824.70646  23147701.150    23147700.8664   23147703.8184
        39.2004         36.9004
   3016760.49642   2373603.72645  24840562.906    24840561.7534   24840561.4794
        35.4004         33.4004
    758297.37843    607738.06146  24576899.961    24576898.3514   24576899.9414
        39.4004         36.9004
 -11229397.05646  -8739132.00347  20856302.732    20856303.0134   20856304.8844
        48.6004         45.8004
 19 10 19  1 52 30.0000000  0  9G26G25G29G14G21G12G02G05G31
  -5525966.76844  -4287312.40646  22436900.197    22436899.8504   22436905.9124
        41.3004         38.5004
 -13832568.04946 -10755717.47247  21322404.775    21322404.0334   21322409.5944
        48.2004         45.2004
 -25111601.54247 -19544592.30048  20233300.973    20233301.1334   20233303.6754
        51.0004         48.4004
   -780906.87342   -594638.67545  24100060.156    24100061.0104   24100065.2864
        35.2004         34.0004
  -2388656.48843  -1608030.05846  23129579.999    23129579.0064   23129582.7774
        39.4004         36.9004
   3117461.88042   2452072.31045  24859724.485    24859724.4434   24859725.9944
        35.6004         34.0004
    837586.33443    669521.63246  24591987.630    24591987.4014   24591989.2894
        39.4004         36.7004
                    -96584.17455  24943723.853
                        34.3004
 -11223879.51946  -8734832.62147  20857352.870    20857353.0704   20857354.8034
        48.6004         45.9004
 19 10 19  1 53  0.0000000  0  9G26G25G29G14G21G12G02G05G31
  -5608889.63644  -4351927.62146  22421120.407    22421119.4314   22421126.0264
        41.1004         38.3004
 -13765379.52246 -10703362.79247  21335189.734    21335189.6494   21335195.6694
        48.2004         45.2004
 -25092918.46347 -19530034.06148  20236856.318    20236856.5454   20236858.7414
        50.8004         48.2004
   -697707.41542   -529807.88645  24115893.713    24115894.7184   24115896.7754
        35.2004         33.6004
  -2483655.89143  -1682055.54546  23111502.670    23111501.8654   23111502.8714
        39.4004         36.9004
   3218223.50042   2530587.83945  24878897.329    24878897.7584   24878900.8484
        35.2004         33.6004
    917159.78043    731526.92646  24607130.812    24607128.8294   24607130.3244
        39.2004         36.6004
                   -147705.88845  24931239.154                    24931237.9114
                        34.6004
 -11217791.01046  -8730088.33647  20858511.459    20858511.6264   20858513.1104
        48.8004         45.8004
 19 10 19  1 53 30.0000000  0  9G26G25G29G14G21G12G02G05G31
  -5691632.78444  -4416402.78446  22405375.090    22405374.0814   22405379.7254
        40.9004         37.9004
 -13697888.69846 -10650772.56447  21348033.968    21348033.0204   21348038.6174
        48.2004         45.2004
 -25073773.64247 -19515116.01348  20240499.669    20240499.6514   20240501.7834
        50.8004         48.2004
   -614299.69142   -464814.87745  24131764.215    24131763.7104   24131766.1854
        35.4004         34.0004
  -2578421.85343  -1755899.14346  23093469.399    23093468.4334   23093470.5114
        39.4004         36.9004
   3319044.57542   2609149.74945  24898083.268    24898086.5644   24898089.2144
        35.0004         33.6004
    997015.36443    793752.05146  24622326.361    24622325.5964   24622327.0034
        39.2004         36.9004
   -275134.47642   -198565.45445  24918817.386    24918815.9684   24918818.1274
        35.6004         34.3004
 -11211131.19346  -8724898.88047  20859778.637    20859778.8254   20859780.2094
        48.6004         45.8004
 19 10 19  1 54  0.0000000  0  9G26G25G29G14G21G12G02G05G31
  -5774194.79844  -4480736.82646  22389663.346    22389663.4884   22389669.5274
        40.8004         38.1004
 -13630096.32446 -10597947.35747  21360933.045    21360933.1284   21360939.2454
        48.2004         45.2004
 -25054168.53047 -19499839.30448  20244230.400    20244230.4434   20244232.5824
        50.8004         48.2004
   -530687.26342   -399662.33045  24147676.195    24147674.1524   24147675.5594
        35.4004         33.6004
  -2672952.11943  -1829559.06646  23075479.596    23075478.6884   23075481.5534
        39.6004         37.1004
   3419924.68642   2687757.58845  24917283.789    24917282.1704   24917285.5214
        35.4004         33.6004
   1077150.99343    856195.39246  24637574.512    24637574.1234   24637575.6554
        39.0004         36.6004
   -340065.01542   -249160.69545  24906458.501    24906461.5234   24906462.7704
        36.1004         34.5004
 -11203900.35346  -8719264.46147  20861154.634    20861155.0474   20861156.3014
        48.6004         45.8004
 19 10 19  1 54 30.0000000  0  9G26G25G29G14G21G12G02G05G31
  -5856574.36844  -4544928.68646  22373987.319    22373987.0234   22373993.2814
        40.8004         38.1004
 -13562003.24146 -10544887.83247  21373890.941    21373890.4494   21373896.5234
        48.1004         45.1004
 -25034104.60647 -19484205.07648  20248048.584    20248048.6044   20248050.5004
        50.8004         48.0004
   -446872.94742   -334352.44745  24163625.711    24163626.4634   24163627.9304
        35.6004         34.0004
  -2767244.29243  -1903033.47646  23057535.977    23057535.8864   23057538.6764
        39.7004         37.3004
   3520862.71342   2766410.57345  24936489.748    24936489.1144   24936490.1354
        35.2004         33.8004
   1157564.57243    918855.32346  24652879.330    24652877.9454   24652877.9184
        38.9004         36.4004
   -404653.50052   -299489.37155  24894170.986    24894170.9914   24894172.8284
        37.0004         35.2004
 -11196098.24646  -8713184.91147  20862639.578    20862639.7444   20862640.9144
        48.6004         45.8004
 19 10 19  1 55  0.0000000  0  9G26G25G29G14G21G12G02G05G31
  -5938770.22044  -4608977.37846  22358345.915    22358345.9664   22358352.1844
        40.9004         38.3004
 -13493610.18346 -10491594.55147  21386905.955    21386905.3794   21386911.3204
        48.1004         44.9004
 -25013582.62747 -19468213.92348  20251953.848    20251953.6774   20251955.3024
        50.8004         48.0004
   -362859.56042   -268887.45445  24179612.415    24179612.3484   24179612.3414
        35.4004         33.8004
  -2861296.03743  -1976320.53746  23039639.465    23039637.9134   23039640.9414
        39.9004         37.4004
   3621857.98042   2845108.16645  24955708.368    24955709.5714   24955711.7754
        35.0004         33.4004
   1238254.19643    981730.32745  24668233.007    24668231.3074   24668232.2244
        38.3004         35.9004
   -468896.68242   -349548.96745  24881946.724    24881944.5334   24881948.4044
        37.1004         35.0004
 -11187724.62746  -8706660.01947  20864232.803    20864233.0074   20864234.4434
        48.6004         45.6004
 19 10 19  1 55 30.0000000  0  9G26G25G29G14G21G12G02G05G31
  -6020780.90444  -4672881.81146  22342740.170    22342740.4044   22342746.3534
        41.3004         38.6004
 -13424917.95946 -10438068.16447  21399977.523    21399977.5164   21399983.0254
        47.9004         44.9004
 -24992603.43247 -19451866.50348  20255946.076    20255945.8934   20255948.1254
        50.8004         48.2004
   -278650.19542   -203269.77445  24195637.340    24195636.9174   24195639.6974
        35.2004         33.8004
  -2955104.58243  -2049418.08946  23021787.569    23021786.9714   23021790.0964
        40.3004         37.8004
   3722909.66742   2923849.72445  24974939.171    24974937.1084   24974939.0514
        35.2004         33.8004
   1319217.23743   1044818.42145  24683638.698    24683637.3124   24683637.4194
        38.2004         35.9004
   -532792.05142   -399337.53945  24869787.580    24869786.4684   24869787.8214
        36.6004         34.5004
 -11178779.52846  -8699689.82147  20865934.932    20865935.4124   20865937.1144
        48.6004         45.8004
 19 10 19  1 56  0.0000000  0  9G26G25G29G14G21G12G02G05G31
  -6102605.11444  -4736640.92546  22327170.019    22327170.1024   22327175.4584
        41.5004         38.8004
 -13355927.40846 -10384309.29247  21413106.118    21413106.1444   21413110.6704
        47.9004         44.7004
 -24971168.96547 -19435164.32048  20260024.880    20260024.7504   20260027.0534
        50.8004         48.2004
   -194247.75142   -137501.61345  24211698.246    24211697.2244   24211699.7594
        35.2004         33.6004
  -3048667.86643  -2122324.53046  23003982.851    23003982.6604   23003985.7134
        40.3004         37.8004
   3824017.04542   3002634.71045  24994178.789    24994178.5834   24994181.5974
        35.7004         34.3004
   1400451.57543   1108117.92545  24699096.714    24699094.4154   24699096.7704
        38.0004         35.5004
   -596336.69442   -448852.81945  24857692.813    24857694.1324   24857697.0784
        36.6004         34.6004
 -11169263.10546  -8692274.42847  20867746.276    20867746.0164   20867747.8824
        48.6004         45.9004
 19 10 19  1 56 30.0000000  0  9G26G25G29G14G21G12G02G05G31
  -6184241.51344  -4800253.69246  22311635.655    22311635.0394   22311641.0094
        41.8004         39.2004
 -13286639.27846 -10330318.55547  21426290.910    21426290.2534   21426296.1644
        47.7004         44.7004
 -24949280.39747 -19418108.29748  20264190.127    20264190.1174   20264192.2994
        50.8004         48.0004
   -109655.58842    -71585.64245  24227796.194    24227796.3334   24227798.7654
        35.6004         34.1004
  -3141983.63143  -2195038.08046  22986226.805    22986225.3034   22986227.9294
        40.3004         37.8004
   3925179.29542   3081462.42145  25013429.042    25013429.5844   25013432.9284
        36.1004         34.3004
   1481955.18442   1171627.18945  24714604.095    24714605.7664   24714605.6624
        37.5004         35.0004
   -659527.66042   -498092.50545  24845665.122    24845669.4144   24845672.9594
        36.6004         34.6004
 -11159175.46546  -8684413.94547  20869666.138    20869666.0804   20869667.1034
        48.8004         45.8004
 19 10 19  1 57  0.0000000  0  9G26G25G29G14G21G12G02G05G31
  -6265688.72344  -4863719.06446  22296136.115    22296136.6454   22296142.4934
        41.6004         39.2004
 -13217054.39346 -10276096.58247  21439532.585    21439532.4944   21439538.6274
        47.7004         44.9004
 -24926938.68247 -19400699.16648  20268441.843    20268441.8424   20268443.8874
        50.8004         48.2004
    -24876.35642     -5523.90645  24243928.765    24243928.1314   24243931.8404
        35.7004         33.8004
  -3235049.04043  -2267556.55746  22968515.586    22968514.4804   22968518.7044
        40.3004         37.6004
   4026396.04142   3160332.60645  25032690.929    25032689.5014   25032691.3314
        35.7004         34.0004
   1563725.83742   1235344.58945  24730163.754    24730163.6374   24730166.2174
        37.3004         35.2004
   -722362.23442   -547054.50445  24833712.221    24833713.0314   24833715.4664
        36.8004         35.0004
 -11148516.35946  -8676108.15147  20871694.101    20871694.3104   20871695.7614
        48.8004         45.9004
 19 10 19  1 57 30.0000000  0  9G26G25G29G14G21G12G02G05G31
  -6346945.40844  -4927035.96146  22280673.565    22280673.5534   22280679.2254
        41.8004         39.2004
 -13147173.54446 -10221643.99347  21452830.316    21452830.4464   21452836.5554
        47.7004         44.7004
 -24904144.99747 -19382937.85148  20272779.140    20272779.0674   20272781.4764
        50.8004         48.2004
     60086.69842     60681.06945  24260095.599    24260096.9364   24260100.2804
        35.4004         33.8004
  -3327861.57443  -2339877.99046  22950852.431    22950852.2944   22950857.0004
        40.1004         37.4004
   4127666.18242   3239244.41545  25051960.136    25051962.1824   25051963.7064
        35.9004         34.1004
   1645761.25942   1299268.29245  24745776.671    24745775.0834   24745778.2954
        37.3004         35.0004
   -784837.34142   -595736.39145  24821823.729    24821823.0714   24821828.2904
        36.8004         34.6004
 -11137286.58646  -8667357.69247  20873831.108    20873831.0954   20873832.8434
        48.8004         45.9004
 19 10 19  1 58  0.0000000  0  9G26G25G29G14G21G12G02G05G31
  -6428010.18344  -4990203.31546  22265247.501    22265247.1144   22265253.2844
        41.8004         39.2004
 -13076997.54846 -10166961.42447  21466185.518    21466184.3624   21466190.6334
        47.7004         44.7004
 -24880901.27047 -19364825.85548  20277202.075    20277202.1474   20277204.3744
        50.8004         48.0004
    145230.69742    127027.07145  24276299.394    24276299.1104   24276301.1154
        34.7004         32.9004
  -3420419.15143  -2412000.77046  22933240.666    22933240.7204   22933243.3284
        40.1004         37.6004
   4228988.86442   3318197.10145  25071243.138    25071240.5594   25071245.4844
        35.7004         34.0004
   1728059.35842   1363396.63645  24761437.099    24761437.2674   24761438.1934
        37.1004         35.0004
   -846950.77042   -644136.43845  24810003.252    24810003.0374   24810007.8084
        36.1004         34.0004
 -11125485.32246  -8658161.90447  20876076.281    20876076.5104   20876078.8464
        48.6004         45.8004
 19 10 19  1 58 30.0000000  0  9G26G25G29G14G21G12G02G05G31
  -6508881.63144  -5053220.03846  22249857.512    22249857.9704   22249862.9504
        42.2004         39.7004
 -13006527.21646 -10112049.48547  21479594.439    21479594.1664   21479600.3304
        47.7004         44.7004
 -24857209.01647 -19346364.35448  20281710.533    20281710.6764   20281712.6894
        50.7004         48.0004
    230552.59241    193511.66945  24292534.870    24292535.9894   24292537.6354
        34.3004         32.9004
  -3512719.14243  -2483922.81546  22915677.880    22915676.3404   22915679.3794
        40.1004         37.8004
   4330363.55142   3397190.37145  25090535.622    25090533.5064   25090535.9034
        35.6004         33.8004
   1810618.03342   1427728.09745  24777147.637    24777146.0714   24777148.5184
        37.1004         35.2004
   -908699.40442   -692252.21845  24798250.112    24798252.6844   24798254.9964
        35.4004         33.6004
 -11113112.99146  -8648521.13947  20878431.042    20878431.2574   20878432.7494
        48.6004         45.8004
 19 10 19  1 59  0.0000000  0  9G26G25G29G14G21G12G02G05G31
  -6589558.43244  -5116085.07346  22234504.884    22234505.9534   22234511.0884
        42.2004         39.5004
 -12935763.33746 -10056908.82447  21493060.963    21493061.3234   21493066.3504
        47.7004         44.7004
 -24833067.94947 -19327553.13148  20286304.622    20286304.6094   20286306.6554
        50.8004         48.0004
    316049.41142    260132.57345  24308804.970    24308804.3944   24308806.8854
        34.5004         33.1004
  -3604759.24043  -2555642.35246  22898162.072    22898161.4424   22898164.2834
        40.3004         37.6004
   4431789.54742   3476223.61645  25109830.725    25109832.6514   25109835.6024
        35.7004         33.8004
   1893435.07242   1492260.84845  24792909.272    24792907.7454   24792907.8774
        37.1004         35.0004
   -970080.27642   -740081.45645  24786565.275    24786570.1604   24786577.1454
        35.6004         33.8004
 -11100169.98946  -8638435.69247  20880893.799    20880894.2654   20880895.9044
        48.6004         45.6004
 19 10 19  1 59 30.0000000  0  9G26G25G29G14G21G12G02G05G31
  -6670039.17944  -5178797.33346  22219190.334    22219190.2414   22219195.6714
        42.2004         39.3004
 -12864706.79346 -10001540.09547  21506582.364    21506582.4994   21506587.8834
        47.5004         44.5004
 -24808480.46147 -19308394.04948  20290983.209    20290983.5554   20290985.5014
        50.7004         48.0004
    401718.09441    326887.41845  24325105.937    24325105.1774   24325106.1854
        34.2004         32.9004
  -3696537.19443  -2627157.64046  22880696.332    22880696.4864   22880699.4564
        40.3004         37.8004
   4533265.82842   3555296.05345  25129144.626    25129142.3104   25129146.9094
        35.6004         33.8004
   1976508.03042   1556993.04345  24808715.601    24808714.3694   24808716.9064
        37.3004         35.2004
  -1031090.81342   -787622.10945  24774964.208    24774961.5784   24774965.0864
        35.6004         33.8004
 -11086656.22546  -8627905.49247  20883465.262    20883465.4534   20883467.5404
        48.4004         45.6004
 19 10 19  2  0  0.0000000  0  9G26G25G29G14G21G12G02G05G31
  -6750322.49944  -5241355.75446  22203912.824    22203913.2534   22203919.3814
        42.3004         40.0004
 -12793358.31146  -9945943.88947  21520159.763    21520159.5344   21520164.6844
        47.5004         44.4004
 -24783447.70147 -19288888.00147  20295746.525    20295746.7654   20295749.2754
        50.7004         47.8004
    487555.33341    393773.61045  24341441.398    24341440.7604   24341442.4084
        34.2004         32.7004
  -3788050.47843  -2698466.68046  22863282.440    22863282.3984   22863285.3774
        40.4004         37.9004
   4634791.92342   3634407.24445  25148464.905    25148465.1964   25148467.6424
        35.6004         33.8004
   2059835.00542   1621923.14945  24824573.676    24824572.4644   24824572.6054
        37.1004         35.2004
  -1091728.42342   -834872.10745  24763424.495    24763422.5684   24763427.7474
        35.9004         34.3004
 -11072572.05746  -8616930.82447  20886145.950    20886145.8984   20886147.5174
        48.4004         45.4004
 19 10 19  2  0 30.0000000  0  9G26G25G29G14G21G12G02G05G31
  -6830406.97344  -5303759.24246  22188673.321    22188673.4914   22188679.3024
        42.7004         40.0004
 -12721718.76146  -9890120.87847  21533792.695    21533792.0854   21533797.4104
        47.4004         44.4004
 -24757971.06147 -19269036.08147  20300594.888    20300595.0114   20300597.2194
        50.5004         47.8004
    573558.19951    460788.81055  24357807.241    24357805.4234   24357808.9424
        34.2004         32.9004
  -3879296.80344  -2769567.70346  22845920.282    22845919.4814   22845921.3524
        40.6004         38.1004
   4736366.92142   3713556.59945  25167793.689    25167793.1384   25167796.0124
        35.2004         33.4004
   2143413.56842   1687049.31645  24840479.384    24840476.5904   24840477.4284
        37.1004         35.2004
  -1151990.12542   -881829.28445  24751956.206    24751955.7424   24751959.0864
        36.4004         34.8004
 -11057917.62046  -8605511.78547  20888934.326    20888934.7054   20888936.3674
        48.4004         45.6004
 19 10 19  2  1  0.0000000  0  9G26G25G29G14G21G12G02G05G31
  -6910291.24744  -5366006.72846  22173471.871    22173471.6654   22173477.6804
        42.7004         39.9004
 -12649788.99546  -9834071.71447  21547479.486    21547479.5644   21547485.3044
        47.2004         44.2004
 -24732052.55247 -19248839.83847  20305526.709    20305526.7524   20305529.2424
        50.5004         47.8004
    659723.95051    527930.96955  24374201.693    24374206.2274   24374206.3204
        34.2004         32.6004
  -3970273.94744  -2840458.96246  22828608.334    22828607.9034   22828609.4994
        40.9004         38.5004
   4837990.30641   3792743.64745  25187129.339    25187128.9854   25187131.6784
        34.3004         32.6004
   2227241.59342   1752369.86045  24856428.373    24856427.4154   24856429.9054
        37.1004         34.8004
  -1211872.85242   -928491.13745  24740558.301    24740560.2074   24740563.0814
        36.4004         34.6004
 -11042692.95046  -8593648.42147  20891831.660    20891831.9804   20891833.4364
        48.4004         45.4004
 19 10 19  2  1 30.0000000  0  9G26G25G29G14G21G12G02G05G31
  -6989973.88844  -5428097.09746  22158308.411    22158308.4044   22158314.4984
        42.9004         40.2004
 -12577569.79246  -9777797.02647  21561223.299    21561222.5444   21561228.3464
        47.2004         44.2004
 -24705692.09747 -19228299.22747  20310543.209    20310543.3494   20310545.4844
        50.5004         47.8004
    746049.59851    595197.70555  24390630.831    24390631.6674   24390629.3004
        34.2004         32.7004
  -4060979.75144  -2911138.80146  22811346.892    22811345.7984   22811348.8204
        40.9004         38.5004
   4939661.08551   3871967.64655  25206476.238    25206479.8294   25206482.1314
        34.2004         32.9004
   2311316.81942   1817882.99245  24872426.433    24872426.4584   24872428.2464
        37.3004         35.2004
  -1271374.58242   -974856.10645  24729236.514    24729237.6714   24729241.7514
        37.0004         35.2004
 -11026898.63246  -8581341.17047  20894836.727    20894837.3214   20894839.0884
        48.4004         45.6004
 19 10 19  2  2  0.0000000  0  9G26G25G29G14G21G12G02G05G31
  -7069453.50444  -5490029.26246  22143183.731    22143183.8584   22143189.6724
        43.0004         40.2004
 -12505062.03746  -9721297.48447  21575020.714    21575020.4184   21575026.4354
        47.2004         44.2004
 -24678891.87647 -19207415.93647  20315643.266    20315643.3884   20315645.2954
        50.5004         47.8004
    832531.60841    662586.30745  24407087.687    24407086.6874   24407089.3334
        33.7004         32.4004
  -4151411.30044  -2981604.93046  22794138.348    22794138.5384   22794140.5884
        41.3004         38.6004
   5041378.61641   3951228.01345  25225835.439    25225835.8114   25225836.4734
        34.2004         33.1004
   2395637.28342   1883587.24945  24888474.152    24888471.6954   24888475.2744
        37.3004         35.2004
  -1330492.23243  -1020921.80545  24717987.666    24717989.0714   24717991.4034
        37.6004         35.7004
 -11010534.89246  -8568590.21147  20897951.293    20897951.6814   20897953.1494
        48.6004         45.8004
 19 10 19  2  2 30.0000000  0  9G26G25G29G14G21G12G02G05G31
  -7148728.69344  -5551802.13146  22128097.796    22128098.0254   22128104.1934
        43.4004         40.7004
 -12432266.48046  -9664573.69047  21588873.329    21588873.0374   21588878.8264
        47.0004         44.0004
 -24651653.28947 -19186191.06647  20320826.825    20320826.6334   20320828.5604
        50.5004         47.8004
    919167.28351    730094.66355  24423572.948    24423573.5324   24423576.8654
        33.8004         32.7004
  -4241566.21244  -3051855.47646  22776982.755    22776980.8274   22776983.9204
        41.3004         38.5004
   5143142.17442   4030524.28045  25245207.017    25245200.7024   25245204.4204
        35.2004         33.8004
   2480200.93142   1949480.96945  24904564.524    24904565.5904   24904566.8404
        37.1004         35.0004
  -1389223.12643  -1066686.11345  24706811.909    24706812.2954   24706816.4014
        37.8004         35.9004
 -10993601.73546  -8555395.55147  20901173.607    20901173.6364   20901175.0214
        48.6004         45.6004
 19 10 19  2  3  0.0000000  0  9G26G25G23G29G14G21G02G05G31
  -7227798.02145  -5613414.58646  22113051.942    22113052.2294   22113058.2114
        43.7004         41.4004
 -12359184.02746  -9607626.36047  21602780.386    21602779.8494   21602785.8184
        47.0004         44.0004
                    -21483.20454  25336371.665
                        28.4004
 -24623977.13347 -19164625.23247  20326093.829    20326093.6294   20326095.4424
        50.7004         47.8004
   1005953.56951    797720.34755  24440089.276    24440090.2054   24440091.0664
        33.3004         32.0004
  -4331442.82144  -3121889.19046  22759878.041    22759878.2654   22759881.0074
        41.3004         38.6004
   2565005.11143   2015562.18945  24920704.149    24920704.0824   24920704.8964
        37.6004         35.5004
  -1447564.70043  -1112147.05245  24695711.920    24695711.0494   24695714.2364
        37.8004         35.7004
 -10976099.63046  -8541757.55247  20904504.070    20904504.4624   20904505.8604
        48.6004         45.8004
 19 10 19  2  3 30.0000000  0  9G26G25G23G29G14G21G02G05G31
  -7306660.08645  -5674865.54346  22098045.115    22098045.7374   22098051.1054
        44.4004         41.9004
 -12285815.55046  -9550456.11847  21616741.967    21616741.1084   21616747.6794
        46.9004         43.9004
                    -45673.01745  25330462.766
                        35.5004
 -24595865.15647 -19142719.79947  20331442.662    20331442.9234   20331444.7594
        50.7004         47.8004
   1092887.61351    865461.10855  24456631.754    24456628.4474   24456631.4344
        33.3004         32.2004
  -4421038.36344  -3191703.87446  22742829.947    22742829.2534   22742831.4754
        41.3004         38.6004
   2650047.85342   2081829.24445  24936887.654    24936886.3964   24936887.0424
        37.5004         35.3004
  -1505514.05043  -1157302.36545  24684684.988    24684684.9004   24684686.5714
        37.8004         35.5004
 -10958028.86446  -8527676.44747  20907943.314    20907942.9914   20907944.4064
        48.6004         45.8004
 19 10 19  2  4  0.0000000  0  9G26G25G23G29G14G21G02G05G31
  -7385313.46445  -5736153.89047  22083078.313    22083078.3914   22083083.9924
        44.8004         42.1004
 -12212161.78346  -9493063.60947  21630757.580    21630757.2934   21630763.3094
        46.7004         43.7004
                    -69483.86745  25324649.427                    25324648.0274
                        35.3004
 -24567318.87947 -19120475.94747  20336874.892    20336874.8484   20336877.0484
        50.5004         47.8004
   1179966.26151    933314.55955  24473202.360    24473201.6594   24473205.9304
        33.3004         32.4004
  -4510350.44644  -3261297.66746  22725835.055    22725833.1804   22725836.1434
        41.3004         38.6004
   2735326.98942   2148280.51945  24953114.779    24953114.3314   24953116.1564
        37.5004         35.3004
  -1563068.30343  -1202149.80545  24673729.940    24673731.2974   24673734.5464
        37.8004         35.5004
 -10939389.96446  -8513152.62747  20911490.285    20911490.2354   20911491.3974
        48.8004         45.9004
 19 10 19  2  4 30.0000000  0  9G26G25G23G29G14G21G02G05G31
  -7463756.72745  -5797278.50147  22068151.213    22068151.3194   22068156.4734
        45.1004         42.5004
 -12138223.66746  -9435449.49247  21644826.871    21644826.7434   21644833.0264
        46.7004         43.5004
   -127683.53742    -92915.09345  25318926.049    25318924.9044   25318926.9104
        36.3004         34.6004
 -24538339.53947 -19097894.64547  20342389.496    20342389.3744   20342391.8914
        50.5004         47.7004
   1267186.33451   1001278.28955  24489798.970    24489798.7154   24489803.0454
        33.3004         32.4004
  -4599376.60344  -3330668.68446  22708892.664    22708892.1734   22708895.2384
        41.3004         38.8004
   2820840.11843   2214914.13345  24969388.233    24969387.1024   24969388.1964
        37.6004         35.5004
  -1620225.22642  -1246687.63445  24662854.807    24662855.1074   24662857.6444
        37.5004         35.0004
 -10920183.08046  -8498186.23847  20915144.442    20915144.6054   20915146.2914
        48.6004         45.8004
 19 10 19  2  5  0.0000000  0  9G26G25G23G29G14G21G02G05G31
  -7541988.46045  -5858238.28947  22053264.177    22053264.1634   22053269.5604
        45.3004         42.6004
 -12064001.99846  -9377614.45447  21658951.488    21658951.1604   21658956.8804
        46.5004         43.3004
   -157265.76842   -115966.14945  25313295.936    25313296.5594   25313295.7394
        35.6004         33.6004
 -24508928.37647 -19074976.86347  20347985.971    20347986.0524   20347988.3134
        50.5004         47.7004
   1354544.96641   1069349.94945  24506422.805    24506424.0694   24506427.6424
        33.5004         32.6004
  -4688114.76244  -3399815.29846  22692007.359    22692006.5494   22692008.3644
        41.5004         38.8004
   2906585.13642   2281728.42745  24985704.452    24985704.1154   24985705.1264
        37.5004         35.3004
  -1676982.02542  -1290913.67945  24652049.774    24652053.1274   24652056.4454
        36.8004         34.6004
 -10900408.74546  -8482777.67947  20918907.213    20918907.4064   20918909.2434
        48.6004         45.6004
 19 10 19  2  5 30.0000000  0  9G26G25G23G29G14G21G02G05G31
  -7620007.23445  -5919032.13047  22038417.764    22038417.8894   22038423.1204
        45.6004         43.0004
 -11989497.66645  -9319559.14447  21673129.069    21673129.2854   21673134.1164
        46.3004         43.3004
   -186359.53952   -138636.64755  25307761.208    25307759.4574   25307759.5104
        35.0004         33.3004
 -24479086.98947 -19051723.83147  20353664.470    20353664.4614   20353667.1134
        50.3004         47.5004
   1442039.11141   1137527.18145  24523073.317    24523071.8004   24523073.3074
        33.5004         32.6004
  -4776562.94544  -3468735.94446  22675177.105    22675175.9474   22675177.6044
        41.6004         39.0004
   2992559.61842   2348721.53345  25002066.415    25002064.3864   25002066.5314
        37.3004         35.2004
  -1733336.22542  -1334825.99845  24641327.845    24641328.0364   24641331.1784
        36.1004         34.3004
 -10880067.30046  -8466927.20547  20922778.105    20922778.3824   20922780.2314
        48.4004         45.6004
 19 10 19  2  6  0.0000000  0  9G26G25G23G29G14G21G02G05G31
  -7697811.58045  -5979658.90147  22023612.613    22023611.9194   22023617.5054
        46.0004         43.2004
 -11914711.52845  -9261284.24947  21687360.538    21687360.5614   21687366.0264
        46.3004         43.3004
   -214963.30142   -160925.28245  25302318.715    25302318.7994   25302314.3984
        34.9004         33.4004
 -24448816.96947 -19028136.80647  20359425.200    20359425.1434   20359427.3384
        50.3004         47.7004
   1529665.77741   1205807.75445  24539748.147    24539745.6594   24539750.7074
        33.7004         32.4004
  -4864718.65244  -3537428.68846  22658400.558    22658398.6834   22658402.1444
        41.6004         38.8004
   3078761.81542   2415892.01445  25018468.453    25018467.7604   25018468.3874
        36.8004         34.5004
  -1789285.02742  -1378422.42945  24630685.638    24630682.3834   24630686.7414
        36.1004         34.5004
 -10859159.36846  -8450635.32147  20926757.092    20926756.8864   20926759.0554
        48.4004         45.6004
 19 10 19  2  6 30.0000000  0  9G26G25G23G29G14G21G02G05G31
  -7775400.05545  -6040117.46047  22008847.737    22008847.8894   22008853.1404
        46.2004         43.5004
 -11839644.42245  -9202790.41347  21701646.421    21701645.8734   21701650.8214
        46.3004         43.5004
   -243076.90442   -182831.98945  25296968.612    25296967.8564   25296965.6634
        35.0004         33.8004
 -24418119.28347 -19004216.53147  20365266.783    20365266.7334   20365268.8494
        50.5004         47.7004
   1617422.06541   1274189.20745  24556448.148    24556447.9184   24556449.4814
        33.8004         32.7004
  -4952579.20144  -3605891.45346  22641680.454    22641680.0814   22641683.2344
        41.6004         39.0004
   3165189.37042   2483238.19345  25034915.148    25034914.0384   25034914.6344
        36.6004         34.6004
  -1844825.78742  -1421700.91645  24620116.160    24620114.7754   24620115.5644
        36.3004         34.5004
 -10837685.26546  -8433902.26247  20930842.812    20930843.2564   20930845.2174
        48.4004         45.4004
 19 10 19  2  7  0.0000000  0  9G26G25G23G29G14G21G02G05G31
  -7852771.24646  -6100406.69047  21994124.274    21994124.3504   21994129.9204
        46.5004         43.7004
 -11764297.22045  -9144078.31347  21715982.606    21715983.6454   21715988.7674
        46.3004         43.3004
   -270699.19742   -204355.83245  25291711.634    25291713.0044   25291710.5664
        35.9004         34.5004
 -24386995.79147 -18979964.46047  20371189.276    20371189.1634   20371191.3804
        50.5004         47.7004
   1705304.72241   1342669.15545  24573171.462    24573171.0854   24573172.8744
        33.8004         32.7004
  -5040142.93044  -3674122.91246  22625018.215    22625016.8704   22625020.3104
        41.6004         39.0004
   3251840.08642   2550758.22445  25051406.056    25051403.6264   25051404.5164
        36.8004         34.6004
  -1899956.00242  -1464659.53845  24609624.974    24609623.8474   24609627.1574
        36.6004         34.6004
 -10815645.45846  -8416728.40247  20935037.458    20935037.4354   20935039.7484
        48.4004         45.6004
 19 10 19  2  7 30.0000000  0  9G26G25G23G29G14G21G02G05G31
  -7929923.68746  -6160525.48047  21979442.882    21979442.5094   21979448.5334
        46.7004         44.0004
 -11688670.78145  -9085148.63647  21730375.234    21730374.0284   21730380.1164
        46.3004         43.5004
   -297829.63842   -225496.42245  25286548.617    25286549.3004   25286547.3144
        36.1004         34.5004
 -24355447.44047 -18955381.32947  20377193.137    20377192.9814   20377194.8614
        50.3004         47.7004
   1793310.78041   1411245.30345  24589917.568    24589916.4814   24589919.6594
        33.5004         32.2004
  -5127407.12244  -3742120.96746  22608411.936    22608411.4544   22608414.2484
        41.6004         39.0004
   3338711.64942   2618450.38445  25067936.370    25067935.2524   25067935.8994
        36.8004         35.0004
  -1954673.14042  -1507296.24545  24599214.782    24599211.4064   24599214.9084
        36.8004         34.8004
 -10793040.33146  -8399114.02747  20939338.722    20939339.1484   20939340.8904
        48.4004         45.4004
 19 10 19  2  8  0.0000000  0  9G26G25G23G29G14G21G02G05G31
  -8006855.91646  -6220472.66247  21964802.871    21964802.9594   21964808.5814
        46.9004         44.0004
 -11612765.97746  -9026002.04247  21744819.420    21744818.1414   21744824.8224
        46.5004         43.5004
   -324467.65842   -246253.33245  25281479.213    25281479.0804   25281476.5274
        36.4004         34.6004
 -24323475.87447 -18930468.42047  20383277.169    20383277.1014   20383278.9984
        50.3004         47.7004
   1881437.34141   1479915.34745  24606686.829    24606687.8234   24606688.8614
        33.0004         32.0004
  -5214369.61844  -3809883.92946  22591863.138    22591862.6934   22591866.1034
        41.8004         39.2004
   3425801.43242   2686312.54445  25084506.338    25084506.7744   25084508.3224
        36.3004         34.3004
  -2008974.56842  -1549608.98545  24588879.380    24588877.1544   24588879.9324
        37.3004         35.2004
 -10769870.48446  -8381059.61047  20943747.630    20943748.1284   20943750.0234
        48.2004         45.4004
 19 10 19  2  8 30.0000000  0  9G26G25G23G29G14G21G02G05G31
  -8083566.49446  -6280247.13747  21950204.857    21950205.0704   21950211.1764
        46.9004         44.0004
 -11536583.66846  -8966639.23947  21759315.875    21759315.9774   21759321.7484
        46.5004         43.7004
   -350612.50142   -266625.95245  25276504.301    25276504.5904   25276503.3324
        36.1004         34.1004
 -24291082.59547 -18905226.91047  20389441.021    20389441.0204   20389443.1524
        50.3004         47.5004
   1969681.47941   1548677.05745  24623478.914    24623481.0704   24623481.3214
        32.8004         31.9004
  -5301028.67344  -3877410.45446  22575373.025    22575372.0244   22575375.4364
        42.0004         39.5004
   3513108.22242   2754343.81645  25101121.202    25101122.8964   25101123.0874
        36.3004         34.6004
  -2062857.57742  -1591595.72145  24578617.384    24578621.0824   24578626.6724
        36.8004         34.8004
 -10746136.69846  -8362565.76647  20948264.564    20948264.9834   20948266.1004
        48.2004         45.6004
 19 10 19  2  9  0.0000000  0  9G26G25G23G29G14G21G02G05G31
  -8160053.97146  -6339847.76447  21935649.961    21935649.7354   21935656.3834
        46.9004         43.9004
 -11460124.75145  -8907060.88947  21773866.018    21773865.9884   21773871.6094
        46.3004         43.5004
   -376263.23442   -286613.57045  25271623.710    25271621.1794   25271621.9924
        36.1004         34.0004
 -24258268.78547 -18879657.70647  20395685.041    20395685.0744   20395687.3014
        50.3004         47.5004
   2058039.67841   1617527.54845  24640294.887    24640293.5324   24640297.4344
        33.1004         32.4004
  -5387381.31844  -3944698.22046  22558940.979    22558939.7204   22558942.7914
        42.3004         39.7004
   3600629.47842   2822542.20845  25117777.301    25117776.0134   25117776.6334
        36.8004         35.0004
  -2116319.78742  -1633254.58545  24568444.392    24568449.0134   24568452.6294
        36.6004         34.6004
 -10721839.34046  -8343632.77747  20952888.810    20952888.6934   20952889.7924
        48.4004         45.4004
 19 10 19  2  9 30.0000000  0  9G26G25G23G29G14G21G02G05G31
  -8236316.82846  -6399273.36347  21921137.044    21921137.5834   21921143.6874
        46.7004         43.7004
 -11383390.11945  -8847267.67547  21788467.763    21788467.9464   21788473.6254
        46.3004         43.5004
   -401419.16342   -306215.64645  25266836.550    25266835.6524   25266834.0044
        35.6004         33.8004
 -24225036.26247 -18853762.23247  20402009.252    20402008.9054   20402011.2824
        50.3004         47.3004
   2146509.41241   1686465.01645  24657128.679    24657127.5374   24657131.9644
        33.7004         32.7004
  -5473425.47344  -4011745.60346  22542566.179    22542566.2254   22542568.8004
        42.3004         39.7004
   3688362.95242   2890905.97345  25134471.855    25134471.1674   25134471.8334
        36.6004         34.6004
  -2169358.63042  -1674583.47945  24558354.949    24558356.1214   24558358.9584
        36.6004         34.6004
 -10696979.00246  -8324261.08547  20957618.864    20957619.1084   20957620.7854
        48.4004         45.4004
 19 10 19  2 10  0.0000000  0  9G26G25G23G29G14G21G02G05G31
  -8312353.65646  -6458522.82447  21906667.913    21906667.8324   21906674.3894
        46.5004         43.5004
 -11306380.59946  -8787260.28047  21803121.962    21803122.1384   21803128.1164
        46.5004         43.5004
   -426079.70042   -325431.66345  25262142.863    25262141.0614   25262142.7144
        35.6004         33.8004
 -24191386.19347 -18827541.39847  20408412.379    20408412.5324   20408414.6974
        50.2004         47.3004
   2235087.42341   1755486.83545  24673986.101    24673982.8324   24673986.3074
        34.2004         33.1004
  -5559158.83344  -4078550.81646  22526252.153    22526251.1434   22526253.9804
        42.5004         39.7004
   3776306.30842   2959433.25745  25151208.082    25151207.6534   25151207.0884
        36.6004         34.6004
  -2221971.39142  -1715580.40745  24548344.605    24548343.8114   24548348.2424
        36.8004         35.2004
 -10671556.24746  -8304451.17347  20962457.278    20962457.3874   20962458.3204
        48.4004         45.4004
 19 10 19  2 10 30.0000000  0  9G26G25G23G29G14G21G02G05G31
  -8388162.91545  -6517594.96647  21892241.735    21892241.9924   21892248.5844
        46.2004         43.3004
 -11229097.08445  -8727039.38747  21817829.059    21817828.7374   21817834.6374
        46.3004         43.3004
   -450244.62342   -344261.44445  25257545.306    25257546.4974   25257544.9504
        35.7004         33.8004
 -24157320.06647 -18800996.36347  20414895.297    20414895.1354   20414897.1394
        50.2004         47.3004
   2323770.72742   1824590.69545  24690861.670    24690862.8134   24690862.1164
        34.9004         33.6004
  -5644579.29744  -4145112.19746  22509997.850    22509996.7844   22509999.7014
        42.5004         39.9004
   3864457.48642   3028122.49545  25167982.394    25167981.9834   25167980.0334
        36.8004         34.8004
  -2274155.97142  -1756243.68145  24538411.277    24538413.7604   24538418.2934
        37.3004         35.3004
 -10645571.67446  -8284203.45647  20967400.950    20967401.4724   20967403.2264
        48.4004         45.6004
 19 10 19  2 11  0.0000000  0  9G26G25G23G29G14G21G02G05G31
  -8463743.19545  -6576488.68147  21877859.087    21877859.5154   21877865.9254
        45.8004         42.8004
 -11151540.51645  -8666605.70447  21832587.947    21832586.8134   21832593.1584
        46.3004         43.3004
   -473913.18642   -362704.48245  25253039.387    25253040.3524   25253040.5774
        35.2004         33.6004
 -24122839.46847 -18774128.36047  20421456.519    20421456.5834   20421458.9294
        50.2004         47.5004
   2412556.54942   1893774.46445  24707756.495    24707756.4814   24707759.6424
        35.4004         33.8004
  -5729684.85144  -4211428.22046  22493803.120    22493802.2564   22493804.3674
        42.5004         39.9004
   3952814.23342   3096971.92045  25184796.329    25184793.2384   25184795.3944
        36.6004         34.3004
  -2325909.53642  -1796571.09845  24528565.942    24528566.1544   24528570.1854
        37.5004         35.5004
 -10619026.20146  -8263518.69047  20972453.564    20972453.3964   20972454.3894
        48.4004         45.6004
 19 10 19  2 11 30.0000000  0  9G26G25G23G29G14G21G02G05G31
  -8539093.00045  -6635202.80447  21863520.323    21863520.6814   21863527.0194
        45.6004         42.6004
 -11073711.74545  -8605959.91747  21847396.467    21847397.0074   21847402.8904
        46.2004         43.2004
   -497084.31742   -380759.86945  25248632.012    25248632.1754   25248631.7914
        35.2004         33.6004
 -24087945.78947 -18746938.48147  20428096.812    20428096.4504   20428098.8304
        50.2004         47.3004
   2501441.88742   1963035.78045  24724670.852    24724671.4784   24724672.6454
        35.6004         33.8004
  -5814473.22344  -4277497.06646  22477668.763    22477667.1434   22477669.5834
        42.5004         39.9004
   4041374.23242   3165979.68945  25201649.749    25201647.4344   25201646.8514
        36.8004         34.6004
  -2377229.53043  -1836560.66545  24518803.548    24518800.3094   24518804.6584
        37.8004         35.9004
 -10591920.20046  -8242397.14447  20977610.992    20977611.2484   20977612.5514
        48.4004         45.4004
 19 10 19  2 12  0.0000000  0  9G26G25G23G29G14G21G02G05G31
  -8614210.81945  -6693736.15947  21849226.506    21849226.5424   21849232.7004
        45.5004         42.8004
 -10995611.67645  -8545102.74347  21862260.490    21862259.2684   21862265.2114
        46.3004         43.3004
   -519758.13942   -398427.78845  25244316.309    25244314.9514   25244318.7314
        35.0004         33.3004
 -24052640.27147 -18719427.69447  20434815.058    20434815.4184   20434817.2134
        50.2004         47.3004
   2590423.38642   2032371.98345  24741604.084    24741603.4204   24741606.6814
        35.9004         34.1004
  -5898942.45244  -4343317.24146  22461593.528    22461592.7054   22461594.9704
        42.7004         40.0004
   4130135.21742   3235144.11645  25218538.665    25218538.8674   25218537.0074
        36.1004         34.1004
  -2428114.02643  -1876210.86046  24509119.754    24509118.3464   24509121.4914
        38.2004         36.2004
 -10564254.35046  -8220839.35147  20982875.944    20982876.1134   20982877.1254
        48.4004         45.6004
 19 10 19  2 12 30.0000000  0  9G26G25G23G29G14G21G02G05G31
  -8689095.18945  -6752087.61247  21834977.244    21834976.8764   21834982.7414
        45.6004         43.0004
 -10917241.18645  -8484034.84147  21877172.936    21877172.8464   21877178.6814
        46.3004         43.3004
   -541933.68042   -415707.45945  25240096.919    25240097.1824   25240096.4184
        35.0004         33.6004
 -24016924.77947 -18691597.43547  20441611.636    20441611.6794   20441613.9144
        50.2004         47.3004
   2679498.27842   2101780.99045  24758554.381    24758553.8554   24758555.9144
        35.7004         34.0004
  -5983089.74744  -4408886.54346  22445579.898    22445579.6624   22445582.8804
        42.7004         40.0004
   4219095.33842   3304463.67545  25235468.483    25235467.0664   25235464.9504
        36.1004         34.3004
  -2478560.08843  -1915519.48646  24499517.899    24499520.1124   24499522.7904
        38.5004         36.2004
 -10536029.59546  -8198846.04747  20988246.752    20988246.7404   20988248.3614
        48.4004         45.6004
 19 10 19  2 13  0.0000000  0  9G26G25G23G29G14G21G02G05G31
  -8763744.60845  -6810255.99747  21820771.766    21820770.6734   21820777.1104
        45.8004         43.0004
 -10838601.18045  -8422756.92747  21892137.850    21892137.2084   21892143.6284
        46.3004         43.5004
   -563610.28842   -432598.32345  25235972.229    25235970.7754   25235971.7674
        35.4004         33.8004
 -23980800.50447 -18663448.64547  20448485.319    20448485.4854   20448487.8504
        50.0004         47.2004
   2768663.81142   2171260.63645  24775521.670    24775520.1204   24775523.3224
        35.4004         33.8004
  -6066913.62644  -4474203.85646  22429630.152    22429629.8484   22429631.3624
        42.7004         39.9004
   4308252.49742   3373936.79145  25252433.355    25252431.8134   25252432.7944
        36.3004         34.5004
  -2528565.31343  -1954484.55546  24490006.751    24490003.7554   24490007.0264
        38.5004         36.2004
 -10507246.80446  -8176417.91047  20993724.114    20993723.9194   20993725.6194
        48.4004         45.4004
 19 10 19  2 13 30.0000000  0  9G26G25G23G29G14G21G02G05G31
  -8838157.54945  -6868240.09847  21806611.278    21806610.9344   21806617.0874
        45.8004         43.2004
 -10759692.56745  -8361269.71547  21907153.834    21907153.0844   21907159.2514
        46.3004         43.5004
   -584787.93142   -449100.37245  25231941.579    25231941.8844   25231942.8274
        35.2004         33.4004
 -23944269.56947 -18634982.98247  20455437.205    20455437.3274   20455439.2824
        50.0004         47.2004
   2857916.60842   2240808.25745  24792505.000    24792505.7364   24792509.2664
        35.0004         33.4004
  -6150411.35644  -4539267.01446  22413741.091    22413740.2874   22413742.1134
        42.7004         39.9004
   4397604.19742   3443561.46445  25269434.559    25269434.1184   25269435.1294
        36.1004         34.3004
  -2578127.39943  -1993104.29945  24480574.311    24480571.1934   24480574.0314
        38.2004         35.7004
 -10477906.48546  -8153555.32947  20999306.683    20999307.1004   20999309.1124
        48.2004         45.4004
 19 10 19  2 14  0.0000000  0  9G26G25G23G29G14G21G02G05G31
  -8912332.54545  -6926038.79247  21792496.446    21792496.3494   21792502.3054
        46.0004         43.2004
 -10680516.26345  -8299573.91247  21922219.657    21922219.6204   21922225.9324
        46.3004         43.5004
   -605465.73642   -465212.96745  25228005.663    25228006.5284   25228008.8614
        34.7004         32.9004
 -23907332.42847 -18606200.79747  20462465.984    20462466.1564   20462468.2914
        50.0004         47.2004
   2947253.63542   2310421.49145  24809506.145    24809505.9344   24809505.7324
        34.7004         33.1004
  -6233581.51444  -4604074.91846  22397914.802    22397912.9754   22397915.8784
        42.7004         39.7004
   4487148.12842   3513335.96945  25286474.625    25286474.7424   25286474.1864
        35.4004         33.6004
  -2627243.91842  -2031376.90045  24471221.402    24471225.9104   24471227.7734
        37.5004         35.2004
 -10448009.22446  -8130258.78047  21004996.372    21004996.5564   21004998.0314
        48.1004         45.2004
 19 10 19  2 14 30.0000000  0  9G26G25G23G29G14G21G02G05G31
  -8986268.10845  -6983650.92747  21778426.736    21778426.5374   21778432.8754
        46.2004         43.3004
 -10601073.14645  -8237670.20647  21937337.667    21937337.5704   21937343.5124
        46.3004         43.5004
   -625643.31842   -480935.82745  25224165.956    25224166.3374   25224165.9644
        34.7004         33.1004
 -23869991.39547 -18577103.89147  20469572.139    20469572.0954   20469574.2004
        50.0004         47.2004
   3036672.08041   2380098.14745  24826520.854    24826521.2684   24826522.4794
        34.0004         32.6004
  -6316420.81944  -4668625.02146  22382150.506    22382149.0314   22382151.7604
        42.5004         39.9004
   4576882.42842   3583258.79245  25303550.337    25303550.9274   25303549.8944
        35.7004         34.5004
  -2675912.57642  -2069300.48445  24461962.543    24461961.8364   24461967.7864
        37.3004         35.2004
 -10417556.15546  -8106529.12147  21010791.187    21010791.4424   21010793.0124
        48.1004         45.2004
 19 10 19  2 15  0.0000000  0  9G26G25G23G29G14G21G02G05G31
  -9059962.69545  -7041075.27647  21764403.699    21764403.6854   21764409.1294
        46.3004         43.5004
 -10521364.16645  -8175559.33347  21952505.888    21952505.5904   21952511.1594
        46.3004         43.5004
   -645320.26842   -496268.50545  25220423.533    25220423.7214   25220421.8894
        35.2004         34.0004
 -23832247.46647 -18547693.04047  20476754.413    20476754.5334   20476756.6934
        50.0004         47.2004
   3126169.11541   2449836.09445  24843552.186    24843550.3184   24843556.0074
        33.5004         32.2004
  -6398927.80044  -4732916.16646  22366449.372    22366449.4434   22366451.4644
        42.5004         40.0004
   4666804.73442   3653328.11245  25320661.485    25320660.4634   25320664.1534
        35.6004         34.0004
  -2724130.83542  -2106873.10145  24452791.303    24452787.5344   24452789.0964
        37.3004         35.2004
 -10386548.07146  -8082367.00147  21016692.316    21016692.6064   21016693.7284
        48.1004         45.2004
 19 10 19  2 15 30.0000000  0  9G26G25G23G29G14G21G02G05G31
  -9133414.82645  -7098310.69347  21750425.796    21750425.4794   21750431.2354
        46.3004         43.3004
 -10441390.21346  -8113241.97747  21967723.891    21967723.9254   21967729.8604
        46.5004         43.5004
   -664496.27142   -511210.89645  25216772.617    25216774.5744   25216773.8284
        35.0004         33.3004
 -23794102.33947 -18517969.56847  20484012.988    20484013.3824   20484015.1554
        50.0004         47.2004
   3215741.59941   2519632.82645  24860598.302    24860595.7894   24860599.5444
        33.1004         32.4004
  -6481100.51544  -4796946.84146  22350813.187    22350811.5564   22350814.0244
        42.7004         39.9004
   4756913.01742   3723542.34145  25337808.435    25337810.2514   25337809.3294
        35.6004         33.8004
  -2771896.69942  -2144093.21145  24443694.835    24443696.4324   24443700.3094
        37.0004         34.8004
 -10354985.48146  -8057772.78447  21022698.110    21022698.3254   21022699.9524
        48.1004         45.2004
 19 10 19  2 16  0.0000000  0  9G26G25G23G29G14G21G02G05G31
  -9206622.97445  -7155356.01247  21736494.495    21736494.8814   21736500.5534
        46.3004         43.5004
 -10361152.20446  -8050718.87347  21982992.885    21982992.7364   21982998.8914
        46.5004         43.7004
   -683170.64842   -525762.42445  25213219.805    25213219.4614   25213217.8134
        34.9004         33.4004
 -23755557.50847 -18487934.63547  20491348.201    20491348.3454   20491349.9114
        50.0004         47.2004
   3305386.41041   2589485.91345  24877656.154    24877657.2394   24877659.7614
        32.8004         32.0004
  -6562936.58144  -4860715.19446  22335239.982    22335238.5684   22335241.7374
        42.7004         39.9004
   4847204.95642   3793899.72045  25354992.874    25354992.0654   25354992.9044
        35.6004         34.1004
  -2819207.41642  -2180958.71345  24434694.526    24434695.4634   24434697.4724
        36.8004         34.8004
 -10322869.47446  -8032747.32547  21028809.187    21028809.6464   21028811.5544
        48.1004         45.2004
 19 10 19  2 16 30.0000000  0  9G26G25G23G29G14G21G02G05G31
  -9279585.62845  -7212210.03047  21722610.215    21722609.8894   21722616.1884
        46.3004         43.5004
 -10280651.09246  -7987990.75047  21998312.250    21998312.2954   21998318.2474
        46.5004         43.7004
   -701343.43242   -539923.08645  25209761.025    25209760.4364   25209759.0864
        34.5004         33.3004
 -23716614.55247 -18457589.47147  20498758.610    20498758.7034   20498760.5414
        49.8004         47.2004
   3395100.64041   2659393.09745  24894729.015    24894728.2674   24894729.5524
        32.6004         31.7004
  -6644434.20644  -4924219.85346  22319729.274    22319730.6044   22319732.9054
        42.7004         39.9004
   4937678.42742   3864398.52345  25372207.560    25372208.0264   25372207.4384
        35.6004         33.8004
  -2866060.79942  -2217467.77845  24425779.494    24425778.2314   24425781.1484
        37.0004         34.8004
 -10290200.96946  -8007291.37247  21035026.633    21035026.6104   21035027.8384
        48.1004         45.2004
 19 10 19  2 17  0.0000000  0  9G26G25G23G29G14G21G02G05G31
  -9352301.27046  -7268871.55947  21708772.839    21708773.0944   21708778.0144
        46.5004         43.5004
 -10199887.76346  -7925058.29547  22013681.030    22013680.6684   22013686.3784
        46.7004         43.7004
   -719013.63042   -553692.10745  25206399.902    25206401.2054   25206397.9954
        35.4004         34.1004
 -23677275.06847 -18426935.33247  20506244.510    20506244.4444   20506246.6954
        49.8004         47.2004
   3484881.36141   2729352.13445  24911813.054    24911812.8114   24911813.5254
        32.8004         32.4004
  -6725590.96644  -4987458.86646  22304287.605    22304286.6464   22304289.5724
        42.7004         39.9004
   5028331.22942   3935037.07245  25389458.338    25389456.5654   25389459.7194
        35.4004         33.4004
  -2912454.23642  -2253618.49145  24416947.331    24416949.8514   24416953.3724
        37.1004         35.3004
 -10256980.74946  -7981405.50547  21041347.792    21041348.1154   21041350.0764
        48.1004         45.2004
 19 10 19  2 17 30.0000000  0  9G26G25G23G29G14G21G02G05G31
  -9424768.36746  -7325339.42747  21694983.013    21694982.7204   21694988.5894
        46.7004         43.9004
 -10118863.15246  -7861922.25047  22029099.769    22029099.1594   22029104.7574
        46.5004         43.5004
   -736181.35442   -567069.51745  25203132.924    25203131.8414   25203130.5864
        35.9004         34.1004
 -23637540.29147 -18395973.17247  20513805.529    20513805.7284   20513807.9374
        49.8004         47.0004
   3574725.71141   2799360.74645  24928909.437    24928909.0684   24928912.7774
        33.0004         32.0004
  -6806404.59344  -5050430.51546  22288908.110    22288907.3584   22288911.2994
        42.9004         40.0004
   5119161.16142   4005813.65745  25406743.675    25406743.0254   25406742.6554
        35.0004         33.6004
  -2958385.81842  -2289409.31045  24408210.571    24408211.2044   24408211.6424
        37.5004         35.3004
 -10223209.78846  -7955090.47947  21047774.123    21047774.4454   21047776.0504
        48.1004         45.2004
 19 10 19  2 18  0.0000000  0  9G26G25G23G29G14G21G02G05G31
  -9496985.41846  -7381612.44747  21681240.409    21681240.0964   21681245.6024
        46.7004         43.7004
 -10037578.21746  -7798583.35647  22044567.705    22044567.8464   22044572.9894
        46.5004         43.7004
   -752846.26742   -580055.20145  25199961.283    25199962.3494   25199962.7514
        35.7004         34.1004
 -23597412.24947 -18364704.56747  20521441.467    20521441.6634   20521444.1964
        49.6004         46.8004
   3664630.74241   2869416.60545  24946018.776    24946018.1024
        32.4004         31.9004
  -6886873.07244  -5113133.21746  22273596.737    22273596.2044   22273598.6414
        42.9004         40.2004
   5210166.17542   4076726.69545  25424059.740    25424059.9094   25424061.8204
        35.4004         34.0004
  -3003852.87143  -2324838.13845  24399557.999    24399558.6814   24399559.0984
        37.6004         35.5004
 -10188889.10546  -7928347.10147  21054305.694    21054305.6714   21054307.1864
        48.2004         45.4004
 19 10 19  2 18 30.0000000  0  9G26G25G23G29G14G21G02G05G31
  -9568950.87146  -7437689.41347  21667545.535    21667545.6964   21667551.1014
        46.7004         43.7004
  -9956033.85946  -7735042.30647  22060085.868    22060084.3724   22060090.5074
        46.5004         43.5004
   -769007.91042   -592648.73145  25196885.574    25196885.2494   25196884.6754
        35.6004         33.8004
 -23556892.02447 -18333130.36447  20529152.564    20529152.7154   20529154.9324
        49.6004         47.0004
   3754593.80351   2939517.71155  24963138.435    24963140.0214
        32.4004         32.2004
  -6966994.44244  -5175565.43746  22258351.606    22258350.0314   22258352.2394
        43.0004         40.4004
   5301343.82442   4147774.20345  25441411.549    25441409.9604   25441413.6134
        35.4004         33.8004
  -3048853.76343  -2359903.74445  24390994.078    24390996.0714   24390997.4774
        38.0004         35.9004
 -10154019.54246  -7901176.03047  21060941.270    21060941.5864   21060942.8994
        48.2004         45.4004
 19 10 19  2 19  0.0000000  0  9G26G25G23G29G14G21G02G05G31
  -9640663.19046  -7493569.14047  21653899.474    21653899.2224   21653904.8314
        46.7004         43.9004
  -9874230.99445  -7671299.82847  22075651.579    22075651.2934   22075656.8694
        46.3004         43.5004
   -784666.17442   -604849.99545  25193907.773    25193906.8984   25193905.6444
        35.9004         34.1004
 -23515980.95147 -18301251.60547  20536937.625    20536937.9174   20536940.0084
        49.6004         46.8004
   3844611.33551   3009661.25755  24980267.727    24980270.2154
        31.6004         31.2004
  -7046767.30144  -5237726.09846  22243168.315    22243169.1034   22243171.8694
        43.2004         40.6004
   5392692.38242   4218954.88645  25458795.890    25458796.0854   25458794.8764
        35.9004         34.1004
  -3093386.03543  -2394604.20845  24382524.297    24382522.0184   24382521.2994
        38.2004         35.9004
 -10118602.33546  -7873578.21647  21067680.741    21067680.9354   21067682.5484
        48.2004         45.2004
 19 10 19  2 19 30.0000000  0  9G26G25G23G29G14G21G02G05G31
  -9712120.85746  -7549250.43547  21640301.547    21640301.4484   21640307.2404
        46.7004         43.9004
  -9792170.60245  -7607356.68247  22091266.538    22091266.7904   22091272.3784
        46.3004         43.3004
   -799820.69842   -616658.71845  25191022.885    25191022.1804   25191021.9704
        35.9004         34.1004
 -23474680.89847 -18269069.75547  20544797.004    20544797.1154   20544799.2484
        49.6004         46.8004
                   3079844.98355  24997407.661
                        31.3004
  -7126189.01244  -5299613.15546  22228055.629    22228056.2374   22228058.2464
        43.4004         40.7004
   5484209.60442   4290267.05845  25476211.856    25476211.3644   25476210.8724
        35.9004         34.3004
  -3137447.31343  -2428937.64546  24374134.074    24374136.2064   24374138.0334
        38.3004         36.4004
 -10082638.12346  -7845554.16747  21074524.057    21074524.5144   21074526.0884
        48.1004         45.1004
 19 10 19  2 20  0.0000000  0  9G26G25G23G29G14G21G02G05G31
  -9783322.34846  -7604732.11547  21626752.224    21626752.1554   21626757.7074
        46.7004         43.5004
  -9709853.63246  -7543213.59947  22106931.592    22106931.0774   22106937.4704
        46.5004         43.5004
   -814471.31142   -628074.75545  25188234.809    25188234.9014   25188233.4614
        35.7004         34.0004
 -23432993.42247 -18236586.00647  20552730.066    20552730.0514   20552732.0984
        49.6004         46.8004
                   3150066.87455  25014556.843
                        30.7004
  -7205257.17945  -5361224.70446  22213011.782    22213010.7964   22213011.6874
        43.7004         41.2004
   5575893.19642   4361708.83445  25493658.801    25493656.4724   25493657.5804
        36.8004         35.0004
  -3181035.20143  -2462902.19846  24365843.816    24365841.2094   24365843.8724
        38.9004         36.6004
 -10046128.21746  -7817104.90047  21081471.579    21081471.8954   21081473.5614
        47.9004         45.1004
 19 10 19  2 20 30.0000000  0  9G26G25G23G29G14G21G02G05G31
  -9854266.11246  -7660012.95747  21613251.536    21613251.2114   21613257.9184
        46.5004         43.7004
  -9627280.99546  -7478871.30747  22122644.632    22122644.3624   22122650.2554
        46.5004         43.7004
   -828617.67542   -639097.87345  25185542.778    25185540.8004   25185545.5574
        35.2004         33.3004
 -23390920.24646 -18203801.72047  20560736.609    20560736.4414   20560738.2714
        49.5004         46.6004
                      9997.32053  25031710.141
                        23.4004
  -7283970.40145  -5422559.67746  22198031.976    22198031.4554   22198033.9244
        43.9004         41.2004
   5667740.79142   4433278.36545  25511135.248    25511136.1124   25511134.7304
        37.0004         35.0004
  -3224147.54543  -2496496.20546  24357637.572    24357636.8814   24357641.2264
        38.9004         36.6004
 -10009073.44846  -7788231.06347  21088523.299    21088523.0304   21088524.9204
        47.9004         44.9004
 19 10 19  2 21  0.0000000  0  9G26G25G23G29G14G21G02G05G31
  -9924950.58446  -7715091.75647  21599800.484    21599800.9844   21599807.4384
        46.7004         43.9004
  -9544453.64046  -7414330.51547  22138407.060    22138406.2414   22138411.9554
        46.5004         43.7004
   -842259.66342   -649727.97445  25182948.018    25182946.4144   25182944.8774
        35.2004         33.8004
 -23348462.79046 -18170717.98447  20568815.662    20568815.5574   20568817.4584
        49.5004         46.6004
                     80287.15754  25048878.929
                        28.9004
  -7362326.44045  -5483616.32846  22183122.004    22183120.9844   22183122.9504
        44.2004         41.4004
   5759750.27542   4504974.09245  25528643.119    25528643.6274   25528643.0314
        36.6004         34.5004
  -3266782.30143  -2529718.04046  24349523.100    24349524.4014   24349526.5564
        38.5004         36.0004
  -9971474.95446  -7758933.54947  21095677.591    21095677.9904   21095679.6444
        47.7004         44.9004
 19 10 19  2 21 30.0000000  0  8G26G25G23G29G21G02G05G31
  -9995374.23646  -7769967.31647  21586399.942    21586399.8924   21586405.5514
        46.9004         44.0004
  -9461372.56046  -7349592.04147  22154216.104    22154215.9044   22154220.9774
        46.5004         43.5004
   -855397.06142   -659964.96645  25180447.054    25180446.1934   25180445.5294
        35.7004         34.0004
 -23305622.41946 -18137335.88047  20576967.424    20576967.6624   20576969.8664
        49.5004         46.6004
  -7440322.98745  -5544392.84146  22168279.024    22168278.3184   22168280.0784
        44.2004         41.2004
   5851919.69842   4576794.46345  25546185.201    25546183.5944   25546183.3484
        37.1004         35.3004
  -3308937.38443  -2562566.11346  24341503.161    24341502.2304   24341504.4334
        38.9004         36.6004
  -9933333.73746  -7729213.12947  21102935.828    21102936.2994   21102937.7534
        47.9004         45.1004
 19 10 19  2 22  0.0000000  0  8G26G25G23G29G21G02G05G31
 -10065535.52246  -7824638.43847  21573048.751    21573048.6304   21573054.3044
        46.9004         44.0004
  -9378038.68546  -7284656.55347  22170074.496    22170073.2644   22170079.5604
        46.5004         43.5004
   -868029.75242   -669808.62545  25178042.985    25178042.6764   25178042.4074
        35.7004         34.0004
 -23262400.49146 -18103656.45147  20585192.476    20585192.0914   20585194.6034
        49.3004         46.5004
  -7517958.43545  -5604887.98346  22153504.245    22153503.2924   22153507.5854
        44.2004         41.2004
   5944246.98042   4648737.80045  25563752.798    25563753.5214   25563753.0544
        37.1004         35.2004
  -3350610.74443  -2595038.78045  24333571.593    24333569.7714   24333575.6494
        38.3004         35.9004
  -9894651.06146  -7699070.79647  21110296.788    21110297.3884   21110298.8364
        47.9004         45.1004
 19 10 19  2 22 30.0000000  0  8G26G25G23G29G21G02G05G31
 -10135432.86746  -7879103.90447  21559747.601    21559747.8854   21559753.3194
        47.0004         44.2004
  -9294452.95945  -7219524.83747  22185979.228    22185979.2984   22185984.8064
        46.3004         43.3004
   -880157.64042   -679258.91345  25175734.635    25175736.2514   25175736.5134
        35.7004         34.1004
 -23218798.77346 -18069681.08647  20593489.296    20593489.5334   20593491.6204
        49.3004         46.5004
  -7595230.71145  -5665100.12946  22138801.821    22138801.1864   22138803.1054
        44.2004         41.4004
   6036730.13142   4720802.62445  25581353.157    25581352.0094   25581352.7204
        37.1004         35.2004
  -3391800.11143  -2627134.36546  24325730.722    24325731.3914   24325737.9284
        38.0004         36.0004
  -9855428.05846  -7668507.42347  21117761.168    21117760.9774   21117763.1354
        47.9004         45.1004
 19 10 19  2 23  0.0000000  0  8G26G25G23G29G21G02G05G31
 -10205064.74246  -7933362.51047  21546497.288    21546497.2574   21546502.5384
        47.0004         44.2004
  -9210616.33445  -7154197.60347  22201932.432    22201932.4844   22201939.2024
        46.2004         43.2004
   -891780.62142   -688315.86445  25173523.920    25173523.4414   25173522.7094
        35.6004         33.8004
 -23174819.17246 -18035411.26647  20601858.568    20601858.6264   20601860.9924
        49.3004         46.6004
  -7672137.98245  -5725027.85346  22124165.442    22124164.2404   22124167.9414
        44.2004         41.4004
   6129366.69842   4792986.95645  25598980.841    25598979.5934   25598981.5064
        37.3004         35.2004
  -3432503.36843  -2658851.15746  24317988.079    24317986.9414   24317989.3344
        38.2004         36.0004
  -9815665.75146  -7637523.82047  21125327.567    21125328.1034   21125329.5664
        47.9004         45.1004
 19 10 19  2 23 30.0000000  0  8G26G25G23G29G21G02G05G31
 -10274429.59546  -7987413.03947  21533298.161    21533297.9664   21533303.3434
        47.2004         44.5004
  -9126529.81545  -7088675.65347  22217934.916    22217934.5584   22217940.4054
        46.2004         43.3004
   -902898.39042   -696979.11845  25171408.935    25171408.8674   25171407.6024
        35.6004         34.0004
 -23130462.79546 -18000847.86547  20610299.467    20610299.3654   20610301.6034
        49.5004         46.6004
  -7748678.10045  -5784669.50446  22109600.301    22109599.9044   22109602.9274
        44.2004         41.6004
   6222154.68742   4865289.31245  25616638.473    25616635.9864   25616636.7704
        36.6004         34.5004
  -3472718.33043  -2690187.43145  24310334.964    24310333.0324   24310337.3344
        38.0004         35.5004
  -9775365.24946  -7606120.84047  21132996.667    21132996.6094   21132998.6434
        47.9004         45.2004
 19 10 19  2 24  0.0000000  0  8G26G25G23G29G21G02G05G31
 -10343525.85646  -8041254.27447  21520149.652    21520149.1354   21520154.9764
        47.4004         44.5004
  -9042194.34745  -7022959.71847  22233983.407    22233982.7414   22233988.2804
        46.2004         43.0004
   -913510.97242   -705248.68345  25169388.046    25169388.3724   25169389.1954
        35.6004         33.8004
 -23085731.38346 -17965992.22047  20618811.340    20618811.9284   20618813.9934
        49.5004         46.6004
  -7824849.57545  -5844023.89346  22095106.058    22095104.6834   22095108.1274
        44.4004         41.4004
   6315091.62042   4937707.73345  25634321.596    25634322.5234   25634323.9264
        36.3004         34.3004
  -3512442.95243  -2721141.64145  24302774.032    24302775.9734   24302778.8474
        38.0004         35.7004
  -9734527.74546  -7574299.43047  21140767.496    21140767.4704   21140769.8874
        47.9004         45.1004
 19 10 19  2 24 30.0000000  0  8G26G25G23G29G21G02G05G31
 -10412351.93046  -8094884.98447  21507052.385    21507052.1484   21507057.8944
        47.5004         44.5004
  -8957610.89345  -6957050.54347  22250078.425    22250078.4994   22250084.6434
        46.0004         43.0004
   -923618.29542   -713124.53945  25167465.522    25167466.4444   25167465.6874
        35.9004         34.1004
 -23040626.54746 -17930845.59147  20627395.566    20627395.4394   20627397.2724
        49.5004         46.8004
  -7900649.82845  -5903089.02646  22080680.683    22080680.6614   22080683.2064
        44.4004         41.4004
   6408175.77242   5010240.82945  25652034.942    25652035.0904   25652035.8054
        36.6004         34.6004
  -3551675.21343  -2751712.22845  24295310.577    24295309.9134   24295312.5084
        38.0004         35.7004
  -9693154.44946  -7542060.51447  21148640.933    21148640.9234   21148642.4144
        47.9004         45.1004
 19 10 19  2 25  0.0000000  0  8G26G25G23G29G21G02G05G31
 -10480906.31346  -8148303.98547  21494006.605    21494006.7394   21494012.1874
        47.4004         44.5004
  -8872780.42045  -6890948.89747  22266221.933    22266221.3134   22266226.5854
        46.0004         43.0004
   -933220.04842   -720606.51745  25165639.403    25165639.0054   25165640.4684
        36.8004         35.0004
 -22995149.73346 -17895409.11347  20636048.607    20636048.7734   20636051.1634
        49.5004         46.6004
  -7976077.14045  -5961863.54346  22066327.027    22066326.8854   22066330.4764
        44.2004         41.6004
   6501404.80942   5082886.83245  25669777.648    25669775.3744   25669777.0124
        36.8004         34.8004
  -3590413.19142  -2781897.67145  24287938.397    24287938.6674   24287940.0344
        37.5004         35.2004
  -9651246.54846  -7509405.02247  21156615.506    21156615.5794   21156617.6534
        47.9004         45.1004
 19 10 19  2 25 30.0000000  0  8G26G25G23G29G21G02G05G31
 -10549187.40046  -8201510.01347  21481012.938    21481012.7104   21481019.0894
        47.2004         44.4004
  -8787703.94345  -6824655.54347  22282410.378    22282410.5374   22282417.4464
        45.8004         42.8004
   -942317.06242   -727695.14245  25163907.675    25163906.4864   25163906.7464
        37.1004         35.2004
 -22949302.55946 -17859684.04347  20644773.417    20644773.3084   20644775.1084
        49.5004         46.5004
  -8051129.63645  -6020346.01246  22052045.619    22052045.1274   22052047.7454
        44.4004         41.6004
   6594776.64442   5155644.16845  25687545.724    25687544.9684   25687543.2884
        36.6004         34.6004
  -3628654.72743  -2811696.24045  24280659.837    24280662.1474   24280663.9904
        37.6004         35.7004
  -9608805.17946  -7476333.84047  21164691.994    21164691.7044   21164693.8074
        47.9004         45.1004
 19 10 19  2 26  0.0000000  0  8G26G25G23G29G21G02G05G31
 -10617193.64446  -8254501.88647  21468071.719    21468071.7584   21468077.7764
        47.2004         44.4004
  -8702382.39245  -6758171.24047  22298647.736    22298646.7004   22298651.7484
        45.6004         42.6004
   -950908.59742   -734389.81845  25162272.481    25162271.2404   25162272.5044
        37.3004         35.3004
 -22903086.68546 -17823671.68247  20653568.483    20653568.1134   20653569.8864
        49.5004         46.5004
  -8125805.46245  -6078534.96346  22037836.191    22037835.2904   22037837.5994
        44.4004         41.6004
   6688289.13542   5228511.04245  25705339.801    25705342.3334   25705339.1684
        36.3004         34.5004
  -3666398.08543  -2841106.62945  24273479.302    24273479.5964   24273481.0294
        37.8004         35.9004
  -9565832.03946  -7442848.28247  21172869.699    21172869.4554   21172871.3794
        47.9004         44.9004
 19 10 19  2 26 30.0000000  0  8G26G25G23G29G21G02G05G31
 -10684923.45346  -8307278.34347  21455183.165    21455183.1304   21455189.1784
        47.4004         44.5004
  -8616816.81145  -6691496.76547  22314929.005    22314928.7604   22314935.9304
        45.5004         42.6004
   -958994.98143   -740690.87145  25160734.023    25160734.6234   25160734.8254
        37.8004         35.9004
 -22856503.47946 -17787373.07947  20662431.785    20662432.4174   20662434.3004
        49.3004         46.5004
  -8200102.63445  -6136428.85146  22023695.992    22023696.8814   22023699.0464
        44.6004         41.8004
   6781940.35542   5301486.00245  25723161.390    25723158.9384   25723162.0874
        36.1004         34.1004
  -3703640.77343  -2870126.87245  24266392.202    24266391.3394   24266394.1884
        38.0004         35.9004
  -9522328.26546  -7408949.25347  21181147.981    21181148.0904   21181149.7594
        47.9004         44.9004
 19 10 19  2 27  0.0000000  0  8G26G25G23G29G21G02G05G31
 -10752375.24646  -8359838.18647  21442347.552    21442347.4494   21442353.7284
        47.7004         44.9004
  -8531008.11645  -6624632.86047  22331258.968    22331258.5554   22331263.9454
        45.5004         42.5004
   -966575.99843   -746598.20845  25159290.975    25159291.3714   25159290.5364
        37.8004         35.5004
 -22809554.55946 -17750789.50747  20671366.176    20671366.3564   20671368.2674
        49.3004         46.3004
  -8274019.36845  -6194026.31346  22009631.618    22009631.4214   22009633.3884
        44.8004         41.9004
   6875728.08442   5374567.36845  25741009.479    25741006.6424   25741007.1064
        35.6004         33.8004
  -3740381.17643  -2898755.75945  24259401.717    24259401.3584   24259401.4474
        37.8004         35.7004
  -9478295.02546  -7374637.64647  21189527.281    21189527.4084   21189528.7094
        47.7004         44.9004
 19 10 19  2 27 30.0000000  0  8G26G25G23G29G21G02G05G31
 -10819547.43546  -8412180.15847  21429565.119    21429564.9064   21429570.6724
        47.9004         45.1004
  -8444957.29945  -6557580.30047  22347634.578    22347633.2744   22347639.6084
        45.5004         42.5004
   -973651.93843   -752111.93445  25157944.826    25157944.4264   25157944.6364
        37.8004         35.7004
 -22762241.70746 -17713922.35547  20680369.599    20680369.7114   20680371.6794
        49.3004         46.5004
  -8347553.94645  -6251325.97146  21995637.753    21995636.7254   21995640.1684
        44.8004         41.9004
   6969650.18342   5447753.45145  25758882.178    25758879.3214   25758882.3494
        35.7004         33.8004
  -3776617.32043  -2926991.69145  24252505.246    24252506.0574   24252507.2794
        37.6004         35.5004
  -9433733.34746  -7339914.26847  21198007.021    21198007.0404   21198009.0914
        47.7004         44.9004
 19 10 19  2 28  0.0000000  0  8G26G25G23G29G21G02G05G31
 -10886438.48846  -8464303.05847  21416836.406    21416836.1544   21416842.0904
        47.9004         44.9004
  -8358665.40045  -6490339.85947  22364053.843    22364054.1084   22364060.4964
        45.3004         42.3004
   -980222.96643   -757232.25845  25156694.417    25156693.9674   25156694.5734
        37.6004         35.3004
 -22714566.78446 -17676773.06847  20689441.735    20689441.8184   20689444.1854
        49.3004         46.3004
  -8420704.27245  -6308326.22747  21981718.169    21981717.9274   21981720.6584
        44.9004         42.1004
   7063704.25042   5521042.29245  25776779.394    25776778.3644   25776778.8444
        35.0004         33.3004
  -3812347.33043  -2954833.23445  24245707.471    24245706.4074   24245707.7944
        37.8004         35.7004
  -9388645.06846  -7304780.56247  21206587.199    21206587.3724   21206588.8044
        47.7004         44.7004
 19 10 19  2 28 30.0000000  0  7G26G25G23G29G21G05G31
 -10953046.82146  -8516205.64847  21404161.173    21404161.2004   21404166.6454
        47.7004         44.7004
  -8272133.37145  -6422912.33247  22380522.300    22380521.2554   22380526.6894
        45.3004         42.3004
   -986288.70242   -761958.82345  25155540.060    25155539.8334   25155540.1434
        37.3004         35.0004
 -22666530.41846 -17639342.13747  20698582.783    20698582.7564   20698584.9394
        49.1004         46.3004
  -8493469.07045  -6365026.06647  21967872.240    21967870.8724   21967872.8134
        44.9004         42.1004
  -3847568.99643  -2982278.70246  24239001.991    24239004.2844   24239004.8294
        38.2004         36.0004
  -9343031.38246  -7269237.44947  21215266.718    21215267.0644   21215268.7904
        47.5004         44.7004
 19 10 19  2 29  0.0000000  0  7G26G25G23G29G21G05G31
 -11019370.80546  -8567886.67547  21391539.964    21391539.8674   21391545.6604
        47.7004         44.7004
  -8185362.25745  -6355298.48446  22397031.503    22397032.2194   22397038.1724
        44.9004         41.9004
   -991849.83342   -766292.16345  25154481.366    25154479.6554   25154480.8594
        37.1004         35.0004
 -22618134.66546 -17601631.16647  20707792.343    20707792.1944   20707794.4684
        49.3004         46.3004
  -8565845.43645  -6421423.23947  21954098.752    21954098.4164   21954100.9954
        44.9004         42.1004
  -3882280.77743  -3009326.82846  24232399.443    24232398.9264   24232399.6234
        38.5004         36.4004
  -9296893.43846  -7233285.81147  21224046.434    21224047.1224   21224048.6594
        47.5004         44.7004
 19 10 19  2 29 30.0000000  0  7G26G25G23G29G21G05G31
 -11085408.89946  -8619344.92847  21378973.167    21378973.2134   21378979.2084
        47.7004         44.9004
  -8098353.01145  -6287499.07446  22413590.868    22413589.9834   22413596.1084
        44.8004         41.8004
   -996906.54442   -770232.46345  25153518.480    25153520.0114   25153519.7244
        37.0004         34.6004
 -22569381.57746 -17563641.74847  20717069.013    20717069.4554   20717072.2084
        49.1004         46.3004
  -8637832.24745  -6477516.85947  21940400.468    21940400.0024   21940402.2864
        44.9004         42.1004
  -3916480.80543  -3035976.19446  24225886.121    24225890.1484   24225890.6964
        38.5004         36.2004
  -9250232.81046  -7196926.89247  21232925.886    21232925.9894   21232927.7034
        47.7004         44.7004
